{
  "source": "50k-radio-stations",
  "provider": "rapidapi",
  "syncedAt": "2026-06-03T13:04:18.082Z",
  "endpoint": "/cities",
  "page": 22,
  "limit": 250,
  "data": [
    {
      "id": 11846,
      "stateId": 48,
      "name": "Bradford",
      "latitude": null,
      "longitude": null,
      "createdAt": "2025-12-28T19:10:10.650Z",
      "updatedAt": "2025-12-28T19:10:10.650Z",
      "stateName": "Rhode Island",
      "countryName": "United States"
    },
    {
      "id": 4580,
      "stateId": 2,
      "name": "Bradford-on-Avon",
      "latitude": null,
      "longitude": null,
      "createdAt": "2025-12-28T18:17:55.414Z",
      "updatedAt": "2025-12-28T18:17:55.414Z",
      "stateName": "England",
      "countryName": "United Kingdom"
    },
    {
      "id": 12952,
      "stateId": 20,
      "name": "Brady",
      "latitude": "37.8034989",
      "longitude": "-92.5169818",
      "createdAt": "2025-12-28T19:19:47.711Z",
      "updatedAt": "2025-12-28T19:19:47.711Z",
      "stateName": "Texas",
      "countryName": "United States"
    },
    {
      "id": 3522,
      "stateId": 464,
      "name": "Braga",
      "latitude": "41.5503200",
      "longitude": "-8.4200500",
      "createdAt": "2025-12-28T18:14:44.529Z",
      "updatedAt": "2025-12-28T18:14:44.529Z",
      "stateName": "Norte",
      "countryName": "Portugal"
    },
    {
      "id": 2845,
      "stateId": 58,
      "name": "Bragado",
      "latitude": "-32.1628172",
      "longitude": "-62.0921509",
      "createdAt": "2025-12-28T18:12:52.191Z",
      "updatedAt": "2025-12-28T18:12:52.191Z",
      "stateName": "Buenos Aires",
      "countryName": "Argentina"
    },
    {
      "id": 17756,
      "stateId": 464,
      "name": "Braganca",
      "latitude": "39.5232529",
      "longitude": "-8.9987995",
      "createdAt": "2026-02-17T07:41:17.765Z",
      "updatedAt": "2026-02-17T07:41:17.765Z",
      "stateName": "Norte",
      "countryName": "Portugal"
    },
    {
      "id": 8822,
      "stateId": 159,
      "name": "Bragança",
      "latitude": null,
      "longitude": null,
      "createdAt": "2025-12-28T18:40:32.478Z",
      "updatedAt": "2025-12-28T18:40:32.478Z",
      "stateName": "Pará",
      "countryName": "Brazil"
    },
    {
      "id": 949,
      "stateId": 4,
      "name": "Braganca Paulista",
      "latitude": "-17.4339069",
      "longitude": "-45.8426650",
      "createdAt": "2025-12-28T17:02:30.065Z",
      "updatedAt": "2025-12-28T17:02:30.065Z",
      "stateName": "São Paulo",
      "countryName": "Brazil"
    },
    {
      "id": 10984,
      "stateId": 49,
      "name": "Braham",
      "latitude": null,
      "longitude": null,
      "createdAt": "2025-12-28T18:59:56.123Z",
      "updatedAt": "2025-12-28T18:59:56.123Z",
      "stateName": "Minnesota",
      "countryName": "United States"
    },
    {
      "id": 2687,
      "stateId": 618,
      "name": "Brahmapur",
      "latitude": "19.3115100",
      "longitude": "84.7929000",
      "createdAt": "2025-12-28T18:12:40.398Z",
      "updatedAt": "2025-12-28T18:12:40.398Z",
      "stateName": "Orissa",
      "countryName": "India"
    },
    {
      "id": 17970,
      "stateId": 1269,
      "name": "Brahmapur",
      "latitude": "19.3115100",
      "longitude": "84.7929000",
      "createdAt": "2026-03-22T01:21:21.043Z",
      "updatedAt": "2026-03-22T01:21:21.043Z",
      "stateName": "Odisha",
      "countryName": "India"
    },
    {
      "id": 4487,
      "stateId": 19,
      "name": "Braidwood",
      "latitude": "-33.9811915",
      "longitude": "144.8351072",
      "createdAt": "2025-12-28T18:17:44.106Z",
      "updatedAt": "2025-12-28T18:17:44.106Z",
      "stateName": "New South Wales",
      "countryName": "Australia"
    },
    {
      "id": 9075,
      "stateId": 959,
      "name": "Braine",
      "latitude": "50.9010009",
      "longitude": "4.3862404",
      "createdAt": "2025-12-28T18:41:46.756Z",
      "updatedAt": "2025-12-28T18:41:46.756Z",
      "stateName": "Walloon Brabant",
      "countryName": "Belgium"
    },
    {
      "id": 18249,
      "stateId": 959,
      "name": "Braine-l'Alleud",
      "latitude": "50.9010009",
      "longitude": "4.3862404",
      "createdAt": "2026-05-04T05:13:37.587Z",
      "updatedAt": "2026-05-04T05:13:37.587Z",
      "stateName": "Walloon Brabant",
      "countryName": "Belgium"
    },
    {
      "id": 115,
      "stateId": 49,
      "name": "Brainerd",
      "latitude": "34.9959100",
      "longitude": "-85.1502300",
      "createdAt": "2025-12-28T16:56:25.058Z",
      "updatedAt": "2025-12-28T16:56:25.058Z",
      "stateName": "Minnesota",
      "countryName": "United States"
    },
    {
      "id": 760,
      "stateId": 41,
      "name": "Brampton",
      "latitude": "43.6834100",
      "longitude": "-79.7663300",
      "createdAt": "2025-12-28T17:02:15.702Z",
      "updatedAt": "2025-12-28T17:02:15.702Z",
      "stateName": "Ontario",
      "countryName": "Canada"
    },
    {
      "id": 16462,
      "stateId": 145,
      "name": "Branchville",
      "latitude": "37.8034989",
      "longitude": "-92.5169818",
      "createdAt": "2025-12-28T20:44:27.764Z",
      "updatedAt": "2025-12-28T20:44:27.764Z",
      "stateName": "South Carolina",
      "countryName": "United States"
    },
    {
      "id": 11244,
      "stateId": 80,
      "name": "Brandenburg",
      "latitude": "37.8034989",
      "longitude": "-92.5169818",
      "createdAt": "2025-12-28T19:03:27.057Z",
      "updatedAt": "2025-12-28T19:03:27.057Z",
      "stateName": "Kentucky",
      "countryName": "United States"
    },
    {
      "id": 16943,
      "stateId": 514,
      "name": "Brandenburg",
      "latitude": "52.4166700",
      "longitude": "12.5500000",
      "createdAt": "2025-12-28T20:59:04.563Z",
      "updatedAt": "2025-12-28T20:59:04.563Z",
      "stateName": "Brandenburg",
      "countryName": "Germany"
    },
    {
      "id": 3699,
      "stateId": 401,
      "name": "Brandon",
      "latitude": "32.2732000",
      "longitude": "-89.9859200",
      "createdAt": "2025-12-28T18:15:02.762Z",
      "updatedAt": "2025-12-28T18:15:02.762Z",
      "stateName": "Mississippi",
      "countryName": "United States"
    },
    {
      "id": 13646,
      "stateId": 33,
      "name": "Brandon",
      "latitude": "27.9378000",
      "longitude": "-82.2859200",
      "createdAt": "2025-12-28T19:29:13.700Z",
      "updatedAt": "2025-12-28T19:29:13.700Z",
      "stateName": "Florida",
      "countryName": "United States"
    },
    {
      "id": 5645,
      "stateId": 121,
      "name": "Brandon",
      "latitude": "49.8469200",
      "longitude": "-99.9530600",
      "createdAt": "2025-12-28T18:21:47.552Z",
      "updatedAt": "2025-12-28T18:21:47.552Z",
      "stateName": "Manitoba",
      "countryName": "Canada"
    },
    {
      "id": 13983,
      "stateId": 436,
      "name": "Brandon",
      "latitude": "27.9378000",
      "longitude": "-82.2859200",
      "createdAt": "2025-12-28T19:36:29.182Z",
      "updatedAt": "2025-12-28T19:36:29.182Z",
      "stateName": "Vermont",
      "countryName": "United States"
    },
    {
      "id": 2836,
      "stateId": 58,
      "name": "Brandsen",
      "latitude": "-32.1628172",
      "longitude": "-62.0921509",
      "createdAt": "2025-12-28T18:12:51.084Z",
      "updatedAt": "2025-12-28T18:12:51.084Z",
      "stateName": "Buenos Aires",
      "countryName": "Argentina"
    },
    {
      "id": 16692,
      "stateId": 50,
      "name": "Brandy Station",
      "latitude": null,
      "longitude": null,
      "createdAt": "2025-12-28T20:50:21.760Z",
      "updatedAt": "2025-12-28T20:50:21.760Z",
      "stateName": "Virginia",
      "countryName": "United States"
    },
    {
      "id": 5907,
      "stateId": 152,
      "name": "Branford",
      "latitude": "41.2795400",
      "longitude": "-72.8151000",
      "createdAt": "2025-12-28T18:22:35.348Z",
      "updatedAt": "2025-12-28T18:22:35.348Z",
      "stateName": "Connecticut",
      "countryName": "United States"
    },
    {
      "id": 5979,
      "stateId": 667,
      "name": "Branges",
      "latitude": null,
      "longitude": null,
      "createdAt": "2025-12-28T18:22:46.602Z",
      "updatedAt": "2025-12-28T18:22:46.602Z",
      "stateName": "Bourgogne-Franche-Comté",
      "countryName": "France"
    },
    {
      "id": 5954,
      "stateId": 905,
      "name": "Braniewo",
      "latitude": null,
      "longitude": null,
      "createdAt": "2025-12-28T18:22:41.771Z",
      "updatedAt": "2025-12-28T18:22:41.771Z",
      "stateName": "Northern Poland",
      "countryName": "Poland"
    },
    {
      "id": 1536,
      "stateId": 112,
      "name": "Branson",
      "latitude": "37.8034989",
      "longitude": "-92.5169818",
      "createdAt": "2025-12-28T17:04:40.815Z",
      "updatedAt": "2025-12-28T17:04:40.815Z",
      "stateName": "Missouri",
      "countryName": "United States"
    },
    {
      "id": 6609,
      "stateId": 41,
      "name": "Brantford",
      "latitude": "43.1334000",
      "longitude": "-80.2663600",
      "createdAt": "2025-12-28T18:26:07.892Z",
      "updatedAt": "2025-12-28T18:26:07.892Z",
      "stateName": "Ontario",
      "countryName": "Canada"
    },
    {
      "id": 15797,
      "stateId": 122,
      "name": "Brantley",
      "latitude": "37.8034989",
      "longitude": "-92.5169818",
      "createdAt": "2025-12-28T20:19:31.325Z",
      "updatedAt": "2025-12-28T20:19:31.325Z",
      "stateName": "Alabama",
      "countryName": "United States"
    },
    {
      "id": 3591,
      "stateId": 95,
      "name": "Brasilândia de Minas",
      "latitude": null,
      "longitude": null,
      "createdAt": "2025-12-28T18:14:54.132Z",
      "updatedAt": "2025-12-28T18:14:54.132Z",
      "stateName": "Minas Gerais",
      "countryName": "Brazil"
    },
    {
      "id": 601,
      "stateId": 288,
      "name": "Brasilia",
      "latitude": "-17.4339069",
      "longitude": "-45.8426650",
      "createdAt": "2025-12-28T17:01:11.801Z",
      "updatedAt": "2025-12-28T17:01:11.801Z",
      "stateName": "Distrito Federal",
      "countryName": "Brazil"
    },
    {
      "id": 7167,
      "stateId": 95,
      "name": "Brasilia de Minas",
      "latitude": "-17.4339069",
      "longitude": "-45.8426650",
      "createdAt": "2025-12-28T18:28:38.804Z",
      "updatedAt": "2025-12-28T18:28:38.804Z",
      "stateName": "Minas Gerais",
      "countryName": "Brazil"
    },
    {
      "id": 3734,
      "stateId": 159,
      "name": "Brasil Novo",
      "latitude": null,
      "longitude": null,
      "createdAt": "2025-12-28T18:15:06.048Z",
      "updatedAt": "2025-12-28T18:15:06.048Z",
      "stateName": "Pará",
      "countryName": "Brazil"
    },
    {
      "id": 4707,
      "stateId": 85,
      "name": "Brasnorte",
      "latitude": null,
      "longitude": null,
      "createdAt": "2025-12-28T18:18:31.130Z",
      "updatedAt": "2025-12-28T18:18:31.130Z",
      "stateName": "Mato Grosso",
      "countryName": "Brazil"
    },
    {
      "id": 3002,
      "stateId": 95,
      "name": "Brasópolis",
      "latitude": null,
      "longitude": null,
      "createdAt": "2025-12-28T18:13:29.467Z",
      "updatedAt": "2025-12-28T18:13:29.467Z",
      "stateName": "Minas Gerais",
      "countryName": "Brazil"
    },
    {
      "id": 5840,
      "stateId": 896,
      "name": "Brașov",
      "latitude": "45.6486100",
      "longitude": "25.6061300",
      "createdAt": "2025-12-28T18:22:27.664Z",
      "updatedAt": "2025-12-28T18:22:27.664Z",
      "stateName": "Braşov County",
      "countryName": "Romania"
    },
    {
      "id": 5855,
      "stateId": 95,
      "name": "Brás Pires",
      "latitude": null,
      "longitude": null,
      "createdAt": "2025-12-28T18:22:29.639Z",
      "updatedAt": "2025-12-28T18:22:29.639Z",
      "stateName": "Minas Gerais",
      "countryName": "Brazil"
    },
    {
      "id": 2279,
      "stateId": 579,
      "name": "Bratislava",
      "latitude": "48.1481600",
      "longitude": "17.1067400",
      "createdAt": "2025-12-28T18:11:31.705Z",
      "updatedAt": "2025-12-28T18:11:31.705Z",
      "stateName": "Bratislava",
      "countryName": "Slovakia"
    },
    {
      "id": 3550,
      "stateId": 695,
      "name": "Bratsk",
      "latitude": "56.1325000",
      "longitude": "101.6141700",
      "createdAt": "2025-12-28T18:14:48.130Z",
      "updatedAt": "2025-12-28T18:14:48.130Z",
      "stateName": "Irkutsk",
      "countryName": "Russia"
    },
    {
      "id": 8187,
      "stateId": 1010,
      "name": "Bratsk",
      "latitude": "56.1325000",
      "longitude": "101.6141700",
      "createdAt": "2025-12-28T18:36:19.659Z",
      "updatedAt": "2025-12-28T18:36:19.659Z",
      "stateName": "Irkutsk Oblast",
      "countryName": "Russia"
    },
    {
      "id": 5091,
      "stateId": 436,
      "name": "Brattleboro",
      "latitude": "37.8034989",
      "longitude": "-92.5169818",
      "createdAt": "2025-12-28T18:19:33.283Z",
      "updatedAt": "2025-12-28T18:19:33.283Z",
      "stateName": "Vermont",
      "countryName": "United States"
    },
    {
      "id": 9964,
      "stateId": 95,
      "name": "Braúnas",
      "latitude": null,
      "longitude": null,
      "createdAt": "2025-12-28T18:49:14.475Z",
      "updatedAt": "2025-12-28T18:49:14.475Z",
      "stateName": "Minas Gerais",
      "countryName": "Brazil"
    },
    {
      "id": 5939,
      "stateId": 212,
      "name": "Braunschweig",
      "latitude": "52.2659400",
      "longitude": "10.5267300",
      "createdAt": "2025-12-28T18:22:38.874Z",
      "updatedAt": "2025-12-28T18:22:38.874Z",
      "stateName": "Lower Saxony",
      "countryName": "Germany"
    },
    {
      "id": 13139,
      "stateId": 24,
      "name": "Brawley",
      "latitude": "32.9786600",
      "longitude": "-115.5302700",
      "createdAt": "2025-12-28T19:21:01.315Z",
      "updatedAt": "2025-12-28T19:21:01.315Z",
      "stateName": "California",
      "countryName": "United States"
    },
    {
      "id": 5998,
      "stateId": 51,
      "name": "Brazil",
      "latitude": null,
      "longitude": null,
      "createdAt": "2025-12-28T18:22:49.396Z",
      "updatedAt": "2025-12-28T18:22:49.396Z",
      "stateName": "Indiana",
      "countryName": "United States"
    },
    {
      "id": 14951,
      "stateId": 95,
      "name": "Brazopolis",
      "latitude": null,
      "longitude": null,
      "createdAt": "2025-12-28T19:50:33.451Z",
      "updatedAt": "2025-12-28T19:50:33.451Z",
      "stateName": "Minas Gerais",
      "countryName": "Brazil"
    },
    {
      "id": 3972,
      "stateId": 20,
      "name": "Brazos",
      "latitude": "37.8034989",
      "longitude": "-92.5169818",
      "createdAt": "2025-12-28T18:15:45.686Z",
      "updatedAt": "2025-12-28T18:15:45.686Z",
      "stateName": "Texas",
      "countryName": "United States"
    },
    {
      "id": 18357,
      "stateId": 1464,
      "name": "Brazzaville",
      "latitude": "-4.2661300",
      "longitude": "15.2831800",
      "createdAt": "2026-05-18T06:54:24.825Z",
      "updatedAt": "2026-05-18T06:54:24.825Z",
      "stateName": "Brazzaville",
      "countryName": "Democratic Republic of the Congo"
    },
    {
      "id": 11392,
      "stateId": 24,
      "name": "Brea",
      "latitude": "33.9166800",
      "longitude": "-117.9000600",
      "createdAt": "2025-12-28T19:05:02.859Z",
      "updatedAt": "2025-12-28T19:05:02.859Z",
      "stateName": "California",
      "countryName": "United States"
    },
    {
      "id": 7988,
      "stateId": 336,
      "name": "Brea Pozo",
      "latitude": null,
      "longitude": null,
      "createdAt": "2025-12-28T18:33:55.112Z",
      "updatedAt": "2025-12-28T18:33:55.112Z",
      "stateName": "Santiago del Estero",
      "countryName": "Argentina"
    },
    {
      "id": 15804,
      "stateId": 16,
      "name": "Breaux Bridge",
      "latitude": "37.8034989",
      "longitude": "-92.5169818",
      "createdAt": "2025-12-28T20:19:49.041Z",
      "updatedAt": "2025-12-28T20:19:49.041Z",
      "stateName": "Louisiana",
      "countryName": "United States"
    },
    {
      "id": 5830,
      "stateId": 65,
      "name": "Brebes",
      "latitude": "-5.1788624",
      "longitude": "110.4217741",
      "createdAt": "2025-12-28T18:22:26.209Z",
      "updatedAt": "2025-12-28T18:22:26.209Z",
      "stateName": "Central Java",
      "countryName": "Indonesia"
    },
    {
      "id": 12920,
      "stateId": 27,
      "name": "Breckenridge",
      "latitude": "37.8034989",
      "longitude": "-92.5169818",
      "createdAt": "2025-12-28T19:19:35.341Z",
      "updatedAt": "2025-12-28T19:19:35.341Z",
      "stateName": "Colorado",
      "countryName": "United States"
    },
    {
      "id": 12356,
      "stateId": 49,
      "name": "Breckenridge",
      "latitude": "37.8034989",
      "longitude": "-92.5169818",
      "createdAt": "2025-12-28T19:15:36.425Z",
      "updatedAt": "2025-12-28T19:15:36.425Z",
      "stateName": "Minnesota",
      "countryName": "United States"
    },
    {
      "id": 4285,
      "stateId": 96,
      "name": "Breda",
      "latitude": "51.5865600",
      "longitude": "4.7759600",
      "createdAt": "2025-12-28T18:16:43.688Z",
      "updatedAt": "2025-12-28T18:16:43.688Z",
      "stateName": "North Brabant",
      "countryName": "Netherlands"
    },
    {
      "id": 11557,
      "stateId": 46,
      "name": "Breese",
      "latitude": "37.8034989",
      "longitude": "-92.5169818",
      "createdAt": "2025-12-28T19:07:18.373Z",
      "updatedAt": "2025-12-28T19:07:18.373Z",
      "stateName": "Illinois",
      "countryName": "United States"
    },
    {
      "id": 15216,
      "stateId": 49,
      "name": "Breezy Point",
      "latitude": "37.8034989",
      "longitude": "-92.5169818",
      "createdAt": "2025-12-28T19:58:41.247Z",
      "updatedAt": "2025-12-28T19:58:41.247Z",
      "stateName": "Minnesota",
      "countryName": "United States"
    },
    {
      "id": 16124,
      "stateId": 1323,
      "name": "Breil-sur-Roya",
      "latitude": "47.3768156",
      "longitude": "2.7742767",
      "createdAt": "2025-12-28T20:35:02.922Z",
      "updatedAt": "2025-12-28T20:35:02.922Z",
      "stateName": "Alpes-Maritimes",
      "countryName": "France"
    },
    {
      "id": 5846,
      "stateId": 261,
      "name": "Brejetuba",
      "latitude": null,
      "longitude": null,
      "createdAt": "2025-12-28T18:22:28.780Z",
      "updatedAt": "2025-12-28T18:22:28.780Z",
      "stateName": "Espírito Santo",
      "countryName": "Brazil"
    },
    {
      "id": 17968,
      "stateId": 7,
      "name": "Brejo da Madre de Deus",
      "latitude": null,
      "longitude": null,
      "createdAt": "2026-03-21T20:31:24.389Z",
      "updatedAt": "2026-03-21T20:31:24.389Z",
      "stateName": "Pernambuco",
      "countryName": "Brazil"
    },
    {
      "id": 15843,
      "stateId": 287,
      "name": "Brejo do Cruz",
      "latitude": null,
      "longitude": null,
      "createdAt": "2025-12-28T20:20:33.020Z",
      "updatedAt": "2025-12-28T20:20:33.020Z",
      "stateName": "Paraíba",
      "countryName": "Brazil"
    },
    {
      "id": 5935,
      "stateId": 271,
      "name": "Brejo Grande",
      "latitude": null,
      "longitude": null,
      "createdAt": "2025-12-28T18:22:38.530Z",
      "updatedAt": "2025-12-28T18:22:38.530Z",
      "stateName": "Sergipe",
      "countryName": "Brazil"
    },
    {
      "id": 5934,
      "stateId": 159,
      "name": "Brejo Grande do Araguaia",
      "latitude": null,
      "longitude": null,
      "createdAt": "2025-12-28T18:22:38.494Z",
      "updatedAt": "2025-12-28T18:22:38.494Z",
      "stateName": "Pará",
      "countryName": "Brazil"
    },
    {
      "id": 4719,
      "stateId": 231,
      "name": "Brejo Santo",
      "latitude": null,
      "longitude": null,
      "createdAt": "2025-12-28T18:18:32.305Z",
      "updatedAt": "2025-12-28T18:18:32.305Z",
      "stateName": "Ceará",
      "countryName": "Brazil"
    },
    {
      "id": 1695,
      "stateId": 515,
      "name": "Bremen",
      "latitude": "53.0751600",
      "longitude": "8.8077700",
      "createdAt": "2025-12-28T18:01:57.824Z",
      "updatedAt": "2025-12-28T18:01:57.824Z",
      "stateName": "Bremen",
      "countryName": "Germany"
    },
    {
      "id": 16358,
      "stateId": 22,
      "name": "Bremen",
      "latitude": "53.0751600",
      "longitude": "8.8077700",
      "createdAt": "2025-12-28T20:42:02.297Z",
      "updatedAt": "2025-12-28T20:42:02.297Z",
      "stateName": "Georgia",
      "countryName": "United States"
    },
    {
      "id": 15222,
      "stateId": 51,
      "name": "Bremen",
      "latitude": "53.0751600",
      "longitude": "8.8077700",
      "createdAt": "2025-12-28T19:58:42.923Z",
      "updatedAt": "2025-12-28T19:58:42.923Z",
      "stateName": "Indiana",
      "countryName": "United States"
    },
    {
      "id": 9498,
      "stateId": 515,
      "name": "Bremerhaven",
      "latitude": "53.5502100",
      "longitude": "8.5767300",
      "createdAt": "2025-12-28T18:44:45.471Z",
      "updatedAt": "2025-12-28T18:44:45.471Z",
      "stateName": "Bremen",
      "countryName": "Germany"
    },
    {
      "id": 11070,
      "stateId": 42,
      "name": "Bremerton",
      "latitude": "47.5673200",
      "longitude": "-122.6326400",
      "createdAt": "2025-12-28T19:00:42.020Z",
      "updatedAt": "2025-12-28T19:00:42.020Z",
      "stateName": "Washington",
      "countryName": "United States"
    },
    {
      "id": 5971,
      "stateId": 212,
      "name": "Bremervorde",
      "latitude": "50.9385735",
      "longitude": "9.5583023",
      "createdAt": "2025-12-28T18:22:44.878Z",
      "updatedAt": "2025-12-28T18:22:44.878Z",
      "stateName": "Lower Saxony",
      "countryName": "Germany"
    },
    {
      "id": 5931,
      "stateId": 20,
      "name": "Brenham",
      "latitude": "30.1668800",
      "longitude": "-96.3977400",
      "createdAt": "2025-12-28T18:22:37.758Z",
      "updatedAt": "2025-12-28T18:22:37.758Z",
      "stateName": "Texas",
      "countryName": "United States"
    },
    {
      "id": 9805,
      "stateId": 21,
      "name": "Brentwood",
      "latitude": "36.0331200",
      "longitude": "-86.7827800",
      "createdAt": "2025-12-28T18:47:18.792Z",
      "updatedAt": "2025-12-28T18:47:18.792Z",
      "stateName": "Tennessee",
      "countryName": "United States"
    },
    {
      "id": 16156,
      "stateId": 6,
      "name": "Brentwood",
      "latitude": "40.7812100",
      "longitude": "-73.2462300",
      "createdAt": "2025-12-28T20:35:50.850Z",
      "updatedAt": "2025-12-28T20:35:50.850Z",
      "stateName": "New York",
      "countryName": "United States"
    },
    {
      "id": 18072,
      "stateId": 2,
      "name": "Brentwood",
      "latitude": "51.6212700",
      "longitude": "0.3055600",
      "createdAt": "2026-03-30T19:13:21.471Z",
      "updatedAt": "2026-03-30T19:13:21.471Z",
      "stateName": "England",
      "countryName": "United Kingdom"
    },
    {
      "id": 5817,
      "stateId": 98,
      "name": "Brescia",
      "latitude": "45.5355800",
      "longitude": "10.2147200",
      "createdAt": "2025-12-28T18:22:24.358Z",
      "updatedAt": "2025-12-28T18:22:24.358Z",
      "stateName": "Lombardy",
      "countryName": "Italy"
    },
    {
      "id": 10684,
      "stateId": 1150,
      "name": "Breskens",
      "latitude": "52.0575321",
      "longitude": "5.3403480",
      "createdAt": "2025-12-28T18:56:38.711Z",
      "updatedAt": "2025-12-28T18:56:38.711Z",
      "stateName": "Zeeland",
      "countryName": "Netherlands"
    },
    {
      "id": 17465,
      "stateId": 753,
      "name": "Bressuire",
      "latitude": "46.8500000",
      "longitude": "-0.4833300",
      "createdAt": "2026-01-12T21:00:32.060Z",
      "updatedAt": "2026-01-12T21:00:32.060Z",
      "stateName": "Poitou-Charentes",
      "countryName": "France"
    },
    {
      "id": 3032,
      "stateId": 224,
      "name": "Brest",
      "latitude": "47.3768156",
      "longitude": "2.7742767",
      "createdAt": "2025-12-28T18:13:34.057Z",
      "updatedAt": "2025-12-28T18:13:34.057Z",
      "stateName": "Brittany",
      "countryName": "France"
    },
    {
      "id": 3850,
      "stateId": 208,
      "name": "Bretagne-de-Marsan",
      "latitude": "47.3768156",
      "longitude": "2.7742767",
      "createdAt": "2025-12-28T18:15:23.978Z",
      "updatedAt": "2025-12-28T18:15:23.978Z",
      "stateName": "Aquitaine",
      "countryName": "France"
    },
    {
      "id": 356,
      "stateId": 159,
      "name": "Breu Branco",
      "latitude": null,
      "longitude": null,
      "createdAt": "2025-12-28T17:00:43.979Z",
      "updatedAt": "2025-12-28T17:00:43.979Z",
      "stateName": "Pará",
      "countryName": "Brazil"
    },
    {
      "id": 9038,
      "stateId": 55,
      "name": "Brevard",
      "latitude": "37.8034989",
      "longitude": "-92.5169818",
      "createdAt": "2025-12-28T18:41:38.307Z",
      "updatedAt": "2025-12-28T18:41:38.307Z",
      "stateName": "North Carolina",
      "countryName": "United States"
    },
    {
      "id": 6855,
      "stateId": 159,
      "name": "Breves",
      "latitude": null,
      "longitude": null,
      "createdAt": "2025-12-28T18:27:22.876Z",
      "updatedAt": "2025-12-28T18:27:22.876Z",
      "stateName": "Pará",
      "countryName": "Brazil"
    },
    {
      "id": 16552,
      "stateId": 138,
      "name": "Brewer",
      "latitude": "37.8034989",
      "longitude": "-92.5169818",
      "createdAt": "2025-12-28T20:46:56.389Z",
      "updatedAt": "2025-12-28T20:46:56.389Z",
      "stateName": "Maine",
      "countryName": "United States"
    },
    {
      "id": 11792,
      "stateId": 47,
      "name": "Brewster",
      "latitude": null,
      "longitude": null,
      "createdAt": "2025-12-28T19:09:37.547Z",
      "updatedAt": "2025-12-28T19:09:37.547Z",
      "stateName": "Massachusetts",
      "countryName": "United States"
    },
    {
      "id": 11299,
      "stateId": 31,
      "name": "Brewster",
      "latitude": null,
      "longitude": null,
      "createdAt": "2025-12-28T19:03:56.272Z",
      "updatedAt": "2025-12-28T19:03:56.272Z",
      "stateName": "Kansas",
      "countryName": "United States"
    },
    {
      "id": 13142,
      "stateId": 42,
      "name": "Brewster",
      "latitude": "37.8034989",
      "longitude": "-92.5169818",
      "createdAt": "2025-12-28T19:21:01.676Z",
      "updatedAt": "2025-12-28T19:21:01.676Z",
      "stateName": "Washington",
      "countryName": "United States"
    },
    {
      "id": 16679,
      "stateId": 122,
      "name": "Brewton",
      "latitude": "37.8034989",
      "longitude": "-92.5169818",
      "createdAt": "2025-12-28T20:50:08.358Z",
      "updatedAt": "2025-12-28T20:50:08.358Z",
      "stateName": "Alabama",
      "countryName": "United States"
    },
    {
      "id": 18435,
      "stateId": 37,
      "name": "Briançon",
      "latitude": "47.3768156",
      "longitude": "2.7742767",
      "createdAt": "2026-05-28T09:20:57.581Z",
      "updatedAt": "2026-05-28T09:20:57.581Z",
      "stateName": "Provence-Alpes-Côte d'Azur",
      "countryName": "France"
    },
    {
      "id": 13093,
      "stateId": 430,
      "name": "Brian Head",
      "latitude": "37.8034989",
      "longitude": "-92.5169818",
      "createdAt": "2025-12-28T19:20:40.004Z",
      "updatedAt": "2025-12-28T19:20:40.004Z",
      "stateName": "Utah",
      "countryName": "United States"
    },
    {
      "id": 2041,
      "stateId": 145,
      "name": "Briarcliffe Acres",
      "latitude": "37.8034989",
      "longitude": "-92.5169818",
      "createdAt": "2025-12-28T18:10:43.627Z",
      "updatedAt": "2025-12-28T18:10:43.627Z",
      "stateName": "South Carolina",
      "countryName": "United States"
    },
    {
      "id": 14229,
      "stateId": 6,
      "name": "Briarcliff Manor",
      "latitude": "37.8034989",
      "longitude": "-92.5169818",
      "createdAt": "2025-12-28T19:42:38.017Z",
      "updatedAt": "2025-12-28T19:42:38.017Z",
      "stateName": "New York",
      "countryName": "United States"
    },
    {
      "id": 15402,
      "stateId": 300,
      "name": "Briare",
      "latitude": null,
      "longitude": null,
      "createdAt": "2025-12-28T20:05:12.386Z",
      "updatedAt": "2025-12-28T20:05:12.386Z",
      "stateName": "Centre-Val de Loire",
      "countryName": "France"
    },
    {
      "id": 5816,
      "stateId": 181,
      "name": "Briceño",
      "latitude": null,
      "longitude": null,
      "createdAt": "2025-12-28T18:22:24.126Z",
      "updatedAt": "2025-12-28T18:22:24.126Z",
      "stateName": "Antioquia",
      "countryName": "Colombia"
    },
    {
      "id": 8143,
      "stateId": 106,
      "name": "Bricktown",
      "latitude": "37.8034989",
      "longitude": "-92.5169818",
      "createdAt": "2025-12-28T18:35:41.746Z",
      "updatedAt": "2025-12-28T18:35:41.746Z",
      "stateName": "New Jersey",
      "countryName": "United States"
    },
    {
      "id": 16353,
      "stateId": 6,
      "name": "Bridgehampton",
      "latitude": "37.8034989",
      "longitude": "-92.5169818",
      "createdAt": "2025-12-28T20:41:59.579Z",
      "updatedAt": "2025-12-28T20:41:59.579Z",
      "stateName": "New York",
      "countryName": "United States"
    },
    {
      "id": 5146,
      "stateId": 82,
      "name": "Bridgend",
      "latitude": "51.5058300",
      "longitude": "-3.5772200",
      "createdAt": "2025-12-28T18:19:48.709Z",
      "updatedAt": "2025-12-28T18:19:48.709Z",
      "stateName": "Wales",
      "countryName": "United Kingdom"
    },
    {
      "id": 12350,
      "stateId": 20,
      "name": "Bridgeport",
      "latitude": "41.1670400",
      "longitude": "-73.2048300",
      "createdAt": "2025-12-28T19:15:33.668Z",
      "updatedAt": "2025-12-28T19:15:33.668Z",
      "stateName": "Texas",
      "countryName": "United States"
    },
    {
      "id": 12400,
      "stateId": 73,
      "name": "Bridgeport",
      "latitude": "41.1670400",
      "longitude": "-73.2048300",
      "createdAt": "2025-12-28T19:15:43.583Z",
      "updatedAt": "2025-12-28T19:15:43.583Z",
      "stateName": "Nebraska",
      "countryName": "United States"
    }
  ],
  "meta": {
    "page": 22,
    "limit": 100,
    "total": 18002,
    "totalPages": 181
  }
}
