{
  "source": "50k-radio-stations",
  "provider": "rapidapi",
  "syncedAt": "2026-06-03T13:05:13.473Z",
  "endpoint": "/cities",
  "page": 88,
  "limit": 250,
  "data": [
    {
      "id": 5391,
      "stateId": 110,
      "name": "Lapwai",
      "latitude": "37.8034989",
      "longitude": "-92.5169818",
      "createdAt": "2025-12-28T18:20:31.261Z",
      "updatedAt": "2025-12-28T18:20:31.261Z",
      "stateName": "Idaho",
      "countryName": "United States"
    },
    {
      "id": 815,
      "stateId": 197,
      "name": "La Quiaca",
      "latitude": null,
      "longitude": null,
      "createdAt": "2025-12-28T17:02:20.706Z",
      "updatedAt": "2025-12-28T17:02:20.706Z",
      "stateName": "Jujuy",
      "countryName": "Argentina"
    },
    {
      "id": 1839,
      "stateId": 519,
      "name": "L'Aquila",
      "latitude": "42.3505500",
      "longitude": "13.3995400",
      "createdAt": "2025-12-28T18:10:16.828Z",
      "updatedAt": "2025-12-28T18:10:16.828Z",
      "stateName": "Abruzzes",
      "countryName": "Italy"
    },
    {
      "id": 8866,
      "stateId": 24,
      "name": "La Quinta",
      "latitude": "33.6633600",
      "longitude": "-116.3100100",
      "createdAt": "2025-12-28T18:40:42.971Z",
      "updatedAt": "2025-12-28T18:40:42.971Z",
      "stateName": "California",
      "countryName": "United States"
    },
    {
      "id": 1295,
      "stateId": 154,
      "name": "Laramie",
      "latitude": "41.3113700",
      "longitude": "-105.5911000",
      "createdAt": "2025-12-28T17:03:31.657Z",
      "updatedAt": "2025-12-28T17:03:31.657Z",
      "stateName": "Wyoming",
      "countryName": "United States"
    },
    {
      "id": 13488,
      "stateId": 261,
      "name": "Laranja da Terra",
      "latitude": null,
      "longitude": null,
      "createdAt": "2025-12-28T19:27:03.184Z",
      "updatedAt": "2025-12-28T19:27:03.184Z",
      "stateName": "Espírito Santo",
      "countryName": "Brazil"
    },
    {
      "id": 18185,
      "stateId": 271,
      "name": "Laranjeiras",
      "latitude": null,
      "longitude": null,
      "createdAt": "2026-04-19T12:10:08.064Z",
      "updatedAt": "2026-04-19T12:10:08.064Z",
      "stateName": "Sergipe",
      "countryName": "Brazil"
    },
    {
      "id": 788,
      "stateId": 137,
      "name": "Laranjeiras do Sul",
      "latitude": "-25.4077800",
      "longitude": "-52.4161100",
      "createdAt": "2025-12-28T17:02:18.598Z",
      "updatedAt": "2025-12-28T17:02:18.598Z",
      "stateName": "Paraná",
      "countryName": "Brazil"
    },
    {
      "id": 9329,
      "stateId": 390,
      "name": "Laredo",
      "latitude": null,
      "longitude": null,
      "createdAt": "2025-12-28T18:43:48.393Z",
      "updatedAt": "2025-12-28T18:43:48.393Z",
      "stateName": "Cantabria",
      "countryName": "Spain"
    },
    {
      "id": 1113,
      "stateId": 20,
      "name": "Laredo",
      "latitude": "27.5064100",
      "longitude": "-99.5075400",
      "createdAt": "2025-12-28T17:02:49.052Z",
      "updatedAt": "2025-12-28T17:02:49.052Z",
      "stateName": "Texas",
      "countryName": "United States"
    },
    {
      "id": 15974,
      "stateId": 167,
      "name": "La Reina",
      "latitude": null,
      "longitude": null,
      "createdAt": "2025-12-28T20:24:48.676Z",
      "updatedAt": "2025-12-28T20:24:48.676Z",
      "stateName": "Región Metropolitana de Santiago",
      "countryName": "Chile"
    },
    {
      "id": 8018,
      "stateId": 52,
      "name": "Laren",
      "latitude": "45.5501000",
      "longitude": "-75.2910100",
      "createdAt": "2025-12-28T18:34:09.249Z",
      "updatedAt": "2025-12-28T18:34:09.249Z",
      "stateName": "North Holland",
      "countryName": "Netherlands"
    },
    {
      "id": 1739,
      "stateId": 37,
      "name": "L'Argentière-la-Bessée",
      "latitude": null,
      "longitude": null,
      "createdAt": "2025-12-28T18:10:07.787Z",
      "updatedAt": "2025-12-28T18:10:07.787Z",
      "stateName": "Provence-Alpes-Côte d'Azur",
      "countryName": "France"
    },
    {
      "id": 1581,
      "stateId": 33,
      "name": "Largo",
      "latitude": "27.9097900",
      "longitude": "-82.7884200",
      "createdAt": "2025-12-28T17:04:47.107Z",
      "updatedAt": "2025-12-28T17:04:47.107Z",
      "stateName": "Florida",
      "countryName": "United States"
    },
    {
      "id": 1150,
      "stateId": 408,
      "name": "La Rioja",
      "latitude": "-29.4110500",
      "longitude": "-66.8506700",
      "createdAt": "2025-12-28T17:03:13.872Z",
      "updatedAt": "2025-12-28T17:03:13.872Z",
      "stateName": "La Rioja",
      "countryName": "Argentina"
    },
    {
      "id": 9896,
      "stateId": 86,
      "name": "La Rioja ",
      "latitude": null,
      "longitude": null,
      "createdAt": "2025-12-28T18:48:20.122Z",
      "updatedAt": "2025-12-28T18:48:20.122Z",
      "stateName": "Santa Fe",
      "countryName": "Argentina"
    },
    {
      "id": 466,
      "stateId": 144,
      "name": "Larissa",
      "latitude": "38.6555720",
      "longitude": "23.4057215",
      "createdAt": "2025-12-28T17:00:51.969Z",
      "updatedAt": "2025-12-28T17:00:51.969Z",
      "stateName": "Thessaly",
      "countryName": "Greece"
    },
    {
      "id": 1219,
      "stateId": 427,
      "name": "Larkana",
      "latitude": null,
      "longitude": null,
      "createdAt": "2025-12-28T17:03:18.794Z",
      "updatedAt": "2025-12-28T17:03:18.794Z",
      "stateName": "Sindh",
      "countryName": "Pakistan"
    },
    {
      "id": 359,
      "stateId": 162,
      "name": "Larnaca",
      "latitude": "34.9229100",
      "longitude": "33.6233000",
      "createdAt": "2025-12-28T17:00:44.384Z",
      "updatedAt": "2025-12-28T17:00:44.384Z",
      "stateName": "Larnaca",
      "countryName": "Cyprus"
    },
    {
      "id": 11783,
      "stateId": 468,
      "name": "Larne",
      "latitude": "54.8500000",
      "longitude": "-5.8166700",
      "createdAt": "2025-12-28T19:09:25.526Z",
      "updatedAt": "2025-12-28T19:09:25.526Z",
      "stateName": "Northern Ireland",
      "countryName": "United Kingdom"
    },
    {
      "id": 10483,
      "stateId": 31,
      "name": "Larned",
      "latitude": "37.8034989",
      "longitude": "-92.5169818",
      "createdAt": "2025-12-28T18:53:45.554Z",
      "updatedAt": "2025-12-28T18:53:45.554Z",
      "stateName": "Kansas",
      "countryName": "United States"
    },
    {
      "id": 14430,
      "stateId": 224,
      "name": "La Roche-Bernard",
      "latitude": "47.3768156",
      "longitude": "2.7742767",
      "createdAt": "2025-12-28T19:44:05.647Z",
      "updatedAt": "2025-12-28T19:44:05.647Z",
      "stateName": "Brittany",
      "countryName": "France"
    },
    {
      "id": 3541,
      "stateId": 481,
      "name": "La Rochelle",
      "latitude": "46.1666700",
      "longitude": "-1.1500000",
      "createdAt": "2025-12-28T18:14:47.098Z",
      "updatedAt": "2025-12-28T18:14:47.098Z",
      "stateName": "Nouvelle-Aquitaine",
      "countryName": "France"
    },
    {
      "id": 10186,
      "stateId": 90,
      "name": "La Roche-sur-Foron",
      "latitude": "47.3768156",
      "longitude": "2.7742767",
      "createdAt": "2025-12-28T18:50:48.560Z",
      "updatedAt": "2025-12-28T18:50:48.560Z",
      "stateName": "Rhône-Alpes",
      "countryName": "France"
    },
    {
      "id": 10809,
      "stateId": 483,
      "name": "La Roche-sur-Yon",
      "latitude": "46.6666700",
      "longitude": "-1.4333300",
      "createdAt": "2025-12-28T18:57:46.803Z",
      "updatedAt": "2025-12-28T18:57:46.803Z",
      "stateName": "Pays de la Loire",
      "countryName": "France"
    },
    {
      "id": 17738,
      "stateId": 133,
      "name": "La Roda",
      "latitude": null,
      "longitude": null,
      "createdAt": "2026-02-14T11:00:00.989Z",
      "updatedAt": "2026-02-14T11:00:00.989Z",
      "stateName": "Castile-La Mancha",
      "countryName": "Spain"
    },
    {
      "id": 12842,
      "stateId": 16,
      "name": "Larose",
      "latitude": "37.8034989",
      "longitude": "-92.5169818",
      "createdAt": "2025-12-28T19:19:08.160Z",
      "updatedAt": "2025-12-28T19:19:08.160Z",
      "stateName": "Louisiana",
      "countryName": "United States"
    },
    {
      "id": 9261,
      "stateId": 209,
      "name": "Larroque",
      "latitude": null,
      "longitude": null,
      "createdAt": "2025-12-28T18:42:53.598Z",
      "updatedAt": "2025-12-28T18:42:53.598Z",
      "stateName": "Entre Rios",
      "countryName": "Argentina"
    },
    {
      "id": 7516,
      "stateId": 968,
      "name": "Larvik",
      "latitude": "59.0532800",
      "longitude": "10.0351700",
      "createdAt": "2025-12-28T18:30:26.751Z",
      "updatedAt": "2025-12-28T18:30:26.751Z",
      "stateName": "Buskerud",
      "countryName": "Norway"
    },
    {
      "id": 7126,
      "stateId": 258,
      "name": "Lasalle",
      "latitude": "46.9909847",
      "longitude": "-87.5986915",
      "createdAt": "2025-12-28T18:28:17.293Z",
      "updatedAt": "2025-12-28T18:28:17.293Z",
      "stateName": "Quebec",
      "countryName": "Canada"
    },
    {
      "id": 7209,
      "stateId": 46,
      "name": "La Salle",
      "latitude": "37.8034989",
      "longitude": "-92.5169818",
      "createdAt": "2025-12-28T18:28:47.960Z",
      "updatedAt": "2025-12-28T18:28:47.960Z",
      "stateName": "Illinois",
      "countryName": "United States"
    },
    {
      "id": 18035,
      "stateId": 178,
      "name": "Las Breñas",
      "latitude": "-27.0896600",
      "longitude": "-61.0816100",
      "createdAt": "2026-03-29T20:10:16.991Z",
      "updatedAt": "2026-03-29T20:10:16.991Z",
      "stateName": "Chaco",
      "countryName": "Argentina"
    },
    {
      "id": 13714,
      "stateId": 476,
      "name": "Las Chacras",
      "latitude": null,
      "longitude": null,
      "createdAt": "2025-12-28T19:30:14.544Z",
      "updatedAt": "2025-12-28T19:30:14.544Z",
      "stateName": "San Luis",
      "countryName": "Argentina"
    },
    {
      "id": 17363,
      "stateId": 190,
      "name": "Las Choapas",
      "latitude": null,
      "longitude": null,
      "createdAt": "2026-01-01T08:10:08.231Z",
      "updatedAt": "2026-01-01T08:10:08.231Z",
      "stateName": "Veracruz",
      "countryName": "Mexico"
    },
    {
      "id": 17550,
      "stateId": 167,
      "name": "Las Condes",
      "latitude": null,
      "longitude": null,
      "createdAt": "2026-01-21T04:30:26.538Z",
      "updatedAt": "2026-01-21T04:30:26.538Z",
      "stateName": "Región Metropolitana de Santiago",
      "countryName": "Chile"
    },
    {
      "id": 1375,
      "stateId": 18,
      "name": "Las Cruces",
      "latitude": "32.3123200",
      "longitude": "-106.7783400",
      "createdAt": "2025-12-28T17:03:44.494Z",
      "updatedAt": "2025-12-28T17:03:44.494Z",
      "stateName": "New Mexico",
      "countryName": "United States"
    },
    {
      "id": 6278,
      "stateId": 681,
      "name": "La Serena",
      "latitude": "-29.9045300",
      "longitude": "-71.2489400",
      "createdAt": "2025-12-28T18:24:31.262Z",
      "updatedAt": "2025-12-28T18:24:31.262Z",
      "stateName": "Coquimbo",
      "countryName": "Chile"
    },
    {
      "id": 782,
      "stateId": 58,
      "name": "Las Flores",
      "latitude": null,
      "longitude": null,
      "createdAt": "2025-12-28T17:02:18.008Z",
      "updatedAt": "2025-12-28T17:02:18.008Z",
      "stateName": "Buenos Aires",
      "countryName": "Argentina"
    },
    {
      "id": 17869,
      "stateId": 173,
      "name": "Las Golondrinas",
      "latitude": null,
      "longitude": null,
      "createdAt": "2026-03-11T03:20:22.861Z",
      "updatedAt": "2026-03-11T03:20:22.861Z",
      "stateName": "Chubut",
      "countryName": "Argentina"
    },
    {
      "id": 12996,
      "stateId": 260,
      "name": "Las Grutas",
      "latitude": null,
      "longitude": null,
      "createdAt": "2025-12-28T19:20:10.606Z",
      "updatedAt": "2025-12-28T19:20:10.606Z",
      "stateName": "Rio Negro",
      "countryName": "Argentina"
    },
    {
      "id": 592,
      "stateId": 285,
      "name": "Las Heras",
      "latitude": "-32.1628172",
      "longitude": "-62.0921509",
      "createdAt": "2025-12-28T17:01:10.821Z",
      "updatedAt": "2025-12-28T17:01:10.821Z",
      "stateName": "Mendoza",
      "countryName": "Argentina"
    },
    {
      "id": 6675,
      "stateId": 386,
      "name": "Las Heras",
      "latitude": null,
      "longitude": null,
      "createdAt": "2025-12-28T18:26:29.750Z",
      "updatedAt": "2025-12-28T18:26:29.750Z",
      "stateName": "Santa Cruz",
      "countryName": "Argentina"
    },
    {
      "id": 9474,
      "stateId": 364,
      "name": "La Sierra",
      "latitude": "-17.7862900",
      "longitude": "-63.1811700",
      "createdAt": "2025-12-28T18:44:21.579Z",
      "updatedAt": "2025-12-28T18:44:21.579Z",
      "stateName": "Cauca",
      "countryName": "Colombia"
    },
    {
      "id": 15021,
      "stateId": 381,
      "name": "Las Lajas",
      "latitude": null,
      "longitude": null,
      "createdAt": "2025-12-28T19:52:26.286Z",
      "updatedAt": "2025-12-28T19:52:26.286Z",
      "stateName": "Neuquén",
      "countryName": "Argentina"
    },
    {
      "id": 4346,
      "stateId": 257,
      "name": "Las Lajitas",
      "latitude": "-32.1628172",
      "longitude": "-62.0921509",
      "createdAt": "2025-12-28T18:17:09.741Z",
      "updatedAt": "2025-12-28T18:17:09.741Z",
      "stateName": "Salta",
      "countryName": "Argentina"
    },
    {
      "id": 4944,
      "stateId": 314,
      "name": "Las Margaritas",
      "latitude": "16.3126500",
      "longitude": "-91.9810700",
      "createdAt": "2025-12-28T18:19:15.057Z",
      "updatedAt": "2025-12-28T18:19:15.057Z",
      "stateName": "Chiapas",
      "countryName": "Mexico"
    },
    {
      "id": 12227,
      "stateId": 1092,
      "name": "Las Matas de Farfán",
      "latitude": null,
      "longitude": null,
      "createdAt": "2025-12-28T19:14:26.279Z",
      "updatedAt": "2025-12-28T19:14:26.279Z",
      "stateName": "San Juan",
      "countryName": "Dominican Republic"
    },
    {
      "id": 1022,
      "stateId": 139,
      "name": "Las Palmas de Gran Canaria",
      "latitude": "28.0997300",
      "longitude": "-15.4134300",
      "createdAt": "2025-12-28T17:02:34.248Z",
      "updatedAt": "2025-12-28T17:02:34.248Z",
      "stateName": "Canary Islands",
      "countryName": "Spain"
    },
    {
      "id": 7294,
      "stateId": 86,
      "name": "Las Parejas",
      "latitude": "-32.1628172",
      "longitude": "-62.0921509",
      "createdAt": "2025-12-28T18:29:24.883Z",
      "updatedAt": "2025-12-28T18:29:24.883Z",
      "stateName": "Santa Fe",
      "countryName": "Argentina"
    },
    {
      "id": 4614,
      "stateId": 795,
      "name": "Las Pedroñeras",
      "latitude": null,
      "longitude": null,
      "createdAt": "2025-12-28T18:18:09.645Z",
      "updatedAt": "2025-12-28T18:18:09.645Z",
      "stateName": "Cuenca",
      "countryName": "Spain"
    },
    {
      "id": 2320,
      "stateId": 190,
      "name": "Las Peñitas",
      "latitude": null,
      "longitude": null,
      "createdAt": "2025-12-28T18:11:44.426Z",
      "updatedAt": "2025-12-28T18:11:44.426Z",
      "stateName": "Veracruz",
      "countryName": "Mexico"
    },
    {
      "id": 18034,
      "stateId": 147,
      "name": "Las Perdices",
      "latitude": "-32.1628172",
      "longitude": "-62.0921509",
      "createdAt": "2026-03-29T20:10:16.940Z",
      "updatedAt": "2026-03-29T20:10:16.940Z",
      "stateName": "Cordoba",
      "countryName": "Argentina"
    },
    {
      "id": 7817,
      "stateId": 222,
      "name": "La Spezia",
      "latitude": "44.1109600",
      "longitude": "9.8363200",
      "createdAt": "2025-12-28T18:32:18.837Z",
      "updatedAt": "2025-12-28T18:32:18.837Z",
      "stateName": "Liguria",
      "countryName": "Italy"
    },
    {
      "id": 9874,
      "stateId": 86,
      "name": "Las Rosas",
      "latitude": "-32.1628172",
      "longitude": "-62.0921509",
      "createdAt": "2025-12-28T18:48:11.523Z",
      "updatedAt": "2025-12-28T18:48:11.523Z",
      "stateName": "Santa Fe",
      "countryName": "Argentina"
    },
    {
      "id": 4145,
      "stateId": 258,
      "name": "L'Assomption",
      "latitude": null,
      "longitude": null,
      "createdAt": "2025-12-28T18:16:21.786Z",
      "updatedAt": "2025-12-28T18:16:21.786Z",
      "stateName": "Quebec",
      "countryName": "Canada"
    },
    {
      "id": 1571,
      "stateId": 266,
      "name": "Las Tejas",
      "latitude": null,
      "longitude": null,
      "createdAt": "2025-12-28T17:04:45.041Z",
      "updatedAt": "2025-12-28T17:04:45.041Z",
      "stateName": "Catamarca",
      "countryName": "Argentina"
    },
    {
      "id": 17101,
      "stateId": 1343,
      "name": "Las Terrenas",
      "latitude": null,
      "longitude": null,
      "createdAt": "2025-12-29T15:29:21.692Z",
      "updatedAt": "2025-12-29T15:29:21.692Z",
      "stateName": "Samana",
      "countryName": "Dominican Republic"
    },
    {
      "id": 8906,
      "stateId": 86,
      "name": "Las Toscas",
      "latitude": "-32.1628172",
      "longitude": "-62.0921509",
      "createdAt": "2025-12-28T18:40:57.279Z",
      "updatedAt": "2025-12-28T18:40:57.279Z",
      "stateName": "Santa Fe",
      "countryName": "Argentina"
    },
    {
      "id": 1225,
      "stateId": 428,
      "name": "Las Tunas",
      "latitude": "20.9616700",
      "longitude": "-76.9511100",
      "createdAt": "2025-12-28T17:03:19.403Z",
      "updatedAt": "2025-12-28T17:03:19.403Z",
      "stateName": "Las Tunas",
      "countryName": "Cuba"
    },
    {
      "id": 9880,
      "stateId": 86,
      "name": "Las Tunas",
      "latitude": null,
      "longitude": null,
      "createdAt": "2025-12-28T18:48:14.778Z",
      "updatedAt": "2025-12-28T18:48:14.778Z",
      "stateName": "Santa Fe",
      "countryName": "Argentina"
    },
    {
      "id": 13687,
      "stateId": 544,
      "name": "Las Varas",
      "latitude": "21.0459460",
      "longitude": "-100.0405298",
      "createdAt": "2025-12-28T19:29:42.971Z",
      "updatedAt": "2025-12-28T19:29:42.971Z",
      "stateName": "Nayarit",
      "countryName": "Mexico"
    },
    {
      "id": 11441,
      "stateId": 147,
      "name": "Las Varillas",
      "latitude": null,
      "longitude": null,
      "createdAt": "2025-12-28T19:05:50.143Z",
      "updatedAt": "2025-12-28T19:05:50.143Z",
      "stateName": "Cordoba",
      "countryName": "Argentina"
    },
    {
      "id": 14,
      "stateId": 15,
      "name": "Las Vegas",
      "latitude": "36.1749700",
      "longitude": "-115.1372200",
      "createdAt": "2025-12-28T16:36:27.552Z",
      "updatedAt": "2025-12-28T16:36:27.552Z",
      "stateName": "Nevada",
      "countryName": "United States"
    },
    {
      "id": 11023,
      "stateId": 18,
      "name": "Las Vegas",
      "latitude": "36.1749700",
      "longitude": "-115.1372200",
      "createdAt": "2025-12-28T19:00:23.126Z",
      "updatedAt": "2025-12-28T19:00:23.126Z",
      "stateName": "New Mexico",
      "countryName": "United States"
    },
    {
      "id": 13728,
      "stateId": 297,
      "name": "La Tapona",
      "latitude": null,
      "longitude": null,
      "createdAt": "2025-12-28T19:30:26.111Z",
      "updatedAt": "2025-12-28T19:30:26.111Z",
      "stateName": "San Luis Potosí",
      "countryName": "Mexico"
    },
    {
      "id": 9511,
      "stateId": 87,
      "name": "Latina",
      "latitude": "41.4661400",
      "longitude": "12.9043000",
      "createdAt": "2025-12-28T18:44:54.077Z",
      "updatedAt": "2025-12-28T18:44:54.077Z",
      "stateName": "Lazio",
      "countryName": "Italy"
    },
    {
      "id": 10120,
      "stateId": 973,
      "name": "La Torre de l'Espanyol",
      "latitude": null,
      "longitude": null,
      "createdAt": "2025-12-28T18:50:22.167Z",
      "updatedAt": "2025-12-28T18:50:22.167Z",
      "stateName": "Tarragona",
      "countryName": "Spain"
    },
    {
      "id": 5864,
      "stateId": 314,
      "name": "La Trinitaria",
      "latitude": null,
      "longitude": null,
      "createdAt": "2025-12-28T18:22:30.790Z",
      "updatedAt": "2025-12-28T18:22:30.790Z",
      "stateName": "Chiapas",
      "countryName": "Mexico"
    },
    {
      "id": 11443,
      "stateId": 308,
      "name": "La Trinité",
      "latitude": null,
      "longitude": null,
      "createdAt": "2025-12-28T19:05:51.144Z",
      "updatedAt": "2025-12-28T19:05:51.144Z",
      "stateName": "Martinique",
      "countryName": "Lesser Antilles, France"
    },
    {
      "id": 15852,
      "stateId": 68,
      "name": "Latrobe",
      "latitude": "37.8034989",
      "longitude": "-92.5169818",
      "createdAt": "2025-12-28T20:20:40.432Z",
      "updatedAt": "2025-12-28T20:20:40.432Z",
      "stateName": "Pennsylvania",
      "countryName": "United States"
    },
    {
      "id": 15406,
      "stateId": 145,
      "name": "Latta",
      "latitude": "37.8034989",
      "longitude": "-92.5169818",
      "createdAt": "2025-12-28T20:05:15.794Z",
      "updatedAt": "2025-12-28T20:05:15.794Z",
      "stateName": "South Carolina",
      "countryName": "United States"
    },
    {
      "id": 6610,
      "stateId": 258,
      "name": "La Tuque",
      "latitude": "46.9909847",
      "longitude": "-87.5986915",
      "createdAt": "2025-12-28T18:26:08.184Z",
      "updatedAt": "2025-12-28T18:26:08.184Z",
      "stateName": "Quebec",
      "countryName": "Canada"
    },
    {
      "id": 16429,
      "stateId": 33,
      "name": "Lauderdale Lakes",
      "latitude": "26.1664700",
      "longitude": "-80.2083800",
      "createdAt": "2025-12-28T20:44:02.717Z",
      "updatedAt": "2025-12-28T20:44:02.717Z",
      "stateName": "Florida",
      "countryName": "United States"
    },
    {
      "id": 5236,
      "stateId": 33,
      "name": "Lauderhill",
      "latitude": null,
      "longitude": null,
      "createdAt": "2025-12-28T18:20:12.897Z",
      "updatedAt": "2025-12-28T18:20:12.897Z",
      "stateName": "Florida",
      "countryName": "United States"
    },
    {
      "id": 18217,
      "stateId": 1419,
      "name": "Laudio-Llodio",
      "latitude": "39.2717249",
      "longitude": "-3.2471696",
      "createdAt": "2026-04-27T04:54:15.733Z",
      "updatedAt": "2026-04-27T04:54:15.733Z",
      "stateName": "Álava",
      "countryName": "Spain"
    },
    {
      "id": 13546,
      "stateId": 115,
      "name": "Laudio-Llodio",
      "latitude": "39.2717249",
      "longitude": "-3.2471696",
      "createdAt": "2025-12-28T19:27:46.038Z",
      "updatedAt": "2025-12-28T19:27:46.038Z",
      "stateName": "Barcelona",
      "countryName": "Spain"
    },
    {
      "id": 12797,
      "stateId": 15,
      "name": "Laughlin",
      "latitude": "37.8034989",
      "longitude": "-92.5169818",
      "createdAt": "2025-12-28T19:18:42.448Z",
      "updatedAt": "2025-12-28T19:18:42.448Z",
      "stateName": "Nevada",
      "countryName": "United States"
    },
    {
      "id": 12514,
      "stateId": 20,
      "name": "Laughlin Air Force Base",
      "latitude": null,
      "longitude": null,
      "createdAt": "2025-12-28T19:16:16.101Z",
      "updatedAt": "2025-12-28T19:16:16.101Z",
      "stateName": "Texas",
      "countryName": "United States"
    },
    {
      "id": 1732,
      "stateId": 101,
      "name": "Launceston",
      "latitude": "-41.4387600",
      "longitude": "147.1346700",
      "createdAt": "2025-12-28T18:10:06.988Z",
      "updatedAt": "2025-12-28T18:10:06.988Z",
      "stateName": "Tasmania",
      "countryName": "Australia"
    },
    {
      "id": 15065,
      "stateId": 2,
      "name": "Launceston",
      "latitude": "-41.4387600",
      "longitude": "147.1346700",
      "createdAt": "2025-12-28T19:54:05.395Z",
      "updatedAt": "2025-12-28T19:54:05.395Z",
      "stateName": "England",
      "countryName": "United Kingdom"
    },
    {
      "id": 897,
      "stateId": 367,
      "name": "La Union",
      "latitude": "-35.4727272",
      "longitude": "-71.8075952",
      "createdAt": "2025-12-28T17:02:26.771Z",
      "updatedAt": "2025-12-28T17:02:26.771Z",
      "stateName": "Los Ríos",
      "countryName": "Chile"
    },
    {
      "id": 6359,
      "stateId": 354,
      "name": "La Unión",
      "latitude": null,
      "longitude": null,
      "createdAt": "2025-12-28T18:24:52.451Z",
      "updatedAt": "2025-12-28T18:24:52.451Z",
      "stateName": "Narino",
      "countryName": "Colombia"
    },
    {
      "id": 1956,
      "stateId": 181,
      "name": "La Unión",
      "latitude": null,
      "longitude": null,
      "createdAt": "2025-12-28T18:10:33.684Z",
      "updatedAt": "2025-12-28T18:10:33.684Z",
      "stateName": "Antioquia",
      "countryName": "Colombia"
    },
    {
      "id": 11059,
      "stateId": 33,
      "name": "Laurel",
      "latitude": "37.6429200",
      "longitude": "-77.5088700",
      "createdAt": "2025-12-28T19:00:39.794Z",
      "updatedAt": "2025-12-28T19:00:39.794Z",
      "stateName": "Florida",
      "countryName": "United States"
    },
    {
      "id": 13762,
      "stateId": 148,
      "name": "Laurel",
      "latitude": "39.0992800",
      "longitude": "-76.8483100",
      "createdAt": "2025-12-28T19:31:20.425Z",
      "updatedAt": "2025-12-28T19:31:20.425Z",
      "stateName": "Delaware",
      "countryName": "United States"
    },
    {
      "id": 3394,
      "stateId": 401,
      "name": "Laurel",
      "latitude": "31.6940500",
      "longitude": "-89.1306100",
      "createdAt": "2025-12-28T18:14:20.691Z",
      "updatedAt": "2025-12-28T18:14:20.691Z",
      "stateName": "Mississippi",
      "countryName": "United States"
    },
    {
      "id": 11241,
      "stateId": 153,
      "name": "Laurel",
      "latitude": "39.0992800",
      "longitude": "-76.8483100",
      "createdAt": "2025-12-28T19:03:25.942Z",
      "updatedAt": "2025-12-28T19:03:25.942Z",
      "stateName": "Montana",
      "countryName": "United States"
    },
    {
      "id": 888,
      "stateId": 64,
      "name": "Laurel",
      "latitude": "39.0992800",
      "longitude": "-76.8483100",
      "createdAt": "2025-12-28T17:02:26.127Z",
      "updatedAt": "2025-12-28T17:02:26.127Z",
      "stateName": "Maryland",
      "countryName": "United States"
    },
    {
      "id": 14608,
      "stateId": 14,
      "name": "Laurelville",
      "latitude": null,
      "longitude": null,
      "createdAt": "2025-12-28T19:46:13.410Z",
      "updatedAt": "2025-12-28T19:46:13.410Z",
      "stateName": "Ohio",
      "countryName": "United States"
    },
    {
      "id": 1346,
      "stateId": 145,
      "name": "Laurens",
      "latitude": "37.8034989",
      "longitude": "-92.5169818",
      "createdAt": "2025-12-28T17:03:42.698Z",
      "updatedAt": "2025-12-28T17:03:42.698Z",
      "stateName": "South Carolina",
      "countryName": "United States"
    },
    {
      "id": 9762,
      "stateId": 112,
      "name": "Laurie",
      "latitude": null,
      "longitude": null,
      "createdAt": "2025-12-28T18:47:06.119Z",
      "updatedAt": "2025-12-28T18:47:06.119Z",
      "stateName": "Missouri",
      "countryName": "United States"
    },
    {
      "id": 16442,
      "stateId": 55,
      "name": "Laurinburg",
      "latitude": "34.7740500",
      "longitude": "-79.4628200",
      "createdAt": "2025-12-28T20:44:08.789Z",
      "updatedAt": "2025-12-28T20:44:08.789Z",
      "stateName": "North Carolina",
      "countryName": "United States"
    },
    {
      "id": 10292,
      "stateId": 262,
      "name": "Lauro de Freitas",
      "latitude": "-12.8944400",
      "longitude": "-38.3272200",
      "createdAt": "2025-12-28T18:51:32.834Z",
      "updatedAt": "2025-12-28T18:51:32.834Z",
      "stateName": "Bahia",
      "countryName": "Brazil"
    },
    {
      "id": 7472,
      "stateId": 293,
      "name": "Lauro Müller",
      "latitude": null,
      "longitude": null,
      "createdAt": "2025-12-28T18:30:19.394Z",
      "updatedAt": "2025-12-28T18:30:19.394Z",
      "stateName": "Santa Catarina",
      "countryName": "Brazil"
    },
    {
      "id": 9545,
      "stateId": 514,
      "name": "Lausitz",
      "latitude": null,
      "longitude": null,
      "createdAt": "2025-12-28T18:45:10.859Z",
      "updatedAt": "2025-12-28T18:45:10.859Z",
      "stateName": "Brandenburg",
      "countryName": "Germany"
    },
    {
      "id": 18364,
      "stateId": 914,
      "name": "Lautaro",
      "latitude": "-38.5306600",
      "longitude": "-72.4365200",
      "createdAt": "2026-05-18T16:02:10.057Z",
      "updatedAt": "2026-05-18T16:02:10.057Z",
      "stateName": "Araucanía",
      "countryName": "Chile"
    },
    {
      "id": 5440,
      "stateId": 483,
      "name": "Laval",
      "latitude": "48.0666700",
      "longitude": "-0.7666700",
      "createdAt": "2025-12-28T18:20:52.516Z",
      "updatedAt": "2025-12-28T18:20:52.516Z",
      "stateName": "Pays de la Loire",
      "countryName": "France"
    },
    {
      "id": 2227,
      "stateId": 258,
      "name": "Laval",
      "latitude": "45.5699500",
      "longitude": "-73.6920000",
      "createdAt": "2025-12-28T18:11:15.337Z",
      "updatedAt": "2025-12-28T18:11:15.337Z",
      "stateName": "Quebec",
      "countryName": "Canada"
    },
    {
      "id": 13575,
      "stateId": 120,
      "name": "La Vall d'Uixó",
      "latitude": "39.2717249",
      "longitude": "-3.2471696",
      "createdAt": "2025-12-28T19:28:31.138Z",
      "updatedAt": "2025-12-28T19:28:31.138Z",
      "stateName": "Valencia",
      "countryName": "Spain"
    },
    {
      "id": 16122,
      "stateId": 1321,
      "name": "La Vallee de Jacmel",
      "latitude": null,
      "longitude": null,
      "createdAt": "2025-12-28T20:35:02.132Z",
      "updatedAt": "2025-12-28T20:35:02.132Z",
      "stateName": "Jacmel Arrondissement",
      "countryName": "Haiti"
    }
  ],
  "meta": {
    "page": 88,
    "limit": 100,
    "total": 18002,
    "totalPages": 181
  }
}
