{
  "source": "50k-radio-stations",
  "provider": "rapidapi",
  "syncedAt": "2026-06-03T13:05:27.775Z",
  "endpoint": "/cities",
  "page": 105,
  "limit": 250,
  "data": [
    {
      "id": 8107,
      "stateId": 4,
      "name": "Mongaguá",
      "latitude": null,
      "longitude": null,
      "createdAt": "2025-12-28T18:35:24.563Z",
      "updatedAt": "2025-12-28T18:35:24.563Z",
      "stateName": "São Paulo",
      "countryName": "Brazil"
    },
    {
      "id": 1474,
      "stateId": 328,
      "name": "Moniquirá",
      "latitude": "6.4444434",
      "longitude": "-74.9549521",
      "createdAt": "2025-12-28T17:04:33.777Z",
      "updatedAt": "2025-12-28T17:04:33.777Z",
      "stateName": "Boyacá",
      "countryName": "Colombia"
    },
    {
      "id": 10865,
      "stateId": 912,
      "name": "Monjas",
      "latitude": null,
      "longitude": null,
      "createdAt": "2025-12-28T18:58:21.914Z",
      "updatedAt": "2025-12-28T18:58:21.914Z",
      "stateName": "Jalapa",
      "countryName": "Guatemala"
    },
    {
      "id": 13157,
      "stateId": 81,
      "name": "Monmouth",
      "latitude": "37.8034989",
      "longitude": "-92.5169818",
      "createdAt": "2025-12-28T19:21:07.390Z",
      "updatedAt": "2025-12-28T19:21:07.390Z",
      "stateName": "Oregon",
      "countryName": "United States"
    },
    {
      "id": 15796,
      "stateId": 46,
      "name": "Monmouth",
      "latitude": "37.8034989",
      "longitude": "-92.5169818",
      "createdAt": "2025-12-28T20:19:31.174Z",
      "updatedAt": "2025-12-28T20:19:31.174Z",
      "stateName": "Illinois",
      "countryName": "United States"
    },
    {
      "id": 12063,
      "stateId": 106,
      "name": "Monmouth",
      "latitude": null,
      "longitude": null,
      "createdAt": "2025-12-28T19:11:58.038Z",
      "updatedAt": "2025-12-28T19:11:58.038Z",
      "stateName": "New Jersey",
      "countryName": "United States"
    },
    {
      "id": 4787,
      "stateId": 106,
      "name": "Monmouth Beach",
      "latitude": "37.8034989",
      "longitude": "-92.5169818",
      "createdAt": "2025-12-28T18:18:41.539Z",
      "updatedAt": "2025-12-28T18:18:41.539Z",
      "stateName": "New Jersey",
      "countryName": "United States"
    },
    {
      "id": 4193,
      "stateId": 106,
      "name": "Monmouth Junction",
      "latitude": "37.8034989",
      "longitude": "-92.5169818",
      "createdAt": "2025-12-28T18:16:31.359Z",
      "updatedAt": "2025-12-28T18:16:31.359Z",
      "stateName": "New Jersey",
      "countryName": "United States"
    },
    {
      "id": 7600,
      "stateId": 51,
      "name": "Monon",
      "latitude": "37.8034989",
      "longitude": "-92.5169818",
      "createdAt": "2025-12-28T18:30:49.853Z",
      "updatedAt": "2025-12-28T18:30:49.853Z",
      "stateName": "Indiana",
      "countryName": "United States"
    },
    {
      "id": 9355,
      "stateId": 8,
      "name": "Monona",
      "latitude": "37.8034989",
      "longitude": "-92.5169818",
      "createdAt": "2025-12-28T18:43:54.602Z",
      "updatedAt": "2025-12-28T18:43:54.602Z",
      "stateName": "Wisconsin",
      "countryName": "United States"
    },
    {
      "id": 18442,
      "stateId": 120,
      "name": "Monovar",
      "latitude": "39.2717249",
      "longitude": "-3.2471696",
      "createdAt": "2026-05-31T17:02:25.588Z",
      "updatedAt": "2026-05-31T17:02:25.588Z",
      "stateName": "Valencia",
      "countryName": "Spain"
    },
    {
      "id": 11389,
      "stateId": 6,
      "name": "Monroe",
      "latitude": "37.8034989",
      "longitude": "-92.5169818",
      "createdAt": "2025-12-28T19:04:56.208Z",
      "updatedAt": "2025-12-28T19:04:56.208Z",
      "stateName": "New York",
      "countryName": "United States"
    },
    {
      "id": 12916,
      "stateId": 430,
      "name": "Monroe",
      "latitude": "41.9164300",
      "longitude": "-83.3977100",
      "createdAt": "2025-12-28T19:19:35.026Z",
      "updatedAt": "2025-12-28T19:19:35.026Z",
      "stateName": "Utah",
      "countryName": "United States"
    },
    {
      "id": 9049,
      "stateId": 92,
      "name": "Monroe",
      "latitude": "41.9164300",
      "longitude": "-83.3977100",
      "createdAt": "2025-12-28T18:41:40.108Z",
      "updatedAt": "2025-12-28T18:41:40.108Z",
      "stateName": "Michigan",
      "countryName": "United States"
    },
    {
      "id": 3344,
      "stateId": 22,
      "name": "Monroe",
      "latitude": "32.5093100",
      "longitude": "-92.1193000",
      "createdAt": "2025-12-28T18:14:15.821Z",
      "updatedAt": "2025-12-28T18:14:15.821Z",
      "stateName": "Georgia",
      "countryName": "United States"
    },
    {
      "id": 3913,
      "stateId": 152,
      "name": "Monroe",
      "latitude": "37.8034989",
      "longitude": "-92.5169818",
      "createdAt": "2025-12-28T18:15:37.486Z",
      "updatedAt": "2025-12-28T18:15:37.486Z",
      "stateName": "Connecticut",
      "countryName": "United States"
    },
    {
      "id": 10329,
      "stateId": 55,
      "name": "Monroe",
      "latitude": "34.9854300",
      "longitude": "-80.5495100",
      "createdAt": "2025-12-28T18:52:08.654Z",
      "updatedAt": "2025-12-28T18:52:08.654Z",
      "stateName": "North Carolina",
      "countryName": "United States"
    },
    {
      "id": 2250,
      "stateId": 16,
      "name": "Monroe",
      "latitude": "32.5093100",
      "longitude": "-92.1193000",
      "createdAt": "2025-12-28T18:11:25.166Z",
      "updatedAt": "2025-12-28T18:11:25.166Z",
      "stateName": "Louisiana",
      "countryName": "United States"
    },
    {
      "id": 4031,
      "stateId": 8,
      "name": "Monroe",
      "latitude": "41.9164300",
      "longitude": "-83.3977100",
      "createdAt": "2025-12-28T18:15:53.984Z",
      "updatedAt": "2025-12-28T18:15:53.984Z",
      "stateName": "Wisconsin",
      "countryName": "United States"
    },
    {
      "id": 13317,
      "stateId": 112,
      "name": "Monroe City",
      "latitude": "37.8034989",
      "longitude": "-92.5169818",
      "createdAt": "2025-12-28T19:22:57.786Z",
      "updatedAt": "2025-12-28T19:22:57.786Z",
      "stateName": "Missouri",
      "countryName": "United States"
    },
    {
      "id": 18170,
      "stateId": 678,
      "name": "Monsaraz",
      "latitude": null,
      "longitude": null,
      "createdAt": "2026-04-16T15:12:12.999Z",
      "updatedAt": "2026-04-16T15:12:12.999Z",
      "stateName": "Alentejo",
      "countryName": "Portugal"
    },
    {
      "id": 8788,
      "stateId": 432,
      "name": "Monschau",
      "latitude": "50.9385735",
      "longitude": "9.5583023",
      "createdAt": "2025-12-28T18:40:19.598Z",
      "updatedAt": "2025-12-28T18:40:19.598Z",
      "stateName": "North Rhine-Westphalia",
      "countryName": "Germany"
    },
    {
      "id": 6942,
      "stateId": 95,
      "name": "Monsenhor Paulo",
      "latitude": null,
      "longitude": null,
      "createdAt": "2025-12-28T18:27:35.448Z",
      "updatedAt": "2025-12-28T18:27:35.448Z",
      "stateName": "Minas Gerais",
      "countryName": "Brazil"
    },
    {
      "id": 6827,
      "stateId": 231,
      "name": "Monsenhor Tabosa",
      "latitude": null,
      "longitude": null,
      "createdAt": "2025-12-28T18:27:18.988Z",
      "updatedAt": "2025-12-28T18:27:18.988Z",
      "stateName": "Ceará",
      "countryName": "Brazil"
    },
    {
      "id": 10632,
      "stateId": 111,
      "name": "Monster",
      "latitude": "52.0575321",
      "longitude": "5.3403480",
      "createdAt": "2025-12-28T18:55:51.822Z",
      "updatedAt": "2025-12-28T18:55:51.822Z",
      "stateName": "South Holland",
      "countryName": "Netherlands"
    },
    {
      "id": 17668,
      "stateId": 12,
      "name": "Montagu",
      "latitude": null,
      "longitude": null,
      "createdAt": "2026-02-03T22:15:46.691Z",
      "updatedAt": "2026-02-03T22:15:46.691Z",
      "stateName": "Western Cape",
      "countryName": "South Africa"
    },
    {
      "id": 9976,
      "stateId": 20,
      "name": "Montague",
      "latitude": "37.8034989",
      "longitude": "-92.5169818",
      "createdAt": "2025-12-28T18:49:21.802Z",
      "updatedAt": "2025-12-28T18:49:21.802Z",
      "stateName": "Texas",
      "countryName": "United States"
    },
    {
      "id": 13904,
      "stateId": 464,
      "name": "Montalegre",
      "latitude": "39.5232529",
      "longitude": "-8.9987995",
      "createdAt": "2025-12-28T19:34:41.083Z",
      "updatedAt": "2025-12-28T19:34:41.083Z",
      "stateName": "Norte",
      "countryName": "Portugal"
    },
    {
      "id": 6857,
      "stateId": 95,
      "name": "Montalvânia",
      "latitude": null,
      "longitude": null,
      "createdAt": "2025-12-28T18:27:23.036Z",
      "updatedAt": "2025-12-28T18:27:23.036Z",
      "stateName": "Minas Gerais",
      "countryName": "Brazil"
    },
    {
      "id": 13947,
      "stateId": 153,
      "name": "Montana City",
      "latitude": "37.8034989",
      "longitude": "-92.5169818",
      "createdAt": "2025-12-28T19:35:13.501Z",
      "updatedAt": "2025-12-28T19:35:13.501Z",
      "stateName": "Montana",
      "countryName": "United States"
    },
    {
      "id": 13951,
      "stateId": 261,
      "name": "Montanha",
      "latitude": null,
      "longitude": null,
      "createdAt": "2025-12-28T19:35:17.641Z",
      "updatedAt": "2025-12-28T19:35:17.641Z",
      "stateName": "Espírito Santo",
      "countryName": "Brazil"
    },
    {
      "id": 17899,
      "stateId": 186,
      "name": "Montanhas",
      "latitude": null,
      "longitude": null,
      "createdAt": "2026-03-12T07:27:41.871Z",
      "updatedAt": "2026-03-12T07:27:41.871Z",
      "stateName": "Rio Grande do Norte",
      "countryName": "Brazil"
    },
    {
      "id": 16154,
      "stateId": 523,
      "name": "Montargis",
      "latitude": "48.0000000",
      "longitude": "2.7500000",
      "createdAt": "2025-12-28T20:35:20.732Z",
      "updatedAt": "2025-12-28T20:35:20.732Z",
      "stateName": "Centre",
      "countryName": "France"
    },
    {
      "id": 4091,
      "stateId": 38,
      "name": "Montauban",
      "latitude": "44.0166700",
      "longitude": "1.3500000",
      "createdAt": "2025-12-28T18:16:11.152Z",
      "updatedAt": "2025-12-28T18:16:11.152Z",
      "stateName": "Occitanie",
      "countryName": "France"
    },
    {
      "id": 14070,
      "stateId": 6,
      "name": "Montauk",
      "latitude": "37.8034989",
      "longitude": "-92.5169818",
      "createdAt": "2025-12-28T19:38:33.494Z",
      "updatedAt": "2025-12-28T19:38:33.494Z",
      "stateName": "New York",
      "countryName": "United States"
    },
    {
      "id": 13946,
      "stateId": 205,
      "name": "Montauri",
      "latitude": null,
      "longitude": null,
      "createdAt": "2025-12-28T19:35:13.371Z",
      "updatedAt": "2025-12-28T19:35:13.371Z",
      "stateName": "Rio Grande do Sul",
      "countryName": "Brazil"
    },
    {
      "id": 8123,
      "stateId": 761,
      "name": "Montbard",
      "latitude": "47.3768156",
      "longitude": "2.7742767",
      "createdAt": "2025-12-28T18:35:31.140Z",
      "updatedAt": "2025-12-28T18:35:31.140Z",
      "stateName": "Burgundy",
      "countryName": "France"
    },
    {
      "id": 14729,
      "stateId": 446,
      "name": "Montbéliard",
      "latitude": "47.5166700",
      "longitude": "6.8000000",
      "createdAt": "2025-12-28T19:47:38.763Z",
      "updatedAt": "2025-12-28T19:47:38.763Z",
      "stateName": "Franche-Comté",
      "countryName": "France"
    },
    {
      "id": 2541,
      "stateId": 20,
      "name": "Mont Belvieu",
      "latitude": null,
      "longitude": null,
      "createdAt": "2025-12-28T18:12:22.053Z",
      "updatedAt": "2025-12-28T18:12:22.053Z",
      "stateName": "Texas",
      "countryName": "United States"
    },
    {
      "id": 15291,
      "stateId": 201,
      "name": "Montbrison",
      "latitude": null,
      "longitude": null,
      "createdAt": "2025-12-28T20:01:04.724Z",
      "updatedAt": "2025-12-28T20:01:04.724Z",
      "stateName": "Auvergne-Rhône-Alpes",
      "countryName": "France"
    },
    {
      "id": 10280,
      "stateId": 667,
      "name": "Montceau-les-Mines",
      "latitude": "46.6666700",
      "longitude": "4.3666700",
      "createdAt": "2025-12-28T18:51:30.214Z",
      "updatedAt": "2025-12-28T18:51:30.214Z",
      "stateName": "Bourgogne-Franche-Comté",
      "countryName": "France"
    },
    {
      "id": 10405,
      "stateId": 106,
      "name": "Montclair",
      "latitude": "40.8259300",
      "longitude": "-74.2090300",
      "createdAt": "2025-12-28T18:53:06.870Z",
      "updatedAt": "2025-12-28T18:53:06.870Z",
      "stateName": "New Jersey",
      "countryName": "United States"
    },
    {
      "id": 3577,
      "stateId": 87,
      "name": "Monte",
      "latitude": "42.4957616",
      "longitude": "12.4479260",
      "createdAt": "2025-12-28T18:14:53.031Z",
      "updatedAt": "2025-12-28T18:14:53.031Z",
      "stateName": "Lazio",
      "countryName": "Italy"
    },
    {
      "id": 3052,
      "stateId": 186,
      "name": "Monte Alegre",
      "latitude": null,
      "longitude": null,
      "createdAt": "2025-12-28T18:13:36.015Z",
      "updatedAt": "2025-12-28T18:13:36.015Z",
      "stateName": "Rio Grande do Norte",
      "countryName": "Brazil"
    },
    {
      "id": 13844,
      "stateId": 159,
      "name": "Monte Alegre",
      "latitude": null,
      "longitude": null,
      "createdAt": "2025-12-28T19:33:25.187Z",
      "updatedAt": "2025-12-28T19:33:25.187Z",
      "stateName": "Pará",
      "countryName": "Brazil"
    },
    {
      "id": 6464,
      "stateId": 95,
      "name": "Monte Alegre de Minas",
      "latitude": null,
      "longitude": null,
      "createdAt": "2025-12-28T18:25:29.943Z",
      "updatedAt": "2025-12-28T18:25:29.943Z",
      "stateName": "Minas Gerais",
      "countryName": "Brazil"
    },
    {
      "id": 2069,
      "stateId": 4,
      "name": "Monte Alto",
      "latitude": null,
      "longitude": null,
      "createdAt": "2025-12-28T18:10:47.463Z",
      "updatedAt": "2025-12-28T18:10:47.463Z",
      "stateName": "São Paulo",
      "countryName": "Brazil"
    },
    {
      "id": 3788,
      "stateId": 4,
      "name": "Monte Aprazível",
      "latitude": null,
      "longitude": null,
      "createdAt": "2025-12-28T18:15:14.886Z",
      "updatedAt": "2025-12-28T18:15:14.886Z",
      "stateName": "São Paulo",
      "countryName": "Brazil"
    },
    {
      "id": 4621,
      "stateId": 95,
      "name": "Monte Azul",
      "latitude": null,
      "longitude": null,
      "createdAt": "2025-12-28T18:18:10.245Z",
      "updatedAt": "2025-12-28T18:18:10.245Z",
      "stateName": "Minas Gerais",
      "countryName": "Brazil"
    },
    {
      "id": 13460,
      "stateId": 265,
      "name": "Montebelluna",
      "latitude": null,
      "longitude": null,
      "createdAt": "2025-12-28T19:25:31.031Z",
      "updatedAt": "2025-12-28T19:25:31.031Z",
      "stateName": "Veneto",
      "countryName": "Italy"
    },
    {
      "id": 17380,
      "stateId": 95,
      "name": "Monte Belo",
      "latitude": "-17.4339069",
      "longitude": "-45.8426650",
      "createdAt": "2026-01-04T20:46:00.818Z",
      "updatedAt": "2026-01-04T20:46:00.818Z",
      "stateName": "Minas Gerais",
      "countryName": "Brazil"
    },
    {
      "id": 6211,
      "stateId": 147,
      "name": "Monte Buey",
      "latitude": "-32.1628172",
      "longitude": "-62.0921509",
      "createdAt": "2025-12-28T18:23:33.747Z",
      "updatedAt": "2025-12-28T18:23:33.747Z",
      "stateName": "Cordoba",
      "countryName": "Argentina"
    },
    {
      "id": 11774,
      "stateId": 108,
      "name": "Montecalvo Irpino",
      "latitude": "42.4957616",
      "longitude": "12.4479260",
      "createdAt": "2025-12-28T19:09:22.115Z",
      "updatedAt": "2025-12-28T19:09:22.115Z",
      "stateName": "Campania",
      "countryName": "Italy"
    },
    {
      "id": 4572,
      "stateId": 108,
      "name": "Montecalvo Irpino Avellino",
      "latitude": "42.4957616",
      "longitude": "12.4479260",
      "createdAt": "2025-12-28T18:17:54.921Z",
      "updatedAt": "2025-12-28T18:17:54.921Z",
      "stateName": "Campania",
      "countryName": "Italy"
    },
    {
      "id": 6798,
      "stateId": 195,
      "name": "Montecarlo",
      "latitude": null,
      "longitude": null,
      "createdAt": "2025-12-28T18:27:14.512Z",
      "updatedAt": "2025-12-28T18:27:14.512Z",
      "stateName": "Misiones",
      "countryName": "Argentina"
    },
    {
      "id": 6866,
      "stateId": 293,
      "name": "Monte Carlo",
      "latitude": null,
      "longitude": null,
      "createdAt": "2025-12-28T18:27:23.788Z",
      "updatedAt": "2025-12-28T18:27:23.788Z",
      "stateName": "Santa Catarina",
      "countryName": "Brazil"
    },
    {
      "id": 11669,
      "stateId": 95,
      "name": "Monte Carmelo",
      "latitude": null,
      "longitude": null,
      "createdAt": "2025-12-28T19:08:29.699Z",
      "updatedAt": "2025-12-28T19:08:29.699Z",
      "stateName": "Minas Gerais",
      "countryName": "Brazil"
    },
    {
      "id": 9841,
      "stateId": 289,
      "name": "Monte Caseros",
      "latitude": "-30.2535900",
      "longitude": "-57.6362600",
      "createdAt": "2025-12-28T18:47:47.941Z",
      "updatedAt": "2025-12-28T18:47:47.941Z",
      "stateName": "Corrientes",
      "countryName": "Argentina"
    },
    {
      "id": 14943,
      "stateId": 293,
      "name": "Monte Castelo",
      "latitude": null,
      "longitude": null,
      "createdAt": "2025-12-28T19:50:28.914Z",
      "updatedAt": "2025-12-28T19:50:28.914Z",
      "stateName": "Santa Catarina",
      "countryName": "Brazil"
    },
    {
      "id": 2042,
      "stateId": 374,
      "name": "Monte das Cruzes",
      "latitude": "39.5232529",
      "longitude": "-8.9987995",
      "createdAt": "2025-12-28T18:10:44.401Z",
      "updatedAt": "2025-12-28T18:10:44.401Z",
      "stateName": "Centro",
      "countryName": "Portugal"
    },
    {
      "id": 8218,
      "stateId": 159,
      "name": "Monte Dourado",
      "latitude": null,
      "longitude": null,
      "createdAt": "2025-12-28T18:36:28.837Z",
      "updatedAt": "2025-12-28T18:36:28.837Z",
      "stateName": "Pará",
      "countryName": "Brazil"
    },
    {
      "id": 17120,
      "stateId": 95,
      "name": "Monte Formoso",
      "latitude": null,
      "longitude": null,
      "createdAt": "2025-12-29T15:35:59.940Z",
      "updatedAt": "2025-12-29T15:35:59.940Z",
      "stateName": "Minas Gerais",
      "countryName": "Brazil"
    },
    {
      "id": 17561,
      "stateId": 588,
      "name": "Montegnée",
      "latitude": null,
      "longitude": null,
      "createdAt": "2026-01-22T19:23:03.018Z",
      "updatedAt": "2026-01-22T19:23:03.018Z",
      "stateName": "Liège",
      "countryName": "Belgium"
    },
    {
      "id": 10172,
      "stateId": 1131,
      "name": "Montego Bay",
      "latitude": "18.4711600",
      "longitude": "-77.9188300",
      "createdAt": "2025-12-28T18:50:37.498Z",
      "updatedAt": "2025-12-28T18:50:37.498Z",
      "stateName": "Oracabessa",
      "countryName": "Jamaica"
    },
    {
      "id": 11445,
      "stateId": 58,
      "name": "Monte Grande",
      "latitude": null,
      "longitude": null,
      "createdAt": "2025-12-28T19:05:51.312Z",
      "updatedAt": "2025-12-28T19:05:51.312Z",
      "stateName": "Buenos Aires",
      "countryName": "Argentina"
    },
    {
      "id": 2917,
      "stateId": 58,
      "name": "Monte Hermoso",
      "latitude": "-32.1628172",
      "longitude": "-62.0921509",
      "createdAt": "2025-12-28T18:13:00.432Z",
      "updatedAt": "2025-12-28T18:13:00.432Z",
      "stateName": "Buenos Aires",
      "countryName": "Argentina"
    },
    {
      "id": 18075,
      "stateId": 287,
      "name": "Monte Horebe",
      "latitude": null,
      "longitude": null,
      "createdAt": "2026-03-30T19:13:29.091Z",
      "updatedAt": "2026-03-30T19:13:29.091Z",
      "stateName": "Paraíba",
      "countryName": "Brazil"
    },
    {
      "id": 13890,
      "stateId": 287,
      "name": "Monteiro",
      "latitude": null,
      "longitude": null,
      "createdAt": "2025-12-28T19:34:26.842Z",
      "updatedAt": "2025-12-28T19:34:26.842Z",
      "stateName": "Paraíba",
      "countryName": "Brazil"
    },
    {
      "id": 15562,
      "stateId": 4,
      "name": "Monteiro Lobato",
      "latitude": null,
      "longitude": null,
      "createdAt": "2025-12-28T20:11:05.285Z",
      "updatedAt": "2025-12-28T20:11:05.285Z",
      "stateName": "São Paulo",
      "countryName": "Brazil"
    },
    {
      "id": 18369,
      "stateId": 793,
      "name": "Montelíbano",
      "latitude": null,
      "longitude": null,
      "createdAt": "2026-05-18T20:01:23.316Z",
      "updatedAt": "2026-05-18T20:01:23.316Z",
      "stateName": "Cordoba",
      "countryName": "Colombia"
    },
    {
      "id": 2814,
      "stateId": 90,
      "name": "Montélimar",
      "latitude": "44.5583800",
      "longitude": "4.7509400",
      "createdAt": "2025-12-28T18:12:47.033Z",
      "updatedAt": "2025-12-28T18:12:47.033Z",
      "stateName": "Rhône-Alpes",
      "countryName": "France"
    },
    {
      "id": 14940,
      "stateId": 4,
      "name": "Monte Mor",
      "latitude": null,
      "longitude": null,
      "createdAt": "2025-12-28T19:50:27.964Z",
      "updatedAt": "2025-12-28T19:50:27.964Z",
      "stateName": "São Paulo",
      "countryName": "Brazil"
    },
    {
      "id": 736,
      "stateId": 326,
      "name": "Montemorelos",
      "latitude": "25.1890900",
      "longitude": "-99.8286500",
      "createdAt": "2025-12-28T17:02:13.838Z",
      "updatedAt": "2025-12-28T17:02:13.838Z",
      "stateName": "Nuevo León",
      "countryName": "Mexico"
    },
    {
      "id": 3597,
      "stateId": 678,
      "name": "Montemor-o-Novo",
      "latitude": "39.5232529",
      "longitude": "-8.9987995",
      "createdAt": "2025-12-28T18:14:55.741Z",
      "updatedAt": "2025-12-28T18:14:55.741Z",
      "stateName": "Alentejo",
      "countryName": "Portugal"
    },
    {
      "id": 3196,
      "stateId": 205,
      "name": "Montenegro",
      "latitude": "-29.6886100",
      "longitude": "-51.4611100",
      "createdAt": "2025-12-28T18:13:57.058Z",
      "updatedAt": "2025-12-28T18:13:57.058Z",
      "stateName": "Rio Grande do Sul",
      "countryName": "Brazil"
    },
    {
      "id": 13948,
      "stateId": 363,
      "name": "Montenegro",
      "latitude": null,
      "longitude": null,
      "createdAt": "2025-12-28T19:35:15.654Z",
      "updatedAt": "2025-12-28T19:35:15.654Z",
      "stateName": "Quindio",
      "countryName": "Colombia"
    },
    {
      "id": 11529,
      "stateId": 10,
      "name": "Montereau",
      "latitude": "48.3833300",
      "longitude": "2.9500000",
      "createdAt": "2025-12-28T19:06:51.290Z",
      "updatedAt": "2025-12-28T19:06:51.290Z",
      "stateName": "Île-de-France",
      "countryName": "France"
    },
    {
      "id": 10608,
      "stateId": 24,
      "name": "Monterey",
      "latitude": "36.6002400",
      "longitude": "-121.8946800",
      "createdAt": "2025-12-28T18:55:38.247Z",
      "updatedAt": "2025-12-28T18:55:38.247Z",
      "stateName": "California",
      "countryName": "United States"
    },
    {
      "id": 7351,
      "stateId": 21,
      "name": "Monterey",
      "latitude": "37.8034989",
      "longitude": "-92.5169818",
      "createdAt": "2025-12-28T18:29:44.968Z",
      "updatedAt": "2025-12-28T18:29:44.968Z",
      "stateName": "Tennessee",
      "countryName": "United States"
    },
    {
      "id": 2736,
      "stateId": 24,
      "name": "Monterey Park",
      "latitude": "34.0625100",
      "longitude": "-118.1228500",
      "createdAt": "2025-12-28T18:12:42.986Z",
      "updatedAt": "2025-12-28T18:12:42.986Z",
      "stateName": "California",
      "countryName": "United States"
    },
    {
      "id": 18336,
      "stateId": 1460,
      "name": "Montería",
      "latitude": "8.7479800",
      "longitude": "-75.8814300",
      "createdAt": "2026-05-17T11:50:17.800Z",
      "updatedAt": "2026-05-17T11:50:17.800Z",
      "stateName": "Caribbean Region",
      "countryName": "Colombia"
    },
    {
      "id": 13289,
      "stateId": 24,
      "name": "Monte Rio",
      "latitude": "37.8034989",
      "longitude": "-92.5169818",
      "createdAt": "2025-12-28T19:22:43.068Z",
      "updatedAt": "2025-12-28T19:22:43.068Z",
      "stateName": "California",
      "countryName": "United States"
    },
    {
      "id": 3490,
      "stateId": 307,
      "name": "Monteros",
      "latitude": "-27.1674100",
      "longitude": "-65.4983200",
      "createdAt": "2025-12-28T18:14:38.088Z",
      "updatedAt": "2025-12-28T18:14:38.088Z",
      "stateName": "Tucumán",
      "countryName": "Argentina"
    },
    {
      "id": 13454,
      "stateId": 222,
      "name": "Monterosso",
      "latitude": "42.4957616",
      "longitude": "12.4479260",
      "createdAt": "2025-12-28T19:25:25.164Z",
      "updatedAt": "2025-12-28T19:25:25.164Z",
      "stateName": "Liguria",
      "countryName": "Italy"
    },
    {
      "id": 703,
      "stateId": 326,
      "name": "Monterrey",
      "latitude": "25.6750700",
      "longitude": "-100.3184700",
      "createdAt": "2025-12-28T17:02:09.260Z",
      "updatedAt": "2025-12-28T17:02:09.260Z",
      "stateName": "Nuevo León",
      "countryName": "Mexico"
    },
    {
      "id": 17441,
      "stateId": 197,
      "name": "Monterrico",
      "latitude": null,
      "longitude": null,
      "createdAt": "2026-01-06T16:53:08.762Z",
      "updatedAt": "2026-01-06T16:53:08.762Z",
      "stateName": "Jujuy",
      "countryName": "Argentina"
    },
    {
      "id": 14941,
      "stateId": 262,
      "name": "Monte Santo",
      "latitude": null,
      "longitude": null,
      "createdAt": "2025-12-28T19:50:28.015Z",
      "updatedAt": "2025-12-28T19:50:28.015Z",
      "stateName": "Bahia",
      "countryName": "Brazil"
    },
    {
      "id": 7632,
      "stateId": 166,
      "name": "Montescaglioso",
      "latitude": "42.4957616",
      "longitude": "12.4479260",
      "createdAt": "2025-12-28T18:31:01.761Z",
      "updatedAt": "2025-12-28T18:31:01.761Z",
      "stateName": "Basilicata",
      "countryName": "Italy"
    },
    {
      "id": 625,
      "stateId": 95,
      "name": "Montes Claros",
      "latitude": "-16.7350000",
      "longitude": "-43.8616700",
      "createdAt": "2025-12-28T17:01:14.138Z",
      "updatedAt": "2025-12-28T17:01:14.138Z",
      "stateName": "Minas Gerais",
      "countryName": "Brazil"
    },
    {
      "id": 6789,
      "stateId": 95,
      "name": "Monte Sião",
      "latitude": null,
      "longitude": null,
      "createdAt": "2025-12-28T18:27:12.902Z",
      "updatedAt": "2025-12-28T18:27:12.902Z",
      "stateName": "Minas Gerais",
      "countryName": "Brazil"
    },
    {
      "id": 13944,
      "stateId": 1250,
      "name": "Montesilvano",
      "latitude": "42.5118500",
      "longitude": "14.1372900",
      "createdAt": "2025-12-28T19:35:09.636Z",
      "updatedAt": "2025-12-28T19:35:09.636Z",
      "stateName": "Pescara",
      "countryName": "Italy"
    },
    {
      "id": 367,
      "stateId": 168,
      "name": "Montevideo",
      "latitude": "-34.9032800",
      "longitude": "-56.1881600",
      "createdAt": "2025-12-28T17:00:45.221Z",
      "updatedAt": "2025-12-28T17:00:45.221Z",
      "stateName": "Montevideo",
      "countryName": "Uruguay"
    },
    {
      "id": 7224,
      "stateId": 49,
      "name": "Montevideo",
      "latitude": "-34.9032800",
      "longitude": "-56.1881600",
      "createdAt": "2025-12-28T18:28:51.894Z",
      "updatedAt": "2025-12-28T18:28:51.894Z",
      "stateName": "Minnesota",
      "countryName": "United States"
    },
    {
      "id": 10115,
      "stateId": 27,
      "name": "Monte Vista",
      "latitude": "37.8034989",
      "longitude": "-92.5169818",
      "createdAt": "2025-12-28T18:50:21.770Z",
      "updatedAt": "2025-12-28T18:50:21.770Z",
      "stateName": "Colorado",
      "countryName": "United States"
    },
    {
      "id": 15426,
      "stateId": 22,
      "name": "Montezuma",
      "latitude": "37.8034989",
      "longitude": "-92.5169818",
      "createdAt": "2025-12-28T20:05:33.103Z",
      "updatedAt": "2025-12-28T20:05:33.103Z",
      "stateName": "Georgia",
      "countryName": "United States"
    },
    {
      "id": 3372,
      "stateId": 113,
      "name": "Montezuma",
      "latitude": "37.8034989",
      "longitude": "-92.5169818",
      "createdAt": "2025-12-28T18:14:17.955Z",
      "updatedAt": "2025-12-28T18:14:17.955Z",
      "stateName": "Iowa",
      "countryName": "United States"
    },
    {
      "id": 12286,
      "stateId": 10,
      "name": "Montfermeil",
      "latitude": "48.8982000",
      "longitude": "2.5791300",
      "createdAt": "2025-12-28T19:15:07.292Z",
      "updatedAt": "2025-12-28T19:15:07.292Z",
      "stateName": "Île-de-France",
      "countryName": "France"
    },
    {
      "id": 15460,
      "stateId": 203,
      "name": "Montfoort",
      "latitude": "52.0575321",
      "longitude": "5.3403480",
      "createdAt": "2025-12-28T20:07:02.839Z",
      "updatedAt": "2025-12-28T20:07:02.839Z",
      "stateName": "Utrecht",
      "countryName": "Netherlands"
    },
    {
      "id": 10287,
      "stateId": 224,
      "name": "Montfort-sur-Meu",
      "latitude": null,
      "longitude": null,
      "createdAt": "2025-12-28T18:51:31.213Z",
      "updatedAt": "2025-12-28T18:51:31.213Z",
      "stateName": "Brittany",
      "countryName": "France"
    },
    {
      "id": 15331,
      "stateId": 1106,
      "name": "Montfrin",
      "latitude": null,
      "longitude": null,
      "createdAt": "2025-12-28T20:02:42.940Z",
      "updatedAt": "2025-12-28T20:02:42.940Z",
      "stateName": "Gard",
      "countryName": "France"
    }
  ],
  "meta": {
    "page": 105,
    "limit": 100,
    "total": 18002,
    "totalPages": 181
  }
}
