{
  "source": "50k-radio-stations",
  "provider": "rapidapi",
  "syncedAt": "2026-06-03T13:04:50.542Z",
  "endpoint": "/cities",
  "page": 61,
  "limit": 250,
  "data": [
    {
      "id": 4548,
      "stateId": 319,
      "name": "Girón",
      "latitude": null,
      "longitude": null,
      "createdAt": "2025-12-28T18:17:51.659Z",
      "updatedAt": "2025-12-28T18:17:51.659Z",
      "stateName": "Santander",
      "countryName": "Colombia"
    },
    {
      "id": 1685,
      "stateId": 513,
      "name": "Girona",
      "latitude": "41.9831100",
      "longitude": "2.8249300",
      "createdAt": "2025-12-28T18:01:55.198Z",
      "updatedAt": "2025-12-28T18:01:55.198Z",
      "stateName": "Girona",
      "countryName": "Spain"
    },
    {
      "id": 3030,
      "stateId": 205,
      "name": "Girua",
      "latitude": null,
      "longitude": null,
      "createdAt": "2025-12-28T18:13:33.570Z",
      "updatedAt": "2025-12-28T18:13:33.570Z",
      "stateName": "Rio Grande do Sul",
      "countryName": "Brazil"
    },
    {
      "id": 10334,
      "stateId": 709,
      "name": "Givet",
      "latitude": "47.3768156",
      "longitude": "2.7742767",
      "createdAt": "2025-12-28T18:52:12.259Z",
      "updatedAt": "2025-12-28T18:52:12.259Z",
      "stateName": "Champagne-Ardenne",
      "countryName": "France"
    },
    {
      "id": 1538,
      "stateId": 453,
      "name": "Giyani",
      "latitude": null,
      "longitude": null,
      "createdAt": "2025-12-28T17:04:41.195Z",
      "updatedAt": "2025-12-28T17:04:41.195Z",
      "stateName": "Limpopo",
      "countryName": "South Africa"
    },
    {
      "id": 10605,
      "stateId": 1146,
      "name": "Gjakova",
      "latitude": null,
      "longitude": null,
      "createdAt": "2025-12-28T18:55:30.624Z",
      "updatedAt": "2025-12-28T18:55:30.624Z",
      "stateName": "District of Đakovica",
      "countryName": "Kosovo"
    },
    {
      "id": 18048,
      "stateId": 1403,
      "name": "Gjøvik",
      "latitude": null,
      "longitude": null,
      "createdAt": "2026-03-30T07:24:20.388Z",
      "updatedAt": "2026-03-30T07:24:20.388Z",
      "stateName": "Innlandet",
      "countryName": "Norway"
    },
    {
      "id": 10606,
      "stateId": 1147,
      "name": "Gjøvik",
      "latitude": null,
      "longitude": null,
      "createdAt": "2025-12-28T18:55:30.729Z",
      "updatedAt": "2025-12-28T18:55:30.729Z",
      "stateName": "Oppland",
      "countryName": "Norway"
    },
    {
      "id": 7078,
      "stateId": 509,
      "name": "Glace Bay",
      "latitude": "46.1969500",
      "longitude": "-59.9569800",
      "createdAt": "2025-12-28T18:28:07.423Z",
      "updatedAt": "2025-12-28T18:28:07.423Z",
      "stateName": "Nova Scotia",
      "countryName": "Canada"
    },
    {
      "id": 9568,
      "stateId": 432,
      "name": "Gladbeck",
      "latitude": "51.5707700",
      "longitude": "6.9859300",
      "createdAt": "2025-12-28T18:45:18.545Z",
      "updatedAt": "2025-12-28T18:45:18.545Z",
      "stateName": "North Rhine-Westphalia",
      "countryName": "Germany"
    },
    {
      "id": 4495,
      "stateId": 19,
      "name": "Gladesville",
      "latitude": "-33.9811915",
      "longitude": "144.8351072",
      "createdAt": "2025-12-28T18:17:45.308Z",
      "updatedAt": "2025-12-28T18:17:45.308Z",
      "stateName": "New South Wales",
      "countryName": "Australia"
    },
    {
      "id": 10655,
      "stateId": 92,
      "name": "Gladstone",
      "latitude": "39.2038900",
      "longitude": "-94.5546800",
      "createdAt": "2025-12-28T18:56:00.554Z",
      "updatedAt": "2025-12-28T18:56:00.554Z",
      "stateName": "Michigan",
      "countryName": "United States"
    },
    {
      "id": 4450,
      "stateId": 74,
      "name": "Gladstone",
      "latitude": "-23.8485200",
      "longitude": "151.2577500",
      "createdAt": "2025-12-28T18:17:35.501Z",
      "updatedAt": "2025-12-28T18:17:35.501Z",
      "stateName": "Queensland",
      "countryName": "Australia"
    },
    {
      "id": 7371,
      "stateId": 92,
      "name": "Gladwin",
      "latitude": "37.8034989",
      "longitude": "-92.5169818",
      "createdAt": "2025-12-28T18:29:48.903Z",
      "updatedAt": "2025-12-28T18:29:48.903Z",
      "stateName": "Michigan",
      "countryName": "United States"
    },
    {
      "id": 10636,
      "stateId": 46,
      "name": "Glasford",
      "latitude": "37.8034989",
      "longitude": "-92.5169818",
      "createdAt": "2025-12-28T18:55:55.560Z",
      "updatedAt": "2025-12-28T18:55:55.560Z",
      "stateName": "Illinois",
      "countryName": "United States"
    },
    {
      "id": 9784,
      "stateId": 80,
      "name": "Glasgow",
      "latitude": "37.8034989",
      "longitude": "-92.5169818",
      "createdAt": "2025-12-28T18:47:15.642Z",
      "updatedAt": "2025-12-28T18:47:15.642Z",
      "stateName": "Kentucky",
      "countryName": "United States"
    },
    {
      "id": 5501,
      "stateId": 324,
      "name": "Glasgow",
      "latitude": null,
      "longitude": null,
      "createdAt": "2025-12-28T18:21:05.797Z",
      "updatedAt": "2025-12-28T18:21:05.797Z",
      "stateName": "West Virginia",
      "countryName": "United States"
    },
    {
      "id": 10646,
      "stateId": 153,
      "name": "Glasgow",
      "latitude": "37.8034989",
      "longitude": "-92.5169818",
      "createdAt": "2025-12-28T18:55:58.227Z",
      "updatedAt": "2025-12-28T18:55:58.227Z",
      "stateName": "Montana",
      "countryName": "United States"
    },
    {
      "id": 1279,
      "stateId": 444,
      "name": "Glasgow",
      "latitude": "55.8651500",
      "longitude": "-4.2576300",
      "createdAt": "2025-12-28T17:03:22.598Z",
      "updatedAt": "2025-12-28T17:03:22.598Z",
      "stateName": "Scotland",
      "countryName": "United Kingdom"
    },
    {
      "id": 10650,
      "stateId": 106,
      "name": "Glassboro",
      "latitude": "39.7028900",
      "longitude": "-75.1118400",
      "createdAt": "2025-12-28T18:55:59.160Z",
      "updatedAt": "2025-12-28T18:55:59.160Z",
      "stateName": "New Jersey",
      "countryName": "United States"
    },
    {
      "id": 10554,
      "stateId": 2,
      "name": "Glastonbury",
      "latitude": null,
      "longitude": null,
      "createdAt": "2025-12-28T18:54:46.157Z",
      "updatedAt": "2025-12-28T18:54:46.157Z",
      "stateName": "England",
      "countryName": "United Kingdom"
    },
    {
      "id": 9255,
      "stateId": 554,
      "name": "Glazov",
      "latitude": null,
      "longitude": null,
      "createdAt": "2025-12-28T18:42:46.011Z",
      "updatedAt": "2025-12-28T18:42:46.011Z",
      "stateName": "Udmurtia",
      "countryName": "Russia"
    },
    {
      "id": 4198,
      "stateId": 50,
      "name": "Glen Allen",
      "latitude": "37.8034989",
      "longitude": "-92.5169818",
      "createdAt": "2025-12-28T18:16:32.677Z",
      "updatedAt": "2025-12-28T18:16:32.677Z",
      "stateName": "Virginia",
      "countryName": "United States"
    },
    {
      "id": 4943,
      "stateId": 92,
      "name": "Glen Arbor",
      "latitude": "37.8034989",
      "longitude": "-92.5169818",
      "createdAt": "2025-12-28T18:19:15.030Z",
      "updatedAt": "2025-12-28T18:19:15.030Z",
      "stateName": "Michigan",
      "countryName": "United States"
    },
    {
      "id": 1491,
      "stateId": 64,
      "name": "Glen Burnie",
      "latitude": "39.1626100",
      "longitude": "-76.6246900",
      "createdAt": "2025-12-28T17:04:35.417Z",
      "updatedAt": "2025-12-28T17:04:35.417Z",
      "stateName": "Maryland",
      "countryName": "United States"
    },
    {
      "id": 2577,
      "stateId": 49,
      "name": "Glencoe",
      "latitude": "37.8034989",
      "longitude": "-92.5169818",
      "createdAt": "2025-12-28T18:12:26.676Z",
      "updatedAt": "2025-12-28T18:12:26.676Z",
      "stateName": "Minnesota",
      "countryName": "United States"
    },
    {
      "id": 10652,
      "stateId": 122,
      "name": "Glencoe",
      "latitude": "37.8034989",
      "longitude": "-92.5169818",
      "createdAt": "2025-12-28T18:55:59.996Z",
      "updatedAt": "2025-12-28T18:55:59.996Z",
      "stateName": "Alabama",
      "countryName": "United States"
    },
    {
      "id": 3485,
      "stateId": 24,
      "name": "Glendale",
      "latitude": "34.1425100",
      "longitude": "-118.2550800",
      "createdAt": "2025-12-28T18:14:37.466Z",
      "updatedAt": "2025-12-28T18:14:37.466Z",
      "stateName": "California",
      "countryName": "United States"
    },
    {
      "id": 7574,
      "stateId": 75,
      "name": "Glendale",
      "latitude": "33.5386500",
      "longitude": "-112.1859900",
      "createdAt": "2025-12-28T18:30:39.621Z",
      "updatedAt": "2025-12-28T18:30:39.621Z",
      "stateName": "Arizona",
      "countryName": "United States"
    },
    {
      "id": 8422,
      "stateId": 46,
      "name": "Glendale Heights",
      "latitude": "41.9103100",
      "longitude": "-88.0717400",
      "createdAt": "2025-12-28T18:38:04.178Z",
      "updatedAt": "2025-12-28T18:38:04.178Z",
      "stateName": "Illinois",
      "countryName": "United States"
    },
    {
      "id": 3200,
      "stateId": 153,
      "name": "Glendive",
      "latitude": "37.8034989",
      "longitude": "-92.5169818",
      "createdAt": "2025-12-28T18:13:57.339Z",
      "updatedAt": "2025-12-28T18:13:57.339Z",
      "stateName": "Montana",
      "countryName": "United States"
    },
    {
      "id": 10653,
      "stateId": 81,
      "name": "Gleneden Beach",
      "latitude": "37.8034989",
      "longitude": "-92.5169818",
      "createdAt": "2025-12-28T18:56:00.071Z",
      "updatedAt": "2025-12-28T18:56:00.071Z",
      "stateName": "Oregon",
      "countryName": "United States"
    },
    {
      "id": 8993,
      "stateId": 46,
      "name": "Glen Ellyn",
      "latitude": "41.8775300",
      "longitude": "-88.0670100",
      "createdAt": "2025-12-28T18:41:18.297Z",
      "updatedAt": "2025-12-28T18:41:18.297Z",
      "stateName": "Illinois",
      "countryName": "United States"
    },
    {
      "id": 1791,
      "stateId": 19,
      "name": "Glen Innes",
      "latitude": null,
      "longitude": null,
      "createdAt": "2025-12-28T18:10:11.404Z",
      "updatedAt": "2025-12-28T18:10:11.404Z",
      "stateName": "New South Wales",
      "countryName": "Australia"
    },
    {
      "id": 10634,
      "stateId": 8,
      "name": "Glenmore",
      "latitude": null,
      "longitude": null,
      "createdAt": "2025-12-28T18:55:54.336Z",
      "updatedAt": "2025-12-28T18:55:54.336Z",
      "stateName": "Wisconsin",
      "countryName": "United States"
    },
    {
      "id": 10151,
      "stateId": 24,
      "name": "Glenn",
      "latitude": null,
      "longitude": null,
      "createdAt": "2025-12-28T18:50:34.028Z",
      "updatedAt": "2025-12-28T18:50:34.028Z",
      "stateName": "California",
      "countryName": "United States"
    },
    {
      "id": 10639,
      "stateId": 45,
      "name": "Glennallen",
      "latitude": "37.8034989",
      "longitude": "-92.5169818",
      "createdAt": "2025-12-28T18:55:56.212Z",
      "updatedAt": "2025-12-28T18:55:56.212Z",
      "stateName": "Alaska",
      "countryName": "United States"
    },
    {
      "id": 10637,
      "stateId": 151,
      "name": "Glenpool",
      "latitude": null,
      "longitude": null,
      "createdAt": "2025-12-28T18:55:55.668Z",
      "updatedAt": "2025-12-28T18:55:55.668Z",
      "stateName": "Oklahoma",
      "countryName": "United States"
    },
    {
      "id": 10635,
      "stateId": 20,
      "name": "Glen Rose",
      "latitude": "37.8034989",
      "longitude": "-92.5169818",
      "createdAt": "2025-12-28T18:55:55.016Z",
      "updatedAt": "2025-12-28T18:55:55.016Z",
      "stateName": "Texas",
      "countryName": "United States"
    },
    {
      "id": 4497,
      "stateId": 13,
      "name": "Glenroy",
      "latitude": "-37.7000000",
      "longitude": "144.9333300",
      "createdAt": "2025-12-28T18:17:45.417Z",
      "updatedAt": "2025-12-28T18:17:45.417Z",
      "stateName": "Victoria",
      "countryName": "Australia"
    },
    {
      "id": 10642,
      "stateId": 6,
      "name": "Glens Falls",
      "latitude": "37.8034989",
      "longitude": "-92.5169818",
      "createdAt": "2025-12-28T18:55:57.287Z",
      "updatedAt": "2025-12-28T18:55:57.287Z",
      "stateName": "New York",
      "countryName": "United States"
    },
    {
      "id": 10654,
      "stateId": 68,
      "name": "Glenside",
      "latitude": null,
      "longitude": null,
      "createdAt": "2025-12-28T18:56:00.195Z",
      "updatedAt": "2025-12-28T18:56:00.195Z",
      "stateName": "Pennsylvania",
      "countryName": "United States"
    },
    {
      "id": 10660,
      "stateId": 46,
      "name": "Glenview",
      "latitude": "42.0697500",
      "longitude": "-87.7878400",
      "createdAt": "2025-12-28T18:56:05.174Z",
      "updatedAt": "2025-12-28T18:56:05.174Z",
      "stateName": "Illinois",
      "countryName": "United States"
    },
    {
      "id": 10661,
      "stateId": 324,
      "name": "Glenville",
      "latitude": "37.8034989",
      "longitude": "-92.5169818",
      "createdAt": "2025-12-28T18:56:05.345Z",
      "updatedAt": "2025-12-28T18:56:05.345Z",
      "stateName": "West Virginia",
      "countryName": "United States"
    },
    {
      "id": 10657,
      "stateId": 113,
      "name": "Glenwood",
      "latitude": "37.8034989",
      "longitude": "-92.5169818",
      "createdAt": "2025-12-28T18:56:04.591Z",
      "updatedAt": "2025-12-28T18:56:04.591Z",
      "stateName": "Iowa",
      "countryName": "United States"
    },
    {
      "id": 10645,
      "stateId": 49,
      "name": "Glenwood",
      "latitude": "37.8034989",
      "longitude": "-92.5169818",
      "createdAt": "2025-12-28T18:55:58.156Z",
      "updatedAt": "2025-12-28T18:55:58.156Z",
      "stateName": "Minnesota",
      "countryName": "United States"
    },
    {
      "id": 5021,
      "stateId": 27,
      "name": "Glenwood Springs",
      "latitude": "37.8034989",
      "longitude": "-92.5169818",
      "createdAt": "2025-12-28T18:19:25.641Z",
      "updatedAt": "2025-12-28T18:19:25.641Z",
      "stateName": "Colorado",
      "countryName": "United States"
    },
    {
      "id": 10656,
      "stateId": 5,
      "name": "Glinde",
      "latitude": null,
      "longitude": null,
      "createdAt": "2025-12-28T18:56:02.027Z",
      "updatedAt": "2025-12-28T18:56:02.027Z",
      "stateName": "Schleswig-Holstein",
      "countryName": "Germany"
    },
    {
      "id": 6437,
      "stateId": 495,
      "name": "Gliwice",
      "latitude": "50.2976100",
      "longitude": "18.6765800",
      "createdAt": "2025-12-28T18:25:16.763Z",
      "updatedAt": "2025-12-28T18:25:16.763Z",
      "stateName": "Silesian",
      "countryName": "Poland"
    },
    {
      "id": 10638,
      "stateId": 75,
      "name": "Globe",
      "latitude": "37.8034989",
      "longitude": "-92.5169818",
      "createdAt": "2025-12-28T18:55:55.801Z",
      "updatedAt": "2025-12-28T18:55:55.801Z",
      "stateName": "Arizona",
      "countryName": "United States"
    },
    {
      "id": 10610,
      "stateId": 369,
      "name": "Gloria De Dourados",
      "latitude": null,
      "longitude": null,
      "createdAt": "2025-12-28T18:55:40.957Z",
      "updatedAt": "2025-12-28T18:55:40.957Z",
      "stateName": "Mato Grosso do Sul",
      "countryName": "Brazil"
    },
    {
      "id": 10648,
      "stateId": 7,
      "name": "Glória do Goitá",
      "latitude": null,
      "longitude": null,
      "createdAt": "2025-12-28T18:55:58.313Z",
      "updatedAt": "2025-12-28T18:55:58.313Z",
      "stateName": "Pernambuco",
      "countryName": "Brazil"
    },
    {
      "id": 3563,
      "stateId": 50,
      "name": "Gloucester",
      "latitude": "37.8034989",
      "longitude": "-92.5169818",
      "createdAt": "2025-12-28T18:14:50.094Z",
      "updatedAt": "2025-12-28T18:14:50.094Z",
      "stateName": "Virginia",
      "countryName": "United States"
    },
    {
      "id": 5960,
      "stateId": 19,
      "name": "Gloucester",
      "latitude": "-33.9811915",
      "longitude": "144.8351072",
      "createdAt": "2025-12-28T18:22:44.150Z",
      "updatedAt": "2025-12-28T18:22:44.150Z",
      "stateName": "New South Wales",
      "countryName": "Australia"
    },
    {
      "id": 10647,
      "stateId": 47,
      "name": "Gloucester",
      "latitude": "42.6159300",
      "longitude": "-70.6619900",
      "createdAt": "2025-12-28T18:55:58.245Z",
      "updatedAt": "2025-12-28T18:55:58.245Z",
      "stateName": "Massachusetts",
      "countryName": "United States"
    },
    {
      "id": 4168,
      "stateId": 2,
      "name": "Gloucester",
      "latitude": "51.8656800",
      "longitude": "-2.2431000",
      "createdAt": "2025-12-28T18:16:27.296Z",
      "updatedAt": "2025-12-28T18:16:27.296Z",
      "stateName": "England",
      "countryName": "United Kingdom"
    },
    {
      "id": 10658,
      "stateId": 50,
      "name": "Gloucester Courthouse",
      "latitude": null,
      "longitude": null,
      "createdAt": "2025-12-28T18:56:04.700Z",
      "updatedAt": "2025-12-28T18:56:04.700Z",
      "stateName": "Virginia",
      "countryName": "United States"
    },
    {
      "id": 10641,
      "stateId": 6,
      "name": "Gloversville",
      "latitude": "43.0528500",
      "longitude": "-74.3437500",
      "createdAt": "2025-12-28T18:55:57.184Z",
      "updatedAt": "2025-12-28T18:55:57.184Z",
      "stateName": "New York",
      "countryName": "United States"
    },
    {
      "id": 10640,
      "stateId": 1103,
      "name": "Glubczyce",
      "latitude": "51.8024603",
      "longitude": "19.2550087",
      "createdAt": "2025-12-28T18:55:56.296Z",
      "updatedAt": "2025-12-28T18:55:56.296Z",
      "stateName": "Opole",
      "countryName": "Poland"
    },
    {
      "id": 10651,
      "stateId": 401,
      "name": "Gluckstadt",
      "latitude": "37.8034989",
      "longitude": "-92.5169818",
      "createdAt": "2025-12-28T18:55:59.816Z",
      "updatedAt": "2025-12-28T18:55:59.816Z",
      "stateName": "Mississippi",
      "countryName": "United States"
    },
    {
      "id": 4327,
      "stateId": 67,
      "name": "Glyfada",
      "latitude": "38.6555720",
      "longitude": "23.4057215",
      "createdAt": "2025-12-28T18:16:58.690Z",
      "updatedAt": "2025-12-28T18:16:58.690Z",
      "stateName": "Attica",
      "countryName": "Greece"
    },
    {
      "id": 10667,
      "stateId": 577,
      "name": "Gniezno",
      "latitude": "52.5348100",
      "longitude": "17.5825900",
      "createdAt": "2025-12-28T18:56:12.678Z",
      "updatedAt": "2025-12-28T18:56:12.678Z",
      "stateName": "Greater Poland",
      "countryName": "Poland"
    },
    {
      "id": 4140,
      "stateId": 735,
      "name": "Goaso",
      "latitude": null,
      "longitude": null,
      "createdAt": "2025-12-28T18:16:20.135Z",
      "updatedAt": "2025-12-28T18:16:20.135Z",
      "stateName": "Asunafo",
      "countryName": "Ghana"
    },
    {
      "id": 1060,
      "stateId": 386,
      "name": "Gobernador Gregores",
      "latitude": null,
      "longitude": null,
      "createdAt": "2025-12-28T17:02:36.949Z",
      "updatedAt": "2025-12-28T17:02:36.949Z",
      "stateName": "Santa Cruz",
      "countryName": "Argentina"
    },
    {
      "id": 13760,
      "stateId": 209,
      "name": "Gobernador Mansilla",
      "latitude": "-32.1628172",
      "longitude": "-62.0921509",
      "createdAt": "2025-12-28T19:31:19.328Z",
      "updatedAt": "2025-12-28T19:31:19.328Z",
      "stateName": "Entre Rios",
      "countryName": "Argentina"
    },
    {
      "id": 7981,
      "stateId": 289,
      "name": "Gobernador Virasoro",
      "latitude": null,
      "longitude": null,
      "createdAt": "2025-12-28T18:33:52.849Z",
      "updatedAt": "2025-12-28T18:33:52.849Z",
      "stateName": "Corrientes",
      "countryName": "Argentina"
    },
    {
      "id": 10985,
      "stateId": 2,
      "name": "Godalming",
      "latitude": null,
      "longitude": null,
      "createdAt": "2025-12-28T18:59:56.742Z",
      "updatedAt": "2025-12-28T18:59:56.742Z",
      "stateName": "England",
      "countryName": "United Kingdom"
    },
    {
      "id": 15801,
      "stateId": 41,
      "name": "Goderich",
      "latitude": null,
      "longitude": null,
      "createdAt": "2025-12-28T20:19:31.949Z",
      "updatedAt": "2025-12-28T20:19:31.949Z",
      "stateName": "Ontario",
      "countryName": "Canada"
    },
    {
      "id": 16620,
      "stateId": 46,
      "name": "Godfrey",
      "latitude": "38.9556000",
      "longitude": "-90.1867800",
      "createdAt": "2025-12-28T20:47:51.262Z",
      "updatedAt": "2025-12-28T20:47:51.262Z",
      "stateName": "Illinois",
      "countryName": "United States"
    },
    {
      "id": 2675,
      "stateId": 283,
      "name": "Godhra",
      "latitude": "22.7754700",
      "longitude": "73.6148800",
      "createdAt": "2025-12-28T18:12:39.984Z",
      "updatedAt": "2025-12-28T18:12:39.984Z",
      "stateName": "Gujarat",
      "countryName": "India"
    },
    {
      "id": 17064,
      "stateId": 285,
      "name": "Godoy Cruz",
      "latitude": null,
      "longitude": null,
      "createdAt": "2025-12-29T15:21:33.921Z",
      "updatedAt": "2025-12-29T15:21:33.921Z",
      "stateName": "Mendoza",
      "countryName": "Argentina"
    },
    {
      "id": 10970,
      "stateId": 1150,
      "name": "Goes",
      "latitude": "51.5041700",
      "longitude": "3.8888900",
      "createdAt": "2025-12-28T18:59:47.984Z",
      "updatedAt": "2025-12-28T18:59:47.984Z",
      "stateName": "Zeeland",
      "countryName": "Netherlands"
    },
    {
      "id": 4278,
      "stateId": 7,
      "name": "Goiana",
      "latitude": "-7.5605600",
      "longitude": "-35.0025000",
      "createdAt": "2025-12-28T18:16:42.758Z",
      "updatedAt": "2025-12-28T18:16:42.758Z",
      "stateName": "Pernambuco",
      "countryName": "Brazil"
    },
    {
      "id": 913,
      "stateId": 253,
      "name": "Goianesia",
      "latitude": "-17.4339069",
      "longitude": "-45.8426650",
      "createdAt": "2025-12-28T17:02:27.639Z",
      "updatedAt": "2025-12-28T17:02:27.639Z",
      "stateName": "Goiás",
      "countryName": "Brazil"
    },
    {
      "id": 533,
      "stateId": 253,
      "name": "Goiânia",
      "latitude": "-16.6786100",
      "longitude": "-49.2538900",
      "createdAt": "2025-12-28T17:01:03.688Z",
      "updatedAt": "2025-12-28T17:01:03.688Z",
      "stateName": "Goiás",
      "countryName": "Brazil"
    },
    {
      "id": 10727,
      "stateId": 186,
      "name": "Goianinha",
      "latitude": null,
      "longitude": null,
      "createdAt": "2025-12-28T18:57:00.002Z",
      "updatedAt": "2025-12-28T18:57:00.002Z",
      "stateName": "Rio Grande do Norte",
      "countryName": "Brazil"
    },
    {
      "id": 9973,
      "stateId": 253,
      "name": "Goias",
      "latitude": "-15.9344400",
      "longitude": "-50.1402800",
      "createdAt": "2025-12-28T18:49:18.989Z",
      "updatedAt": "2025-12-28T18:49:18.989Z",
      "stateName": "Goiás",
      "countryName": "Brazil"
    },
    {
      "id": 9192,
      "stateId": 253,
      "name": "Goiatuba",
      "latitude": null,
      "longitude": null,
      "createdAt": "2025-12-28T18:42:31.305Z",
      "updatedAt": "2025-12-28T18:42:31.305Z",
      "stateName": "Goiás",
      "countryName": "Brazil"
    },
    {
      "id": 10675,
      "stateId": 137,
      "name": "Goioerê ",
      "latitude": null,
      "longitude": null,
      "createdAt": "2025-12-28T18:56:23.622Z",
      "updatedAt": "2025-12-28T18:56:23.622Z",
      "stateName": "Paraná",
      "countryName": "Brazil"
    },
    {
      "id": 13843,
      "stateId": 137,
      "name": "Goioxim",
      "latitude": null,
      "longitude": null,
      "createdAt": "2025-12-28T19:33:25.145Z",
      "updatedAt": "2025-12-28T19:33:25.145Z",
      "stateName": "Paraná",
      "countryName": "Brazil"
    },
    {
      "id": 14726,
      "stateId": 96,
      "name": "Goirle",
      "latitude": null,
      "longitude": null,
      "createdAt": "2025-12-28T19:47:38.602Z",
      "updatedAt": "2025-12-28T19:47:38.602Z",
      "stateName": "North Brabant",
      "countryName": "Netherlands"
    },
    {
      "id": 11561,
      "stateId": 46,
      "name": "Golconda",
      "latitude": "37.8034989",
      "longitude": "-92.5169818",
      "createdAt": "2025-12-28T19:07:18.681Z",
      "updatedAt": "2025-12-28T19:07:18.681Z",
      "stateName": "Illinois",
      "countryName": "United States"
    },
    {
      "id": 5913,
      "stateId": 81,
      "name": "Gold Beach",
      "latitude": "37.8034989",
      "longitude": "-92.5169818",
      "createdAt": "2025-12-28T18:22:36.025Z",
      "updatedAt": "2025-12-28T18:22:36.025Z",
      "stateName": "Oregon",
      "countryName": "United States"
    },
    {
      "id": 1719,
      "stateId": 74,
      "name": "Gold Coast",
      "latitude": "-28.0002900",
      "longitude": "153.4308800",
      "createdAt": "2025-12-28T18:10:05.233Z",
      "updatedAt": "2025-12-28T18:10:05.233Z",
      "stateName": "Queensland",
      "countryName": "Australia"
    },
    {
      "id": 3970,
      "stateId": 27,
      "name": "Golden",
      "latitude": null,
      "longitude": null,
      "createdAt": "2025-12-28T18:15:45.449Z",
      "updatedAt": "2025-12-28T18:15:45.449Z",
      "stateName": "Colorado",
      "countryName": "United States"
    },
    {
      "id": 7118,
      "stateId": 26,
      "name": "Golden",
      "latitude": null,
      "longitude": null,
      "createdAt": "2025-12-28T18:28:16.197Z",
      "updatedAt": "2025-12-28T18:28:16.197Z",
      "stateName": "British Columbia",
      "countryName": "Canada"
    },
    {
      "id": 10740,
      "stateId": 42,
      "name": "Goldendale",
      "latitude": "37.8034989",
      "longitude": "-92.5169818",
      "createdAt": "2025-12-28T18:57:02.916Z",
      "updatedAt": "2025-12-28T18:57:02.916Z",
      "stateName": "Washington",
      "countryName": "United States"
    },
    {
      "id": 6346,
      "stateId": 16,
      "name": "Golden Meadow",
      "latitude": "37.8034989",
      "longitude": "-92.5169818",
      "createdAt": "2025-12-28T18:24:50.486Z",
      "updatedAt": "2025-12-28T18:24:50.486Z",
      "stateName": "Louisiana",
      "countryName": "United States"
    },
    {
      "id": 4397,
      "stateId": 13,
      "name": "Golden Square",
      "latitude": "-33.9811915",
      "longitude": "144.8351072",
      "createdAt": "2025-12-28T18:17:22.263Z",
      "updatedAt": "2025-12-28T18:17:22.263Z",
      "stateName": "Victoria",
      "countryName": "Australia"
    },
    {
      "id": 10232,
      "stateId": 49,
      "name": "Golden Valley",
      "latitude": "45.0096900",
      "longitude": "-93.3491200",
      "createdAt": "2025-12-28T18:51:16.781Z",
      "updatedAt": "2025-12-28T18:51:16.781Z",
      "stateName": "Minnesota",
      "countryName": "United States"
    },
    {
      "id": 6728,
      "stateId": 75,
      "name": "Golden Valley",
      "latitude": "45.0096900",
      "longitude": "-93.3491200",
      "createdAt": "2025-12-28T18:26:50.902Z",
      "updatedAt": "2025-12-28T18:26:50.902Z",
      "stateName": "Arizona",
      "countryName": "United States"
    },
    {
      "id": 1979,
      "stateId": 15,
      "name": "Goldfield",
      "latitude": "37.8034989",
      "longitude": "-92.5169818",
      "createdAt": "2025-12-28T18:10:35.823Z",
      "updatedAt": "2025-12-28T18:10:35.823Z",
      "stateName": "Nevada",
      "countryName": "United States"
    },
    {
      "id": 13061,
      "stateId": 81,
      "name": "Gold Hill",
      "latitude": "37.8034989",
      "longitude": "-92.5169818",
      "createdAt": "2025-12-28T19:20:31.288Z",
      "updatedAt": "2025-12-28T19:20:31.288Z",
      "stateName": "Oregon",
      "countryName": "United States"
    },
    {
      "id": 17679,
      "stateId": 55,
      "name": "Goldsboro",
      "latitude": "35.3848800",
      "longitude": "-77.9927700",
      "createdAt": "2026-02-06T03:30:39.677Z",
      "updatedAt": "2026-02-06T03:30:39.677Z",
      "stateName": "North Carolina",
      "countryName": "United States"
    },
    {
      "id": 11624,
      "stateId": 20,
      "name": "Goldsmith",
      "latitude": "37.8034989",
      "longitude": "-92.5169818",
      "createdAt": "2025-12-28T19:08:09.221Z",
      "updatedAt": "2025-12-28T19:08:09.221Z",
      "stateName": "Texas",
      "countryName": "United States"
    },
    {
      "id": 13081,
      "stateId": 20,
      "name": "Goldthwaite",
      "latitude": null,
      "longitude": null,
      "createdAt": "2025-12-28T19:20:36.723Z",
      "updatedAt": "2025-12-28T19:20:36.723Z",
      "stateName": "Texas",
      "countryName": "United States"
    },
    {
      "id": 5056,
      "stateId": 24,
      "name": "Goleta",
      "latitude": "34.4358300",
      "longitude": "-119.8276400",
      "createdAt": "2025-12-28T18:19:29.912Z",
      "updatedAt": "2025-12-28T18:19:29.912Z",
      "stateName": "California",
      "countryName": "United States"
    },
    {
      "id": 12673,
      "stateId": 1219,
      "name": "Goltry",
      "latitude": "37.8034989",
      "longitude": "-92.5169818",
      "createdAt": "2025-12-28T19:17:24.399Z",
      "updatedAt": "2025-12-28T19:17:24.399Z",
      "stateName": "Oklahama",
      "countryName": "United States"
    },
    {
      "id": 3321,
      "stateId": 77,
      "name": "Gombe",
      "latitude": null,
      "longitude": null,
      "createdAt": "2025-12-28T18:14:13.264Z",
      "updatedAt": "2025-12-28T18:14:13.264Z",
      "stateName": "Katsina State",
      "countryName": "Nigeria"
    },
    {
      "id": 4353,
      "stateId": 539,
      "name": "Gomez Palacio",
      "latitude": "25.5698500",
      "longitude": "-103.4958800",
      "createdAt": "2025-12-28T18:17:10.761Z",
      "updatedAt": "2025-12-28T18:17:10.761Z",
      "stateName": "Durango",
      "countryName": "Mexico"
    }
  ],
  "meta": {
    "page": 61,
    "limit": 100,
    "total": 18002,
    "totalPages": 181
  }
}
