{
  "source": "50k-radio-stations",
  "provider": "rapidapi",
  "syncedAt": "2026-06-03T13:04:32.967Z",
  "endpoint": "/cities",
  "page": 40,
  "limit": 250,
  "data": [
    {
      "id": 8811,
      "stateId": 262,
      "name": "Conde",
      "latitude": null,
      "longitude": null,
      "createdAt": "2025-12-28T18:40:27.203Z",
      "updatedAt": "2025-12-28T18:40:27.203Z",
      "stateName": "Bahia",
      "countryName": "Brazil"
    },
    {
      "id": 8237,
      "stateId": 374,
      "name": "Condeixa-a-Nova",
      "latitude": "39.5232529",
      "longitude": "-8.9987995",
      "createdAt": "2025-12-28T18:36:34.495Z",
      "updatedAt": "2025-12-28T18:36:34.495Z",
      "stateName": "Centro",
      "countryName": "Portugal"
    },
    {
      "id": 17925,
      "stateId": 512,
      "name": "Condé-sur-l'Escaut",
      "latitude": null,
      "longitude": null,
      "createdAt": "2026-03-15T09:41:37.853Z",
      "updatedAt": "2026-03-15T09:41:37.853Z",
      "stateName": "Nord",
      "countryName": "France"
    },
    {
      "id": 17863,
      "stateId": 205,
      "name": "Condor",
      "latitude": null,
      "longitude": null,
      "createdAt": "2026-03-10T07:03:50.668Z",
      "updatedAt": "2026-03-10T07:03:50.668Z",
      "stateName": "Rio Grande do Sul",
      "countryName": "Brazil"
    },
    {
      "id": 17255,
      "stateId": 265,
      "name": "Conegliano",
      "latitude": "45.8824600",
      "longitude": "12.2964500",
      "createdAt": "2025-12-29T16:13:35.101Z",
      "updatedAt": "2025-12-29T16:13:35.101Z",
      "stateName": "Veneto",
      "countryName": "Italy"
    },
    {
      "id": 17580,
      "stateId": 95,
      "name": "Confins",
      "latitude": null,
      "longitude": null,
      "createdAt": "2026-01-23T12:01:06.067Z",
      "updatedAt": "2026-01-23T12:01:06.067Z",
      "stateName": "Minas Gerais",
      "countryName": "Brazil"
    },
    {
      "id": 15873,
      "stateId": 85,
      "name": "Confresa",
      "latitude": "-17.4339069",
      "longitude": "-45.8426650",
      "createdAt": "2025-12-28T20:21:13.633Z",
      "updatedAt": "2025-12-28T20:21:13.633Z",
      "stateName": "Mato Grosso",
      "countryName": "Brazil"
    },
    {
      "id": 17350,
      "stateId": 287,
      "name": "Congo",
      "latitude": null,
      "longitude": null,
      "createdAt": "2025-12-29T20:00:30.729Z",
      "updatedAt": "2025-12-29T20:00:30.729Z",
      "stateName": "Paraíba",
      "countryName": "Brazil"
    },
    {
      "id": 17804,
      "stateId": 95,
      "name": "Congonhal",
      "latitude": null,
      "longitude": null,
      "createdAt": "2026-03-02T23:20:45.366Z",
      "updatedAt": "2026-03-02T23:20:45.366Z",
      "stateName": "Minas Gerais",
      "countryName": "Brazil"
    },
    {
      "id": 2260,
      "stateId": 95,
      "name": "Congonhas",
      "latitude": "-20.5052500",
      "longitude": "-43.8588000",
      "createdAt": "2025-12-28T18:11:27.203Z",
      "updatedAt": "2025-12-28T18:11:27.203Z",
      "stateName": "Minas Gerais",
      "countryName": "Brazil"
    },
    {
      "id": 12682,
      "stateId": 6,
      "name": "Conklin",
      "latitude": "37.8034989",
      "longitude": "-92.5169818",
      "createdAt": "2025-12-28T19:17:28.378Z",
      "updatedAt": "2025-12-28T19:17:28.378Z",
      "stateName": "New York",
      "countryName": "United States"
    },
    {
      "id": 11319,
      "stateId": 68,
      "name": "Connellsville",
      "latitude": "37.8034989",
      "longitude": "-92.5169818",
      "createdAt": "2025-12-28T19:04:22.433Z",
      "updatedAt": "2025-12-28T19:04:22.433Z",
      "stateName": "Pennsylvania",
      "countryName": "United States"
    },
    {
      "id": 5541,
      "stateId": 483,
      "name": "Connerré",
      "latitude": null,
      "longitude": null,
      "createdAt": "2025-12-28T18:21:15.984Z",
      "updatedAt": "2025-12-28T18:21:15.984Z",
      "stateName": "Pays de la Loire",
      "countryName": "France"
    },
    {
      "id": 16603,
      "stateId": 51,
      "name": "Connersville",
      "latitude": "37.8034989",
      "longitude": "-92.5169818",
      "createdAt": "2025-12-28T20:47:43.743Z",
      "updatedAt": "2025-12-28T20:47:43.743Z",
      "stateName": "Indiana",
      "countryName": "United States"
    },
    {
      "id": 6086,
      "stateId": 20,
      "name": "Conroe",
      "latitude": "30.3118800",
      "longitude": "-95.4560500",
      "createdAt": "2025-12-28T18:23:13.940Z",
      "updatedAt": "2025-12-28T18:23:13.940Z",
      "stateName": "Texas",
      "countryName": "United States"
    },
    {
      "id": 17707,
      "stateId": 354,
      "name": "Consaca",
      "latitude": null,
      "longitude": null,
      "createdAt": "2026-02-09T23:23:29.805Z",
      "updatedAt": "2026-02-09T23:23:29.805Z",
      "stateName": "Narino",
      "countryName": "Colombia"
    },
    {
      "id": 2265,
      "stateId": 95,
      "name": "Conselheiro Lafaiete",
      "latitude": null,
      "longitude": null,
      "createdAt": "2025-12-28T18:11:28.554Z",
      "updatedAt": "2025-12-28T18:11:28.554Z",
      "stateName": "Minas Gerais",
      "countryName": "Brazil"
    },
    {
      "id": 17519,
      "stateId": 95,
      "name": "Conselheiro Pena",
      "latitude": null,
      "longitude": null,
      "createdAt": "2026-01-20T07:40:12.490Z",
      "updatedAt": "2026-01-20T07:40:12.490Z",
      "stateName": "Minas Gerais",
      "countryName": "Brazil"
    },
    {
      "id": 17164,
      "stateId": 2,
      "name": "Consett",
      "latitude": null,
      "longitude": null,
      "createdAt": "2025-12-29T15:44:25.196Z",
      "updatedAt": "2025-12-29T15:44:25.196Z",
      "stateName": "England",
      "countryName": "United Kingdom"
    },
    {
      "id": 4210,
      "stateId": 205,
      "name": "Constantina ",
      "latitude": null,
      "longitude": null,
      "createdAt": "2025-12-28T18:16:38.396Z",
      "updatedAt": "2025-12-28T18:16:38.396Z",
      "stateName": "Rio Grande do Sul",
      "countryName": "Brazil"
    },
    {
      "id": 9155,
      "stateId": 95,
      "name": "Contagem",
      "latitude": "-19.9316700",
      "longitude": "-44.0536100",
      "createdAt": "2025-12-28T18:41:55.465Z",
      "updatedAt": "2025-12-28T18:41:55.465Z",
      "stateName": "Minas Gerais",
      "countryName": "Brazil"
    },
    {
      "id": 11907,
      "stateId": 319,
      "name": "Contratación",
      "latitude": null,
      "longitude": null,
      "createdAt": "2025-12-28T19:10:39.876Z",
      "updatedAt": "2025-12-28T19:10:39.876Z",
      "stateName": "Santander",
      "countryName": "Colombia"
    },
    {
      "id": 638,
      "stateId": 306,
      "name": "Conversano",
      "latitude": "40.9683600",
      "longitude": "17.1132900",
      "createdAt": "2025-12-28T17:01:15.773Z",
      "updatedAt": "2025-12-28T17:01:15.773Z",
      "stateName": "Apulia",
      "countryName": "Italy"
    },
    {
      "id": 13200,
      "stateId": 20,
      "name": "Converse",
      "latitude": null,
      "longitude": null,
      "createdAt": "2025-12-28T19:21:29.686Z",
      "updatedAt": "2025-12-28T19:21:29.686Z",
      "stateName": "Texas",
      "countryName": "United States"
    },
    {
      "id": 5097,
      "stateId": 32,
      "name": "Conway",
      "latitude": "35.0887000",
      "longitude": "-92.4421000",
      "createdAt": "2025-12-28T18:19:33.558Z",
      "updatedAt": "2025-12-28T18:19:33.558Z",
      "stateName": "Arkansas",
      "countryName": "United States"
    },
    {
      "id": 9969,
      "stateId": 145,
      "name": "Conway",
      "latitude": "33.8360000",
      "longitude": "-79.0478100",
      "createdAt": "2025-12-28T18:49:17.484Z",
      "updatedAt": "2025-12-28T18:49:17.484Z",
      "stateName": "South Carolina",
      "countryName": "United States"
    },
    {
      "id": 2072,
      "stateId": 114,
      "name": "Conway",
      "latitude": "37.8034989",
      "longitude": "-92.5169818",
      "createdAt": "2025-12-28T18:10:47.557Z",
      "updatedAt": "2025-12-28T18:10:47.557Z",
      "stateName": "New Hampshire",
      "countryName": "United States"
    },
    {
      "id": 15716,
      "stateId": 82,
      "name": "Conwy",
      "latitude": null,
      "longitude": null,
      "createdAt": "2025-12-28T20:16:16.901Z",
      "updatedAt": "2025-12-28T20:16:16.901Z",
      "stateName": "Wales",
      "countryName": "United Kingdom"
    },
    {
      "id": 7284,
      "stateId": 22,
      "name": "Conyers",
      "latitude": "33.6676100",
      "longitude": "-84.0176900",
      "createdAt": "2025-12-28T18:29:20.367Z",
      "updatedAt": "2025-12-28T18:29:20.367Z",
      "stateName": "Georgia",
      "countryName": "United States"
    },
    {
      "id": 3471,
      "stateId": 49,
      "name": "Cook",
      "latitude": "37.8034989",
      "longitude": "-92.5169818",
      "createdAt": "2025-12-28T18:14:28.277Z",
      "updatedAt": "2025-12-28T18:14:28.277Z",
      "stateName": "Minnesota",
      "countryName": "United States"
    },
    {
      "id": 228,
      "stateId": 21,
      "name": "Cookeville",
      "latitude": "36.1628400",
      "longitude": "-85.5016400",
      "createdAt": "2025-12-28T16:56:36.860Z",
      "updatedAt": "2025-12-28T16:56:36.860Z",
      "stateName": "Tennessee",
      "countryName": "United States"
    },
    {
      "id": 17556,
      "stateId": 471,
      "name": "Cookhouse",
      "latitude": null,
      "longitude": null,
      "createdAt": "2026-01-21T23:13:56.302Z",
      "updatedAt": "2026-01-21T23:13:56.302Z",
      "stateName": "Eastern Cape",
      "countryName": "South Africa"
    },
    {
      "id": 5962,
      "stateId": 74,
      "name": "Cooktown",
      "latitude": null,
      "longitude": null,
      "createdAt": "2025-12-28T18:22:44.211Z",
      "updatedAt": "2025-12-28T18:22:44.211Z",
      "stateName": "Queensland",
      "countryName": "Australia"
    },
    {
      "id": 4433,
      "stateId": 19,
      "name": "Cooma",
      "latitude": "-33.9811915",
      "longitude": "144.8351072",
      "createdAt": "2025-12-28T18:17:32.265Z",
      "updatedAt": "2025-12-28T18:17:32.265Z",
      "stateName": "New South Wales",
      "countryName": "Australia"
    },
    {
      "id": 13970,
      "stateId": 19,
      "name": "Coonamble",
      "latitude": null,
      "longitude": null,
      "createdAt": "2025-12-28T19:35:47.018Z",
      "updatedAt": "2025-12-28T19:35:47.018Z",
      "stateName": "New South Wales",
      "countryName": "Australia"
    },
    {
      "id": 13208,
      "stateId": 49,
      "name": "Coon Rapids",
      "latitude": "45.1199700",
      "longitude": "-93.2877300",
      "createdAt": "2025-12-28T19:21:34.142Z",
      "updatedAt": "2025-12-28T19:21:34.142Z",
      "stateName": "Minnesota",
      "countryName": "United States"
    },
    {
      "id": 2567,
      "stateId": 33,
      "name": "Cooper City",
      "latitude": null,
      "longitude": null,
      "createdAt": "2025-12-28T18:12:25.425Z",
      "updatedAt": "2025-12-28T18:12:25.425Z",
      "stateName": "Florida",
      "countryName": "United States"
    },
    {
      "id": 9043,
      "stateId": 6,
      "name": "Cooperstown",
      "latitude": "37.8034989",
      "longitude": "-92.5169818",
      "createdAt": "2025-12-28T18:41:39.104Z",
      "updatedAt": "2025-12-28T18:41:39.104Z",
      "stateName": "New York",
      "countryName": "United States"
    },
    {
      "id": 16737,
      "stateId": 68,
      "name": "Cooperstown",
      "latitude": "37.8034989",
      "longitude": "-92.5169818",
      "createdAt": "2025-12-28T20:51:00.936Z",
      "updatedAt": "2025-12-28T20:51:00.936Z",
      "stateName": "Pennsylvania",
      "countryName": "United States"
    },
    {
      "id": 11284,
      "stateId": 92,
      "name": "Coopersville",
      "latitude": "37.8034989",
      "longitude": "-92.5169818",
      "createdAt": "2025-12-28T19:03:45.245Z",
      "updatedAt": "2025-12-28T19:03:45.245Z",
      "stateName": "Michigan",
      "countryName": "United States"
    },
    {
      "id": 13773,
      "stateId": 74,
      "name": "Coorparoo",
      "latitude": "-33.9811915",
      "longitude": "144.8351072",
      "createdAt": "2025-12-28T19:31:35.786Z",
      "updatedAt": "2025-12-28T19:31:35.786Z",
      "stateName": "Queensland",
      "countryName": "Australia"
    },
    {
      "id": 15700,
      "stateId": 22,
      "name": "Coosa",
      "latitude": null,
      "longitude": null,
      "createdAt": "2025-12-28T20:15:34.555Z",
      "updatedAt": "2025-12-28T20:15:34.555Z",
      "stateName": "Georgia",
      "countryName": "United States"
    },
    {
      "id": 17847,
      "stateId": 122,
      "name": "Coosada",
      "latitude": null,
      "longitude": null,
      "createdAt": "2026-03-07T15:21:42.494Z",
      "updatedAt": "2026-03-07T15:21:42.494Z",
      "stateName": "Alabama",
      "countryName": "United States"
    },
    {
      "id": 4824,
      "stateId": 81,
      "name": "Coos Bay",
      "latitude": "43.3665000",
      "longitude": "-124.2178900",
      "createdAt": "2025-12-28T18:18:46.879Z",
      "updatedAt": "2025-12-28T18:18:46.879Z",
      "stateName": "Oregon",
      "countryName": "United States"
    },
    {
      "id": 15070,
      "stateId": 317,
      "name": "Copan",
      "latitude": null,
      "longitude": null,
      "createdAt": "2025-12-28T19:54:08.778Z",
      "updatedAt": "2025-12-28T19:54:08.778Z",
      "stateName": "Copan",
      "countryName": "Honduras"
    },
    {
      "id": 12712,
      "stateId": 31,
      "name": "Copeland",
      "latitude": "37.8034989",
      "longitude": "-92.5169818",
      "createdAt": "2025-12-28T19:17:43.167Z",
      "updatedAt": "2025-12-28T19:17:43.167Z",
      "stateName": "Kansas",
      "countryName": "United States"
    },
    {
      "id": 5696,
      "stateId": 6,
      "name": "Copenhagen",
      "latitude": "55.6759400",
      "longitude": "12.5655300",
      "createdAt": "2025-12-28T18:21:55.871Z",
      "updatedAt": "2025-12-28T18:21:55.871Z",
      "stateName": "New York",
      "countryName": "United States"
    },
    {
      "id": 1626,
      "stateId": 306,
      "name": "Copertino",
      "latitude": "40.2682100",
      "longitude": "18.0543000",
      "createdAt": "2025-12-28T18:01:41.066Z",
      "updatedAt": "2025-12-28T18:01:41.066Z",
      "stateName": "Apulia",
      "countryName": "Italy"
    },
    {
      "id": 274,
      "stateId": 20,
      "name": "Copperas Cove",
      "latitude": "31.1240600",
      "longitude": "-97.9030800",
      "createdAt": "2025-12-28T16:56:39.760Z",
      "updatedAt": "2025-12-28T16:56:39.760Z",
      "stateName": "Texas",
      "countryName": "United States"
    },
    {
      "id": 9779,
      "stateId": 24,
      "name": "Copperopolis",
      "latitude": "37.8034989",
      "longitude": "-92.5169818",
      "createdAt": "2025-12-28T18:47:13.555Z",
      "updatedAt": "2025-12-28T18:47:13.555Z",
      "stateName": "California",
      "countryName": "United States"
    },
    {
      "id": 15781,
      "stateId": 95,
      "name": "Coqueiral",
      "latitude": null,
      "longitude": null,
      "createdAt": "2025-12-28T20:19:18.028Z",
      "updatedAt": "2025-12-28T20:19:18.028Z",
      "stateName": "Minas Gerais",
      "countryName": "Brazil"
    },
    {
      "id": 13181,
      "stateId": 81,
      "name": "Coquille",
      "latitude": "37.8034989",
      "longitude": "-92.5169818",
      "createdAt": "2025-12-28T19:21:16.707Z",
      "updatedAt": "2025-12-28T19:21:16.707Z",
      "stateName": "Oregon",
      "countryName": "United States"
    },
    {
      "id": 12310,
      "stateId": 154,
      "name": "Cora",
      "latitude": null,
      "longitude": null,
      "createdAt": "2025-12-28T19:15:14.385Z",
      "updatedAt": "2025-12-28T19:15:14.385Z",
      "stateName": "Wyoming",
      "countryName": "United States"
    },
    {
      "id": 4060,
      "stateId": 4,
      "name": "Coracao",
      "latitude": "-17.4339069",
      "longitude": "-45.8426650",
      "createdAt": "2025-12-28T18:16:06.753Z",
      "updatedAt": "2025-12-28T18:16:06.753Z",
      "stateName": "São Paulo",
      "countryName": "Brazil"
    },
    {
      "id": 10553,
      "stateId": 95,
      "name": "Coração de Jesus",
      "latitude": null,
      "longitude": null,
      "createdAt": "2025-12-28T18:54:44.493Z",
      "updatedAt": "2025-12-28T18:54:44.493Z",
      "stateName": "Minas Gerais",
      "countryName": "Brazil"
    },
    {
      "id": 4434,
      "stateId": 19,
      "name": "Coraki",
      "latitude": "-33.9811915",
      "longitude": "144.8351072",
      "createdAt": "2025-12-28T18:17:32.413Z",
      "updatedAt": "2025-12-28T18:17:32.413Z",
      "stateName": "New South Wales",
      "countryName": "Australia"
    },
    {
      "id": 16786,
      "stateId": 33,
      "name": "Coral Cove",
      "latitude": null,
      "longitude": null,
      "createdAt": "2025-12-28T20:51:57.174Z",
      "updatedAt": "2025-12-28T20:51:57.174Z",
      "stateName": "Florida",
      "countryName": "United States"
    },
    {
      "id": 2277,
      "stateId": 33,
      "name": "Coral Gables",
      "latitude": "25.7214900",
      "longitude": "-80.2683800",
      "createdAt": "2025-12-28T18:11:31.514Z",
      "updatedAt": "2025-12-28T18:11:31.514Z",
      "stateName": "Florida",
      "countryName": "United States"
    },
    {
      "id": 13729,
      "stateId": 33,
      "name": "Coral Springs",
      "latitude": "26.2711900",
      "longitude": "-80.2706000",
      "createdAt": "2025-12-28T19:30:26.365Z",
      "updatedAt": "2025-12-28T19:30:26.365Z",
      "stateName": "Florida",
      "countryName": "United States"
    },
    {
      "id": 11122,
      "stateId": 113,
      "name": "Coralville",
      "latitude": "41.6764000",
      "longitude": "-91.5804500",
      "createdAt": "2025-12-28T19:01:13.148Z",
      "updatedAt": "2025-12-28T19:01:13.148Z",
      "stateName": "Iowa",
      "countryName": "United States"
    },
    {
      "id": 3784,
      "stateId": 306,
      "name": "Corato",
      "latitude": "41.1427300",
      "longitude": "16.4065200",
      "createdAt": "2025-12-28T18:15:14.529Z",
      "updatedAt": "2025-12-28T18:15:14.529Z",
      "stateName": "Apulia",
      "countryName": "Italy"
    },
    {
      "id": 17454,
      "stateId": 137,
      "name": "Corbélia",
      "latitude": null,
      "longitude": null,
      "createdAt": "2026-01-11T20:33:53.773Z",
      "updatedAt": "2026-01-11T20:33:53.773Z",
      "stateName": "Paraná",
      "countryName": "Brazil"
    },
    {
      "id": 8588,
      "stateId": 2,
      "name": "Corby",
      "latitude": null,
      "longitude": null,
      "createdAt": "2025-12-28T18:39:20.507Z",
      "updatedAt": "2025-12-28T18:39:20.507Z",
      "stateName": "England",
      "countryName": "United Kingdom"
    },
    {
      "id": 6047,
      "stateId": 24,
      "name": "Corcoran",
      "latitude": "36.0980100",
      "longitude": "-119.5604000",
      "createdAt": "2025-12-28T18:23:08.655Z",
      "updatedAt": "2025-12-28T18:23:08.655Z",
      "stateName": "California",
      "countryName": "United States"
    },
    {
      "id": 14082,
      "stateId": 193,
      "name": "Corcubión",
      "latitude": "39.2717249",
      "longitude": "-3.2471696",
      "createdAt": "2025-12-28T19:38:48.838Z",
      "updatedAt": "2025-12-28T19:38:48.838Z",
      "stateName": "Galicia",
      "countryName": "Spain"
    },
    {
      "id": 2252,
      "stateId": 134,
      "name": "Cordeiro",
      "latitude": null,
      "longitude": null,
      "createdAt": "2025-12-28T18:11:25.374Z",
      "updatedAt": "2025-12-28T18:11:25.374Z",
      "stateName": "Rio de Janeiro",
      "countryName": "Brazil"
    },
    {
      "id": 11615,
      "stateId": 4,
      "name": "Cordeiropolis",
      "latitude": "-17.4339069",
      "longitude": "-45.8426650",
      "createdAt": "2025-12-28T19:08:05.002Z",
      "updatedAt": "2025-12-28T19:08:05.002Z",
      "stateName": "São Paulo",
      "countryName": "Brazil"
    },
    {
      "id": 13279,
      "stateId": 24,
      "name": "Cordelia",
      "latitude": "37.8034989",
      "longitude": "-92.5169818",
      "createdAt": "2025-12-28T19:22:35.708Z",
      "updatedAt": "2025-12-28T19:22:35.708Z",
      "stateName": "California",
      "countryName": "United States"
    },
    {
      "id": 5608,
      "stateId": 75,
      "name": "Cordes Lakes",
      "latitude": "37.8034989",
      "longitude": "-92.5169818",
      "createdAt": "2025-12-28T18:21:39.093Z",
      "updatedAt": "2025-12-28T18:21:39.093Z",
      "stateName": "Arizona",
      "countryName": "United States"
    },
    {
      "id": 17472,
      "stateId": 95,
      "name": "Cordisburgo",
      "latitude": null,
      "longitude": null,
      "createdAt": "2026-01-12T22:24:37.736Z",
      "updatedAt": "2026-01-12T22:24:37.736Z",
      "stateName": "Minas Gerais",
      "countryName": "Brazil"
    },
    {
      "id": 491,
      "stateId": 147,
      "name": "Cordoba",
      "latitude": "-31.4135000",
      "longitude": "-64.1810500",
      "createdAt": "2025-12-28T17:00:53.991Z",
      "updatedAt": "2025-12-28T17:00:53.991Z",
      "stateName": "Cordoba",
      "countryName": "Argentina"
    },
    {
      "id": 1473,
      "stateId": 354,
      "name": "Cordoba",
      "latitude": "6.4444434",
      "longitude": "-74.9549521",
      "createdAt": "2025-12-28T17:04:33.735Z",
      "updatedAt": "2025-12-28T17:04:33.735Z",
      "stateName": "Narino",
      "countryName": "Colombia"
    },
    {
      "id": 4994,
      "stateId": 190,
      "name": "Cordoba",
      "latitude": "18.8858400",
      "longitude": "-96.9312500",
      "createdAt": "2025-12-28T18:19:21.571Z",
      "updatedAt": "2025-12-28T18:19:21.571Z",
      "stateName": "Veracruz",
      "countryName": "Mexico"
    },
    {
      "id": 17568,
      "stateId": 363,
      "name": "Córdoba",
      "latitude": null,
      "longitude": null,
      "createdAt": "2026-01-23T05:20:17.907Z",
      "updatedAt": "2026-01-23T05:20:17.907Z",
      "stateName": "Quindio",
      "countryName": "Colombia"
    },
    {
      "id": 2556,
      "stateId": 607,
      "name": "Córdoba",
      "latitude": "39.2717249",
      "longitude": "-3.2471696",
      "createdAt": "2025-12-28T18:12:24.144Z",
      "updatedAt": "2025-12-28T18:12:24.144Z",
      "stateName": "Córdoba",
      "countryName": "Spain"
    },
    {
      "id": 16893,
      "stateId": 122,
      "name": "Cordova",
      "latitude": "37.8034989",
      "longitude": "-92.5169818",
      "createdAt": "2025-12-28T20:54:39.685Z",
      "updatedAt": "2025-12-28T20:54:39.685Z",
      "stateName": "Alabama",
      "countryName": "United States"
    },
    {
      "id": 6559,
      "stateId": 231,
      "name": "Coreaú",
      "latitude": "-17.4339069",
      "longitude": "-45.8426650",
      "createdAt": "2025-12-28T18:25:52.360Z",
      "updatedAt": "2025-12-28T18:25:52.360Z",
      "stateName": "Ceará",
      "countryName": "Brazil"
    },
    {
      "id": 18074,
      "stateId": 287,
      "name": "Coremas",
      "latitude": null,
      "longitude": null,
      "createdAt": "2026-03-30T19:13:28.239Z",
      "updatedAt": "2026-03-30T19:13:28.239Z",
      "stateName": "Paraíba",
      "countryName": "Brazil"
    },
    {
      "id": 478,
      "stateId": 228,
      "name": "Corfu",
      "latitude": "38.6555720",
      "longitude": "23.4057215",
      "createdAt": "2025-12-28T17:00:52.506Z",
      "updatedAt": "2025-12-28T17:00:52.506Z",
      "stateName": "Corfu",
      "countryName": "Greece"
    },
    {
      "id": 16711,
      "stateId": 6,
      "name": "Corfu",
      "latitude": "37.8034989",
      "longitude": "-92.5169818",
      "createdAt": "2025-12-28T20:50:29.510Z",
      "updatedAt": "2025-12-28T20:50:29.510Z",
      "stateName": "New York",
      "countryName": "United States"
    },
    {
      "id": 289,
      "stateId": 149,
      "name": "Corfu",
      "latitude": "38.6555720",
      "longitude": "23.4057215",
      "createdAt": "2025-12-28T16:56:41.030Z",
      "updatedAt": "2025-12-28T16:56:41.030Z",
      "stateName": "Ionian Islands",
      "countryName": "Greece"
    },
    {
      "id": 446,
      "stateId": 143,
      "name": "Corinth",
      "latitude": "33.1540100",
      "longitude": "-97.0647300",
      "createdAt": "2025-12-28T17:00:50.688Z",
      "updatedAt": "2025-12-28T17:00:50.688Z",
      "stateName": "Peloponnese",
      "countryName": "Greece"
    },
    {
      "id": 16884,
      "stateId": 138,
      "name": "Corinth",
      "latitude": null,
      "longitude": null,
      "createdAt": "2025-12-28T20:54:27.609Z",
      "updatedAt": "2025-12-28T20:54:27.609Z",
      "stateName": "Maine",
      "countryName": "United States"
    },
    {
      "id": 1188,
      "stateId": 401,
      "name": "Corinth",
      "latitude": "33.1540100",
      "longitude": "-97.0647300",
      "createdAt": "2025-12-28T17:03:16.740Z",
      "updatedAt": "2025-12-28T17:03:16.740Z",
      "stateName": "Mississippi",
      "countryName": "United States"
    },
    {
      "id": 6903,
      "stateId": 95,
      "name": "Corinto",
      "latitude": "-18.3808300",
      "longitude": "-44.4563900",
      "createdAt": "2025-12-28T18:27:30.842Z",
      "updatedAt": "2025-12-28T18:27:30.842Z",
      "stateName": "Minas Gerais",
      "countryName": "Brazil"
    },
    {
      "id": 17662,
      "stateId": 364,
      "name": "Corinto",
      "latitude": null,
      "longitude": null,
      "createdAt": "2026-02-03T00:44:06.850Z",
      "updatedAt": "2026-02-03T00:44:06.850Z",
      "stateName": "Cauca",
      "countryName": "Colombia"
    },
    {
      "id": 13451,
      "stateId": 204,
      "name": "Corire",
      "latitude": null,
      "longitude": null,
      "createdAt": "2025-12-28T19:25:21.284Z",
      "updatedAt": "2025-12-28T19:25:21.284Z",
      "stateName": "Arequipa",
      "countryName": "Peru"
    },
    {
      "id": 2251,
      "stateId": 575,
      "name": "Cork",
      "latitude": "51.8979700",
      "longitude": "-8.4706100",
      "createdAt": "2025-12-28T18:11:25.237Z",
      "updatedAt": "2025-12-28T18:11:25.237Z",
      "stateName": "Cork County",
      "countryName": "Ireland"
    },
    {
      "id": 5866,
      "stateId": 22,
      "name": "Cornelia",
      "latitude": "37.8034989",
      "longitude": "-92.5169818",
      "createdAt": "2025-12-28T18:22:31.000Z",
      "updatedAt": "2025-12-28T18:22:31.000Z",
      "stateName": "Georgia",
      "countryName": "United States"
    },
    {
      "id": 4860,
      "stateId": 137,
      "name": "Cornelio Procopio",
      "latitude": "-17.4339069",
      "longitude": "-45.8426650",
      "createdAt": "2025-12-28T18:18:54.266Z",
      "updatedAt": "2025-12-28T18:18:54.266Z",
      "stateName": "Paraná",
      "countryName": "Brazil"
    },
    {
      "id": 9756,
      "stateId": 8,
      "name": "Cornell",
      "latitude": "41.3500000",
      "longitude": "2.0833300",
      "createdAt": "2025-12-28T18:47:03.868Z",
      "updatedAt": "2025-12-28T18:47:03.868Z",
      "stateName": "Wisconsin",
      "countryName": "United States"
    },
    {
      "id": 4706,
      "stateId": 360,
      "name": "Corner Brook",
      "latitude": "48.9500100",
      "longitude": "-57.9520200",
      "createdAt": "2025-12-28T18:18:31.092Z",
      "updatedAt": "2025-12-28T18:18:31.092Z",
      "stateName": "Newfoundland and Labrador",
      "countryName": "Canada"
    },
    {
      "id": 13195,
      "stateId": 24,
      "name": "Corning",
      "latitude": "37.8034989",
      "longitude": "-92.5169818",
      "createdAt": "2025-12-28T19:21:28.478Z",
      "updatedAt": "2025-12-28T19:21:28.478Z",
      "stateName": "California",
      "countryName": "United States"
    },
    {
      "id": 10386,
      "stateId": 6,
      "name": "Corning",
      "latitude": "37.8034989",
      "longitude": "-92.5169818",
      "createdAt": "2025-12-28T18:52:46.822Z",
      "updatedAt": "2025-12-28T18:52:46.822Z",
      "stateName": "New York",
      "countryName": "United States"
    },
    {
      "id": 5634,
      "stateId": 41,
      "name": "Cornwall",
      "latitude": "45.0180900",
      "longitude": "-74.7281500",
      "createdAt": "2025-12-28T18:21:46.182Z",
      "updatedAt": "2025-12-28T18:21:46.182Z",
      "stateName": "Ontario",
      "countryName": "Canada"
    },
    {
      "id": 7191,
      "stateId": 674,
      "name": "Coro",
      "latitude": "11.4045000",
      "longitude": "-69.6734400",
      "createdAt": "2025-12-28T18:28:44.687Z",
      "updatedAt": "2025-12-28T18:28:44.687Z",
      "stateName": "Falcon",
      "countryName": "Venezuela"
    },
    {
      "id": 8824,
      "stateId": 335,
      "name": "Coroatá",
      "latitude": null,
      "longitude": null,
      "createdAt": "2025-12-28T18:40:33.196Z",
      "updatedAt": "2025-12-28T18:40:33.196Z",
      "stateName": "Maranhão",
      "countryName": "Brazil"
    },
    {
      "id": 16168,
      "stateId": 262,
      "name": "Coroa Vermelha",
      "latitude": null,
      "longitude": null,
      "createdAt": "2025-12-28T20:36:07.313Z",
      "updatedAt": "2025-12-28T20:36:07.313Z",
      "stateName": "Bahia",
      "countryName": "Brazil"
    },
    {
      "id": 5950,
      "stateId": 43,
      "name": "Coromandel",
      "latitude": null,
      "longitude": null,
      "createdAt": "2025-12-28T18:22:41.185Z",
      "updatedAt": "2025-12-28T18:22:41.185Z",
      "stateName": "Waikato",
      "countryName": "New Zealand"
    },
    {
      "id": 8079,
      "stateId": 95,
      "name": "Coromandel",
      "latitude": null,
      "longitude": null,
      "createdAt": "2025-12-28T18:35:07.974Z",
      "updatedAt": "2025-12-28T18:35:07.974Z",
      "stateName": "Minas Gerais",
      "countryName": "Brazil"
    }
  ],
  "meta": {
    "page": 40,
    "limit": 100,
    "total": 18002,
    "totalPages": 181
  }
}
