{
  "source": "50k-radio-stations",
  "provider": "rapidapi",
  "syncedAt": "2026-06-03T13:04:43.819Z",
  "endpoint": "/cities",
  "page": 53,
  "limit": 250,
  "data": [
    {
      "id": 1628,
      "stateId": 432,
      "name": "Essen",
      "latitude": "50.9385735",
      "longitude": "9.5583023",
      "createdAt": "2025-12-28T18:01:41.272Z",
      "updatedAt": "2025-12-28T18:01:41.272Z",
      "stateName": "North Rhine-Westphalia",
      "countryName": "Germany"
    },
    {
      "id": 17677,
      "stateId": 24,
      "name": "Essex",
      "latitude": "39.3092700",
      "longitude": "-76.4749600",
      "createdAt": "2026-02-05T03:36:29.898Z",
      "updatedAt": "2026-02-05T03:36:29.898Z",
      "stateName": "California",
      "countryName": "United States"
    },
    {
      "id": 3711,
      "stateId": 47,
      "name": "Essex",
      "latitude": "39.3092700",
      "longitude": "-76.4749600",
      "createdAt": "2025-12-28T18:15:03.360Z",
      "updatedAt": "2025-12-28T18:15:03.360Z",
      "stateName": "Massachusetts",
      "countryName": "United States"
    },
    {
      "id": 9032,
      "stateId": 6,
      "name": "Essex",
      "latitude": "39.3092700",
      "longitude": "-76.4749600",
      "createdAt": "2025-12-28T18:41:37.623Z",
      "updatedAt": "2025-12-28T18:41:37.623Z",
      "stateName": "New York",
      "countryName": "United States"
    },
    {
      "id": 9357,
      "stateId": 205,
      "name": "Estação",
      "latitude": null,
      "longitude": null,
      "createdAt": "2025-12-28T18:43:55.194Z",
      "updatedAt": "2025-12-28T18:43:55.194Z",
      "stateName": "Rio Grande do Sul",
      "countryName": "Brazil"
    },
    {
      "id": 9887,
      "stateId": 86,
      "name": "Estacion Clucellas",
      "latitude": null,
      "longitude": null,
      "createdAt": "2025-12-28T18:48:17.142Z",
      "updatedAt": "2025-12-28T18:48:17.142Z",
      "stateName": "Santa Fe",
      "countryName": "Argentina"
    },
    {
      "id": 2478,
      "stateId": 271,
      "name": "Estância",
      "latitude": null,
      "longitude": null,
      "createdAt": "2025-12-28T18:12:16.325Z",
      "updatedAt": "2025-12-28T18:12:16.325Z",
      "stateName": "Sergipe",
      "countryName": "Brazil"
    },
    {
      "id": 5122,
      "stateId": 205,
      "name": "Estância Velha",
      "latitude": null,
      "longitude": null,
      "createdAt": "2025-12-28T18:19:36.254Z",
      "updatedAt": "2025-12-28T18:19:36.254Z",
      "stateName": "Rio Grande do Sul",
      "countryName": "Brazil"
    },
    {
      "id": 2414,
      "stateId": 402,
      "name": "Estcourt",
      "latitude": null,
      "longitude": null,
      "createdAt": "2025-12-28T18:12:05.480Z",
      "updatedAt": "2025-12-28T18:12:05.480Z",
      "stateName": "KwaZulu-Natal Prov.",
      "countryName": "South Africa"
    },
    {
      "id": 8795,
      "stateId": 58,
      "name": "Esteban Echeverria",
      "latitude": null,
      "longitude": null,
      "createdAt": "2025-12-28T18:40:21.205Z",
      "updatedAt": "2025-12-28T18:40:21.205Z",
      "stateName": "Buenos Aires",
      "countryName": "Argentina"
    },
    {
      "id": 3501,
      "stateId": 127,
      "name": "Estepa",
      "latitude": "39.2717249",
      "longitude": "-3.2471696",
      "createdAt": "2025-12-28T18:14:40.504Z",
      "updatedAt": "2025-12-28T18:14:40.504Z",
      "stateName": "Andalusia",
      "countryName": "Spain"
    },
    {
      "id": 1126,
      "stateId": 118,
      "name": "Estepona",
      "latitude": "36.4276400",
      "longitude": "-5.1458900",
      "createdAt": "2025-12-28T17:03:11.367Z",
      "updatedAt": "2025-12-28T17:03:11.367Z",
      "stateName": "Málaga",
      "countryName": "Spain"
    },
    {
      "id": 12501,
      "stateId": 45,
      "name": "Ester",
      "latitude": "26.4381400",
      "longitude": "-81.8067500",
      "createdAt": "2025-12-28T19:16:12.219Z",
      "updatedAt": "2025-12-28T19:16:12.219Z",
      "stateName": "Alaska",
      "countryName": "United States"
    },
    {
      "id": 10065,
      "stateId": 33,
      "name": "Estero",
      "latitude": "26.4381400",
      "longitude": "-81.8067500",
      "createdAt": "2025-12-28T18:50:03.612Z",
      "updatedAt": "2025-12-28T18:50:03.612Z",
      "stateName": "Florida",
      "countryName": "United States"
    },
    {
      "id": 16920,
      "stateId": 664,
      "name": "Esteros",
      "latitude": "21.0459460",
      "longitude": "-100.0405298",
      "createdAt": "2025-12-28T20:55:49.860Z",
      "updatedAt": "2025-12-28T20:55:49.860Z",
      "stateName": "Tabasco",
      "countryName": "Mexico"
    },
    {
      "id": 9100,
      "stateId": 27,
      "name": "Estes Park",
      "latitude": "37.8034989",
      "longitude": "-92.5169818",
      "createdAt": "2025-12-28T18:41:50.976Z",
      "updatedAt": "2025-12-28T18:41:50.976Z",
      "stateName": "Colorado",
      "countryName": "United States"
    },
    {
      "id": 7043,
      "stateId": 467,
      "name": "Estevan",
      "latitude": "46.9909847",
      "longitude": "-87.5986915",
      "createdAt": "2025-12-28T18:27:55.522Z",
      "updatedAt": "2025-12-28T18:27:55.522Z",
      "stateName": "Saskatchewan",
      "countryName": "Canada"
    },
    {
      "id": 11678,
      "stateId": 113,
      "name": "Estherville",
      "latitude": "37.8034989",
      "longitude": "-92.5169818",
      "createdAt": "2025-12-28T19:08:36.103Z",
      "updatedAt": "2025-12-28T19:08:36.103Z",
      "stateName": "Iowa",
      "countryName": "United States"
    },
    {
      "id": 11922,
      "stateId": 1203,
      "name": "Estoril",
      "latitude": null,
      "longitude": null,
      "createdAt": "2025-12-28T19:10:41.618Z",
      "updatedAt": "2025-12-28T19:10:41.618Z",
      "stateName": "Cascais",
      "countryName": "Portugal"
    },
    {
      "id": 9360,
      "stateId": 193,
      "name": "Estrada",
      "latitude": "42.6891100",
      "longitude": "-8.4884200",
      "createdAt": "2025-12-28T18:43:56.895Z",
      "updatedAt": "2025-12-28T18:43:56.895Z",
      "stateName": "Galicia",
      "countryName": "Spain"
    },
    {
      "id": 8213,
      "stateId": 205,
      "name": "Estrela",
      "latitude": "-28.0611100",
      "longitude": "-50.9383300",
      "createdAt": "2025-12-28T18:36:27.235Z",
      "updatedAt": "2025-12-28T18:36:27.235Z",
      "stateName": "Rio Grande do Sul",
      "countryName": "Brazil"
    },
    {
      "id": 17889,
      "stateId": 678,
      "name": "Estremoz",
      "latitude": null,
      "longitude": null,
      "createdAt": "2026-03-11T10:05:05.718Z",
      "updatedAt": "2026-03-11T10:05:05.718Z",
      "stateName": "Alentejo",
      "countryName": "Portugal"
    },
    {
      "id": 9489,
      "stateId": 10,
      "name": "Étampes",
      "latitude": "48.4333300",
      "longitude": "2.1500000",
      "createdAt": "2025-12-28T18:44:28.865Z",
      "updatedAt": "2025-12-28T18:44:28.865Z",
      "stateName": "Île-de-France",
      "countryName": "France"
    },
    {
      "id": 9484,
      "stateId": 395,
      "name": "Ethan",
      "latitude": "37.8034989",
      "longitude": "-92.5169818",
      "createdAt": "2025-12-28T18:44:28.263Z",
      "updatedAt": "2025-12-28T18:44:28.263Z",
      "stateName": "South Dakota",
      "countryName": "United States"
    },
    {
      "id": 5262,
      "stateId": 154,
      "name": "Ethete",
      "latitude": "37.8034989",
      "longitude": "-92.5169818",
      "createdAt": "2025-12-28T18:20:15.946Z",
      "updatedAt": "2025-12-28T18:20:15.946Z",
      "stateName": "Wyoming",
      "countryName": "United States"
    },
    {
      "id": 9486,
      "stateId": 21,
      "name": "Etowah",
      "latitude": "37.8034989",
      "longitude": "-92.5169818",
      "createdAt": "2025-12-28T18:44:28.509Z",
      "updatedAt": "2025-12-28T18:44:28.509Z",
      "stateName": "Tennessee",
      "countryName": "United States"
    },
    {
      "id": 7345,
      "stateId": 147,
      "name": "Etruria",
      "latitude": "-32.1628172",
      "longitude": "-62.0921509",
      "createdAt": "2025-12-28T18:29:43.929Z",
      "updatedAt": "2025-12-28T18:29:43.929Z",
      "stateName": "Cordoba",
      "countryName": "Argentina"
    },
    {
      "id": 9491,
      "stateId": 213,
      "name": "Etten",
      "latitude": "52.0575321",
      "longitude": "5.3403480",
      "createdAt": "2025-12-28T18:44:29.022Z",
      "updatedAt": "2025-12-28T18:44:29.022Z",
      "stateName": "Gelderland",
      "countryName": "Netherlands"
    },
    {
      "id": 9490,
      "stateId": 96,
      "name": "Etten-Leur",
      "latitude": null,
      "longitude": null,
      "createdAt": "2025-12-28T18:44:28.915Z",
      "updatedAt": "2025-12-28T18:44:28.915Z",
      "stateName": "North Brabant",
      "countryName": "Netherlands"
    },
    {
      "id": 9487,
      "stateId": 50,
      "name": "Ettrick",
      "latitude": "37.8034989",
      "longitude": "-92.5169818",
      "createdAt": "2025-12-28T18:44:28.617Z",
      "updatedAt": "2025-12-28T18:44:28.617Z",
      "stateName": "Virginia",
      "countryName": "United States"
    },
    {
      "id": 4077,
      "stateId": 14,
      "name": "Euclid",
      "latitude": null,
      "longitude": null,
      "createdAt": "2025-12-28T18:16:09.186Z",
      "updatedAt": "2025-12-28T18:16:09.186Z",
      "stateName": "Ohio",
      "countryName": "United States"
    },
    {
      "id": 2235,
      "stateId": 262,
      "name": "Euclides da Cunha",
      "latitude": "-10.5075000",
      "longitude": "-39.0158300",
      "createdAt": "2025-12-28T18:11:19.849Z",
      "updatedAt": "2025-12-28T18:11:19.849Z",
      "stateName": "Bahia",
      "countryName": "Brazil"
    },
    {
      "id": 9502,
      "stateId": 32,
      "name": "Eudora",
      "latitude": "37.8034989",
      "longitude": "-92.5169818",
      "createdAt": "2025-12-28T18:44:47.143Z",
      "updatedAt": "2025-12-28T18:44:47.143Z",
      "stateName": "Arkansas",
      "countryName": "United States"
    },
    {
      "id": 9501,
      "stateId": 122,
      "name": "Eufaula",
      "latitude": "37.8034989",
      "longitude": "-92.5169818",
      "createdAt": "2025-12-28T18:44:47.103Z",
      "updatedAt": "2025-12-28T18:44:47.103Z",
      "stateName": "Alabama",
      "countryName": "United States"
    },
    {
      "id": 3660,
      "stateId": 81,
      "name": "Eugene",
      "latitude": "44.0520700",
      "longitude": "-123.0867500",
      "createdAt": "2025-12-28T18:15:00.346Z",
      "updatedAt": "2025-12-28T18:15:00.346Z",
      "stateName": "Oregon",
      "countryName": "United States"
    },
    {
      "id": 9505,
      "stateId": 205,
      "name": "Eugênio de Castro",
      "latitude": null,
      "longitude": null,
      "createdAt": "2025-12-28T18:44:48.085Z",
      "updatedAt": "2025-12-28T18:44:48.085Z",
      "stateName": "Rio Grande do Sul",
      "countryName": "Brazil"
    },
    {
      "id": 9506,
      "stateId": 95,
      "name": "Eugenópolis",
      "latitude": null,
      "longitude": null,
      "createdAt": "2025-12-28T18:44:48.299Z",
      "updatedAt": "2025-12-28T18:44:48.299Z",
      "stateName": "Minas Gerais",
      "countryName": "Brazil"
    },
    {
      "id": 4205,
      "stateId": 262,
      "name": "Eunápolis",
      "latitude": "-17.4339069",
      "longitude": "-45.8426650",
      "createdAt": "2025-12-28T18:16:38.114Z",
      "updatedAt": "2025-12-28T18:16:38.114Z",
      "stateName": "Bahia",
      "countryName": "Brazil"
    },
    {
      "id": 5818,
      "stateId": 588,
      "name": "Eupen",
      "latitude": "50.6279000",
      "longitude": "6.0364700",
      "createdAt": "2025-12-28T18:22:24.585Z",
      "updatedAt": "2025-12-28T18:22:24.585Z",
      "stateName": "Liège",
      "countryName": "Belgium"
    },
    {
      "id": 9507,
      "stateId": 401,
      "name": "Eupora",
      "latitude": "37.8034989",
      "longitude": "-92.5169818",
      "createdAt": "2025-12-28T18:44:48.754Z",
      "updatedAt": "2025-12-28T18:44:48.754Z",
      "stateName": "Mississippi",
      "countryName": "United States"
    },
    {
      "id": 9504,
      "stateId": 153,
      "name": "Eureka",
      "latitude": "40.8020700",
      "longitude": "-124.1636700",
      "createdAt": "2025-12-28T18:44:47.724Z",
      "updatedAt": "2025-12-28T18:44:47.724Z",
      "stateName": "Montana",
      "countryName": "United States"
    },
    {
      "id": 245,
      "stateId": 46,
      "name": "Eureka",
      "latitude": "40.8020700",
      "longitude": "-124.1636700",
      "createdAt": "2025-12-28T16:56:38.409Z",
      "updatedAt": "2025-12-28T16:56:38.409Z",
      "stateName": "Illinois",
      "countryName": "United States"
    },
    {
      "id": 9497,
      "stateId": 31,
      "name": "Eureka",
      "latitude": "40.8020700",
      "longitude": "-124.1636700",
      "createdAt": "2025-12-28T18:44:45.201Z",
      "updatedAt": "2025-12-28T18:44:45.201Z",
      "stateName": "Kansas",
      "countryName": "United States"
    },
    {
      "id": 5300,
      "stateId": 24,
      "name": "Eureka",
      "latitude": "40.8020700",
      "longitude": "-124.1636700",
      "createdAt": "2025-12-28T18:20:20.760Z",
      "updatedAt": "2025-12-28T18:20:20.760Z",
      "stateName": "California",
      "countryName": "United States"
    },
    {
      "id": 7939,
      "stateId": 32,
      "name": "Eureka Springs",
      "latitude": "37.8034989",
      "longitude": "-92.5169818",
      "createdAt": "2025-12-28T18:33:09.057Z",
      "updatedAt": "2025-12-28T18:33:09.057Z",
      "stateName": "Arkansas",
      "countryName": "United States"
    },
    {
      "id": 4677,
      "stateId": 231,
      "name": "Eusébio",
      "latitude": "-3.8900000",
      "longitude": "-38.4505600",
      "createdAt": "2025-12-28T18:18:25.124Z",
      "updatedAt": "2025-12-28T18:18:25.124Z",
      "stateName": "Ceará",
      "countryName": "Brazil"
    },
    {
      "id": 7875,
      "stateId": 432,
      "name": "Euskirchen",
      "latitude": "50.6605700",
      "longitude": "6.7872200",
      "createdAt": "2025-12-28T18:32:50.912Z",
      "updatedAt": "2025-12-28T18:32:50.912Z",
      "stateName": "North Rhine-Westphalia",
      "countryName": "Germany"
    },
    {
      "id": 9503,
      "stateId": 33,
      "name": "Eustis",
      "latitude": "28.8527700",
      "longitude": "-81.6853500",
      "createdAt": "2025-12-28T18:44:47.198Z",
      "updatedAt": "2025-12-28T18:44:47.198Z",
      "stateName": "Florida",
      "countryName": "United States"
    },
    {
      "id": 9611,
      "stateId": 22,
      "name": "Evans",
      "latitude": "33.5337500",
      "longitude": "-82.1306700",
      "createdAt": "2025-12-28T18:45:36.712Z",
      "updatedAt": "2025-12-28T18:45:36.712Z",
      "stateName": "Georgia",
      "countryName": "United States"
    },
    {
      "id": 9606,
      "stateId": 113,
      "name": "Evansdale",
      "latitude": null,
      "longitude": null,
      "createdAt": "2025-12-28T18:45:35.172Z",
      "updatedAt": "2025-12-28T18:45:35.172Z",
      "stateName": "Iowa",
      "countryName": "United States"
    },
    {
      "id": 9609,
      "stateId": 154,
      "name": "Evanston",
      "latitude": "42.0411400",
      "longitude": "-87.6900600",
      "createdAt": "2025-12-28T18:45:35.718Z",
      "updatedAt": "2025-12-28T18:45:35.718Z",
      "stateName": "Wyoming",
      "countryName": "United States"
    },
    {
      "id": 6035,
      "stateId": 46,
      "name": "Evanston",
      "latitude": "42.0411400",
      "longitude": "-87.6900600",
      "createdAt": "2025-12-28T18:23:05.810Z",
      "updatedAt": "2025-12-28T18:23:05.810Z",
      "stateName": "Illinois",
      "countryName": "United States"
    },
    {
      "id": 1952,
      "stateId": 51,
      "name": "Evansville",
      "latitude": "37.9747600",
      "longitude": "-87.5558500",
      "createdAt": "2025-12-28T18:10:33.466Z",
      "updatedAt": "2025-12-28T18:10:33.466Z",
      "stateName": "Indiana",
      "countryName": "United States"
    },
    {
      "id": 5770,
      "stateId": 154,
      "name": "Evansville",
      "latitude": "37.9747600",
      "longitude": "-87.5558500",
      "createdAt": "2025-12-28T18:22:06.401Z",
      "updatedAt": "2025-12-28T18:22:06.401Z",
      "stateName": "Wyoming",
      "countryName": "United States"
    },
    {
      "id": 9604,
      "stateId": 8,
      "name": "Evansville",
      "latitude": "37.9747600",
      "longitude": "-87.5558500",
      "createdAt": "2025-12-28T18:45:34.880Z",
      "updatedAt": "2025-12-28T18:45:34.880Z",
      "stateName": "Wisconsin",
      "countryName": "United States"
    },
    {
      "id": 9610,
      "stateId": 49,
      "name": "Eveleth",
      "latitude": "37.8034989",
      "longitude": "-92.5169818",
      "createdAt": "2025-12-28T18:45:36.618Z",
      "updatedAt": "2025-12-28T18:45:36.618Z",
      "stateName": "Minnesota",
      "countryName": "United States"
    },
    {
      "id": 2051,
      "stateId": 42,
      "name": "Everett",
      "latitude": "47.9789800",
      "longitude": "-122.2020800",
      "createdAt": "2025-12-28T18:10:45.456Z",
      "updatedAt": "2025-12-28T18:10:45.456Z",
      "stateName": "Washington",
      "countryName": "United States"
    },
    {
      "id": 5898,
      "stateId": 47,
      "name": "Everett",
      "latitude": "42.4084300",
      "longitude": "-71.0536600",
      "createdAt": "2025-12-28T18:22:34.287Z",
      "updatedAt": "2025-12-28T18:22:34.287Z",
      "stateName": "Massachusetts",
      "countryName": "United States"
    },
    {
      "id": 9612,
      "stateId": 33,
      "name": "Everglades City",
      "latitude": "37.8034989",
      "longitude": "-92.5169818",
      "createdAt": "2025-12-28T18:45:36.902Z",
      "updatedAt": "2025-12-28T18:45:36.902Z",
      "stateName": "Florida",
      "countryName": "United States"
    },
    {
      "id": 9605,
      "stateId": 27,
      "name": "Evergreen",
      "latitude": "41.7205900",
      "longitude": "-87.7017200",
      "createdAt": "2025-12-28T18:45:34.966Z",
      "updatedAt": "2025-12-28T18:45:34.966Z",
      "stateName": "Colorado",
      "countryName": "United States"
    },
    {
      "id": 9602,
      "stateId": 2,
      "name": "Evesham",
      "latitude": null,
      "longitude": null,
      "createdAt": "2025-12-28T18:45:33.664Z",
      "updatedAt": "2025-12-28T18:45:33.664Z",
      "stateName": "England",
      "countryName": "United Kingdom"
    },
    {
      "id": 3327,
      "stateId": 678,
      "name": "Évora",
      "latitude": "39.5232529",
      "longitude": "-8.9987995",
      "createdAt": "2025-12-28T18:14:13.780Z",
      "updatedAt": "2025-12-28T18:14:13.780Z",
      "stateName": "Alentejo",
      "countryName": "Portugal"
    },
    {
      "id": 1940,
      "stateId": 405,
      "name": "Évreux",
      "latitude": "49.0241400",
      "longitude": "1.1508200",
      "createdAt": "2025-12-28T18:10:32.253Z",
      "updatedAt": "2025-12-28T18:10:32.253Z",
      "stateName": "Normandy",
      "countryName": "France"
    },
    {
      "id": 8646,
      "stateId": 229,
      "name": "Evrinos",
      "latitude": "38.6555720",
      "longitude": "23.4057215",
      "createdAt": "2025-12-28T18:39:33.129Z",
      "updatedAt": "2025-12-28T18:39:33.129Z",
      "stateName": "East Macedonia and Thrace",
      "countryName": "Greece"
    },
    {
      "id": 8954,
      "stateId": 10,
      "name": "Evry",
      "latitude": "47.3768156",
      "longitude": "2.7742767",
      "createdAt": "2025-12-28T18:41:08.426Z",
      "updatedAt": "2025-12-28T18:41:08.426Z",
      "stateName": "Île-de-France",
      "countryName": "France"
    },
    {
      "id": 18021,
      "stateId": 106,
      "name": "Ewansville",
      "latitude": null,
      "longitude": null,
      "createdAt": "2026-03-29T10:10:07.925Z",
      "updatedAt": "2026-03-29T10:10:07.925Z",
      "stateName": "New Jersey",
      "countryName": "United States"
    },
    {
      "id": 5342,
      "stateId": 106,
      "name": "Ewing",
      "latitude": "40.2698300",
      "longitude": "-74.7998800",
      "createdAt": "2025-12-28T18:20:24.712Z",
      "updatedAt": "2025-12-28T18:20:24.712Z",
      "stateName": "New Jersey",
      "countryName": "United States"
    },
    {
      "id": 12537,
      "stateId": 112,
      "name": "Excelsior Springs",
      "latitude": "37.8034989",
      "longitude": "-92.5169818",
      "createdAt": "2025-12-28T19:16:33.374Z",
      "updatedAt": "2025-12-28T19:16:33.374Z",
      "stateName": "Missouri",
      "countryName": "United States"
    },
    {
      "id": 7132,
      "stateId": 41,
      "name": "Exeter",
      "latitude": null,
      "longitude": null,
      "createdAt": "2025-12-28T18:28:18.221Z",
      "updatedAt": "2025-12-28T18:28:18.221Z",
      "stateName": "Ontario",
      "countryName": "Canada"
    },
    {
      "id": 1967,
      "stateId": 2,
      "name": "Exeter",
      "latitude": "50.7236000",
      "longitude": "-3.5275100",
      "createdAt": "2025-12-28T18:10:34.794Z",
      "updatedAt": "2025-12-28T18:10:34.794Z",
      "stateName": "England",
      "countryName": "United Kingdom"
    },
    {
      "id": 14664,
      "stateId": 114,
      "name": "Exeter",
      "latitude": "50.7236000",
      "longitude": "-3.5275100",
      "createdAt": "2025-12-28T19:47:09.667Z",
      "updatedAt": "2025-12-28T19:47:09.667Z",
      "stateName": "New Hampshire",
      "countryName": "United States"
    },
    {
      "id": 11149,
      "stateId": 50,
      "name": "Exmore",
      "latitude": "37.8034989",
      "longitude": "-92.5169818",
      "createdAt": "2025-12-28T19:01:26.227Z",
      "updatedAt": "2025-12-28T19:01:26.227Z",
      "stateName": "Virginia",
      "countryName": "United States"
    },
    {
      "id": 15147,
      "stateId": 95,
      "name": "Extrema",
      "latitude": null,
      "longitude": null,
      "createdAt": "2025-12-28T19:56:20.596Z",
      "updatedAt": "2025-12-28T19:56:20.596Z",
      "stateName": "Minas Gerais",
      "countryName": "Brazil"
    },
    {
      "id": 1912,
      "stateId": 7,
      "name": "Exu",
      "latitude": null,
      "longitude": null,
      "createdAt": "2025-12-28T18:10:29.627Z",
      "updatedAt": "2025-12-28T18:10:29.627Z",
      "stateName": "Pernambuco",
      "countryName": "Brazil"
    },
    {
      "id": 9675,
      "stateId": 212,
      "name": "Eystrup",
      "latitude": null,
      "longitude": null,
      "createdAt": "2025-12-28T18:46:31.616Z",
      "updatedAt": "2025-12-28T18:46:31.616Z",
      "stateName": "Lower Saxony",
      "countryName": "Germany"
    },
    {
      "id": 8114,
      "stateId": 58,
      "name": "Ezeiza",
      "latitude": null,
      "longitude": null,
      "createdAt": "2025-12-28T18:35:26.089Z",
      "updatedAt": "2025-12-28T18:35:26.089Z",
      "stateName": "Buenos Aires",
      "countryName": "Argentina"
    },
    {
      "id": 17919,
      "stateId": 1387,
      "name": "Fabriano",
      "latitude": "43.3406500",
      "longitude": "12.9072700",
      "createdAt": "2026-03-13T07:32:53.998Z",
      "updatedAt": "2026-03-13T07:32:53.998Z",
      "stateName": "Marche",
      "countryName": "Italy"
    },
    {
      "id": 10720,
      "stateId": 521,
      "name": "Fabriano",
      "latitude": "43.3406500",
      "longitude": "12.9072700",
      "createdAt": "2025-12-28T18:56:55.559Z",
      "updatedAt": "2025-12-28T18:56:55.559Z",
      "stateName": "Ancona",
      "countryName": "Italy"
    },
    {
      "id": 3498,
      "stateId": 691,
      "name": "Facho",
      "latitude": "39.5232529",
      "longitude": "-8.9987995",
      "createdAt": "2025-12-28T18:14:39.705Z",
      "updatedAt": "2025-12-28T18:14:39.705Z",
      "stateName": "Madeira",
      "countryName": "Portugal"
    },
    {
      "id": 16139,
      "stateId": 1325,
      "name": "Fagernes",
      "latitude": null,
      "longitude": null,
      "createdAt": "2025-12-28T20:35:08.209Z",
      "updatedAt": "2025-12-28T20:35:08.209Z",
      "stateName": "Valdes",
      "countryName": "Norway"
    },
    {
      "id": 8943,
      "stateId": 45,
      "name": "Fairbanks",
      "latitude": "64.8377800",
      "longitude": "-147.7163900",
      "createdAt": "2025-12-28T18:41:07.101Z",
      "updatedAt": "2025-12-28T18:41:07.101Z",
      "stateName": "Alaska",
      "countryName": "United States"
    },
    {
      "id": 5568,
      "stateId": 55,
      "name": "Fair Bluff",
      "latitude": "37.8034989",
      "longitude": "-92.5169818",
      "createdAt": "2025-12-28T18:21:22.984Z",
      "updatedAt": "2025-12-28T18:21:22.984Z",
      "stateName": "North Carolina",
      "countryName": "United States"
    },
    {
      "id": 14599,
      "stateId": 14,
      "name": "Fairborn",
      "latitude": "39.8208900",
      "longitude": "-84.0193800",
      "createdAt": "2025-12-28T19:46:06.230Z",
      "updatedAt": "2025-12-28T19:46:06.230Z",
      "stateName": "Ohio",
      "countryName": "United States"
    },
    {
      "id": 1379,
      "stateId": 22,
      "name": "Fairburn",
      "latitude": null,
      "longitude": null,
      "createdAt": "2025-12-28T17:03:44.748Z",
      "updatedAt": "2025-12-28T17:03:44.748Z",
      "stateName": "Georgia",
      "countryName": "United States"
    },
    {
      "id": 6188,
      "stateId": 46,
      "name": "Fairbury",
      "latitude": "37.8034989",
      "longitude": "-92.5169818",
      "createdAt": "2025-12-28T18:23:26.535Z",
      "updatedAt": "2025-12-28T18:23:26.535Z",
      "stateName": "Illinois",
      "countryName": "United States"
    },
    {
      "id": 13235,
      "stateId": 73,
      "name": "Fairbury",
      "latitude": "37.8034989",
      "longitude": "-92.5169818",
      "createdAt": "2025-12-28T19:21:52.359Z",
      "updatedAt": "2025-12-28T19:21:52.359Z",
      "stateName": "Nebraska",
      "countryName": "United States"
    },
    {
      "id": 1396,
      "stateId": 50,
      "name": "Fairfax",
      "latitude": "38.8462200",
      "longitude": "-77.3063700",
      "createdAt": "2025-12-28T17:04:25.914Z",
      "updatedAt": "2025-12-28T17:04:25.914Z",
      "stateName": "Virginia",
      "countryName": "United States"
    },
    {
      "id": 9821,
      "stateId": 122,
      "name": "Fairfield",
      "latitude": "39.3458900",
      "longitude": "-84.5605000",
      "createdAt": "2025-12-28T18:47:28.523Z",
      "updatedAt": "2025-12-28T18:47:28.523Z",
      "stateName": "Alabama",
      "countryName": "United States"
    },
    {
      "id": 3684,
      "stateId": 24,
      "name": "Fairfield",
      "latitude": "38.2493600",
      "longitude": "-122.0399700",
      "createdAt": "2025-12-28T18:15:02.132Z",
      "updatedAt": "2025-12-28T18:15:02.132Z",
      "stateName": "California",
      "countryName": "United States"
    },
    {
      "id": 3683,
      "stateId": 152,
      "name": "Fairfield",
      "latitude": "41.1412100",
      "longitude": "-73.2637300",
      "createdAt": "2025-12-28T18:15:02.096Z",
      "updatedAt": "2025-12-28T18:15:02.096Z",
      "stateName": "Connecticut",
      "countryName": "United States"
    },
    {
      "id": 9033,
      "stateId": 14,
      "name": "Fairfield",
      "latitude": "39.3458900",
      "longitude": "-84.5605000",
      "createdAt": "2025-12-28T18:41:37.729Z",
      "updatedAt": "2025-12-28T18:41:37.729Z",
      "stateName": "Ohio",
      "countryName": "United States"
    },
    {
      "id": 3300,
      "stateId": 106,
      "name": "Fairfield",
      "latitude": null,
      "longitude": null,
      "createdAt": "2025-12-28T18:14:11.687Z",
      "updatedAt": "2025-12-28T18:14:11.687Z",
      "stateName": "New Jersey",
      "countryName": "United States"
    },
    {
      "id": 12942,
      "stateId": 20,
      "name": "Fairfield",
      "latitude": "39.3458900",
      "longitude": "-84.5605000",
      "createdAt": "2025-12-28T19:19:46.175Z",
      "updatedAt": "2025-12-28T19:19:46.175Z",
      "stateName": "Texas",
      "countryName": "United States"
    },
    {
      "id": 3014,
      "stateId": 19,
      "name": "Fairfield",
      "latitude": "-33.9811915",
      "longitude": "144.8351072",
      "createdAt": "2025-12-28T18:13:31.371Z",
      "updatedAt": "2025-12-28T18:13:31.371Z",
      "stateName": "New South Wales",
      "countryName": "Australia"
    },
    {
      "id": 5114,
      "stateId": 153,
      "name": "Fairfield",
      "latitude": "39.3458900",
      "longitude": "-84.5605000",
      "createdAt": "2025-12-28T18:19:35.211Z",
      "updatedAt": "2025-12-28T18:19:35.211Z",
      "stateName": "Montana",
      "countryName": "United States"
    },
    {
      "id": 11702,
      "stateId": 113,
      "name": "Fairfield",
      "latitude": "39.3458900",
      "longitude": "-84.5605000",
      "createdAt": "2025-12-28T19:08:41.317Z",
      "updatedAt": "2025-12-28T19:08:41.317Z",
      "stateName": "Iowa",
      "countryName": "United States"
    },
    {
      "id": 7468,
      "stateId": 138,
      "name": "Fairfield",
      "latitude": "39.3458900",
      "longitude": "-84.5605000",
      "createdAt": "2025-12-28T18:30:18.937Z",
      "updatedAt": "2025-12-28T18:30:18.937Z",
      "stateName": "Maine",
      "countryName": "United States"
    },
    {
      "id": 9818,
      "stateId": 46,
      "name": "Fairfield",
      "latitude": "39.3458900",
      "longitude": "-84.5605000",
      "createdAt": "2025-12-28T18:47:27.055Z",
      "updatedAt": "2025-12-28T18:47:27.055Z",
      "stateName": "Illinois",
      "countryName": "United States"
    },
    {
      "id": 12628,
      "stateId": 32,
      "name": "Fairfield Bay",
      "latitude": "37.8034989",
      "longitude": "-92.5169818",
      "createdAt": "2025-12-28T19:17:13.599Z",
      "updatedAt": "2025-12-28T19:17:13.599Z",
      "stateName": "Arkansas",
      "countryName": "United States"
    },
    {
      "id": 10359,
      "stateId": 47,
      "name": "Fairhaven",
      "latitude": "41.6376000",
      "longitude": "-70.9036500",
      "createdAt": "2025-12-28T18:52:20.502Z",
      "updatedAt": "2025-12-28T18:52:20.502Z",
      "stateName": "Massachusetts",
      "countryName": "United States"
    }
  ],
  "meta": {
    "page": 53,
    "limit": 100,
    "total": 18002,
    "totalPages": 181
  }
}
