{
  "source": "50k-radio-stations",
  "provider": "rapidapi",
  "syncedAt": "2026-06-03T13:05:31.971Z",
  "endpoint": "/cities",
  "page": 110,
  "limit": 250,
  "data": [
    {
      "id": 3663,
      "stateId": 33,
      "name": "Nassauville",
      "latitude": "37.8034989",
      "longitude": "-92.5169818",
      "createdAt": "2025-12-28T18:15:00.504Z",
      "updatedAt": "2025-12-28T18:15:00.504Z",
      "stateName": "Florida",
      "countryName": "United States"
    },
    {
      "id": 15635,
      "stateId": 1303,
      "name": "Nassjo",
      "latitude": "58.9901705",
      "longitude": "15.8143176",
      "createdAt": "2025-12-28T20:13:24.785Z",
      "updatedAt": "2025-12-28T20:13:24.785Z",
      "stateName": "Småland",
      "countryName": "Sweden"
    },
    {
      "id": 11334,
      "stateId": 330,
      "name": "Nataga",
      "latitude": "6.4444434",
      "longitude": "-74.9549521",
      "createdAt": "2025-12-28T19:04:31.311Z",
      "updatedAt": "2025-12-28T19:04:31.311Z",
      "stateName": "Huila",
      "countryName": "Colombia"
    },
    {
      "id": 581,
      "stateId": 186,
      "name": "Natal",
      "latitude": "-5.7950000",
      "longitude": "-35.2094400",
      "createdAt": "2025-12-28T17:01:08.901Z",
      "updatedAt": "2025-12-28T17:01:08.901Z",
      "stateName": "Rio Grande do Norte",
      "countryName": "Brazil"
    },
    {
      "id": 13371,
      "stateId": 20,
      "name": "Natalia",
      "latitude": null,
      "longitude": null,
      "createdAt": "2025-12-28T19:23:33.834Z",
      "updatedAt": "2025-12-28T19:23:33.834Z",
      "stateName": "Texas",
      "countryName": "United States"
    },
    {
      "id": 7096,
      "stateId": 258,
      "name": "Natashquan",
      "latitude": "46.9909847",
      "longitude": "-87.5986915",
      "createdAt": "2025-12-28T18:28:10.244Z",
      "updatedAt": "2025-12-28T18:28:10.244Z",
      "stateName": "Quebec",
      "countryName": "Canada"
    },
    {
      "id": 3462,
      "stateId": 401,
      "name": "Natchez",
      "latitude": "31.5604400",
      "longitude": "-91.4031700",
      "createdAt": "2025-12-28T18:14:27.596Z",
      "updatedAt": "2025-12-28T18:14:27.596Z",
      "stateName": "Mississippi",
      "countryName": "United States"
    },
    {
      "id": 5695,
      "stateId": 16,
      "name": "Natchitoches",
      "latitude": "31.7607200",
      "longitude": "-93.0862700",
      "createdAt": "2025-12-28T18:21:55.658Z",
      "updatedAt": "2025-12-28T18:21:55.658Z",
      "stateName": "Louisiana",
      "countryName": "United States"
    },
    {
      "id": 12469,
      "stateId": 27,
      "name": "Nathrop",
      "latitude": "37.8034989",
      "longitude": "-92.5169818",
      "createdAt": "2025-12-28T19:16:00.394Z",
      "updatedAt": "2025-12-28T19:16:00.394Z",
      "stateName": "Colorado",
      "countryName": "United States"
    },
    {
      "id": 7485,
      "stateId": 47,
      "name": "Natick",
      "latitude": null,
      "longitude": null,
      "createdAt": "2025-12-28T18:30:22.352Z",
      "updatedAt": "2025-12-28T18:30:22.352Z",
      "stateName": "Massachusetts",
      "countryName": "United States"
    },
    {
      "id": 16466,
      "stateId": 24,
      "name": "National City",
      "latitude": "32.6781100",
      "longitude": "-117.0992000",
      "createdAt": "2025-12-28T20:44:40.979Z",
      "updatedAt": "2025-12-28T20:44:40.979Z",
      "stateName": "California",
      "countryName": "United States"
    },
    {
      "id": 9324,
      "stateId": 234,
      "name": "Naucalpan",
      "latitude": null,
      "longitude": null,
      "createdAt": "2025-12-28T18:43:44.812Z",
      "updatedAt": "2025-12-28T18:43:44.812Z",
      "stateName": "State of Mexico",
      "countryName": "Mexico"
    },
    {
      "id": 16436,
      "stateId": 152,
      "name": "Naugatuck",
      "latitude": "41.4859300",
      "longitude": "-73.0506600",
      "createdAt": "2025-12-28T20:44:06.785Z",
      "updatedAt": "2025-12-28T20:44:06.785Z",
      "stateName": "Connecticut",
      "countryName": "United States"
    },
    {
      "id": 5040,
      "stateId": 97,
      "name": "Naumburg",
      "latitude": "51.1498700",
      "longitude": "11.8097900",
      "createdAt": "2025-12-28T18:19:27.248Z",
      "updatedAt": "2025-12-28T18:19:27.248Z",
      "stateName": "Saxony-Anhalt",
      "countryName": "Germany"
    },
    {
      "id": 10616,
      "stateId": 362,
      "name": "Nava",
      "latitude": null,
      "longitude": null,
      "createdAt": "2025-12-28T18:55:42.270Z",
      "updatedAt": "2025-12-28T18:55:42.270Z",
      "stateName": "Coahuila",
      "countryName": "Mexico"
    },
    {
      "id": 8504,
      "stateId": 1042,
      "name": "Naval",
      "latitude": null,
      "longitude": null,
      "createdAt": "2025-12-28T18:38:54.430Z",
      "updatedAt": "2025-12-28T18:38:54.430Z",
      "stateName": "Biliran",
      "countryName": "Philippines"
    },
    {
      "id": 16697,
      "stateId": 33,
      "name": "Navarre",
      "latitude": "30.4015900",
      "longitude": "-86.8635700",
      "createdAt": "2025-12-28T20:50:25.309Z",
      "updatedAt": "2025-12-28T20:50:25.309Z",
      "stateName": "Florida",
      "countryName": "United States"
    },
    {
      "id": 17721,
      "stateId": 120,
      "name": "Navarrés",
      "latitude": null,
      "longitude": null,
      "createdAt": "2026-02-12T02:22:42.274Z",
      "updatedAt": "2026-02-12T02:22:42.274Z",
      "stateName": "Valencia",
      "countryName": "Spain"
    },
    {
      "id": 9975,
      "stateId": 20,
      "name": "Navarro",
      "latitude": "19.7682200",
      "longitude": "-104.3666400",
      "createdAt": "2025-12-28T18:49:21.765Z",
      "updatedAt": "2025-12-28T18:49:21.765Z",
      "stateName": "Texas",
      "countryName": "United States"
    },
    {
      "id": 4103,
      "stateId": 130,
      "name": "Navarro",
      "latitude": "19.7682200",
      "longitude": "-104.3666400",
      "createdAt": "2025-12-28T18:16:14.863Z",
      "updatedAt": "2025-12-28T18:16:14.863Z",
      "stateName": "Asturias",
      "countryName": "Spain"
    },
    {
      "id": 16184,
      "stateId": 115,
      "name": "Navàs",
      "latitude": null,
      "longitude": null,
      "createdAt": "2025-12-28T20:36:21.177Z",
      "updatedAt": "2025-12-28T20:36:21.177Z",
      "stateName": "Barcelona",
      "countryName": "Spain"
    },
    {
      "id": 11973,
      "stateId": 20,
      "name": "Navasota",
      "latitude": "37.8034989",
      "longitude": "-92.5169818",
      "createdAt": "2025-12-28T19:11:02.080Z",
      "updatedAt": "2025-12-28T19:11:02.080Z",
      "stateName": "Texas",
      "countryName": "United States"
    },
    {
      "id": 9840,
      "stateId": 293,
      "name": "Navegantes",
      "latitude": "-26.8988900",
      "longitude": "-48.6541700",
      "createdAt": "2025-12-28T18:47:47.869Z",
      "updatedAt": "2025-12-28T18:47:47.869Z",
      "stateName": "Santa Catarina",
      "countryName": "Brazil"
    },
    {
      "id": 4108,
      "stateId": 130,
      "name": "Navia",
      "latitude": "39.2717249",
      "longitude": "-3.2471696",
      "createdAt": "2025-12-28T18:16:15.759Z",
      "updatedAt": "2025-12-28T18:16:15.759Z",
      "stateName": "Asturias",
      "countryName": "Spain"
    },
    {
      "id": 14006,
      "stateId": 442,
      "name": "Navidad",
      "latitude": null,
      "longitude": null,
      "createdAt": "2025-12-28T19:37:17.302Z",
      "updatedAt": "2025-12-28T19:37:17.302Z",
      "stateName": "Cachapoal",
      "countryName": "Chile"
    },
    {
      "id": 902,
      "stateId": 369,
      "name": "Navirai",
      "latitude": "-17.4339069",
      "longitude": "-45.8426650",
      "createdAt": "2025-12-28T17:02:27.030Z",
      "updatedAt": "2025-12-28T17:02:27.030Z",
      "stateName": "Mato Grosso do Sul",
      "countryName": "Brazil"
    },
    {
      "id": 9641,
      "stateId": 345,
      "name": "Navojoa",
      "latitude": "27.0701500",
      "longitude": "-109.4439100",
      "createdAt": "2025-12-28T18:46:01.163Z",
      "updatedAt": "2025-12-28T18:46:01.163Z",
      "stateName": "Sonora",
      "countryName": "Mexico"
    },
    {
      "id": 1299,
      "stateId": 371,
      "name": "Navolato",
      "latitude": "24.7661000",
      "longitude": "-107.7022500",
      "createdAt": "2025-12-28T17:03:31.970Z",
      "updatedAt": "2025-12-28T17:03:31.970Z",
      "stateName": "Sinaloa",
      "countryName": "Mexico"
    },
    {
      "id": 4171,
      "stateId": 427,
      "name": "Nawabshah",
      "latitude": null,
      "longitude": null,
      "createdAt": "2025-12-28T18:16:27.963Z",
      "updatedAt": "2025-12-28T18:16:27.963Z",
      "stateName": "Sindh",
      "countryName": "Pakistan"
    },
    {
      "id": 2286,
      "stateId": 194,
      "name": "Naxos",
      "latitude": "38.6555720",
      "longitude": "23.4057215",
      "createdAt": "2025-12-28T18:11:34.537Z",
      "updatedAt": "2025-12-28T18:11:34.537Z",
      "stateName": "South Aegean",
      "countryName": "Greece"
    },
    {
      "id": 3167,
      "stateId": 262,
      "name": "Nazaré",
      "latitude": null,
      "longitude": null,
      "createdAt": "2025-12-28T18:13:47.934Z",
      "updatedAt": "2025-12-28T18:13:47.934Z",
      "stateName": "Bahia",
      "countryName": "Brazil"
    },
    {
      "id": 14007,
      "stateId": 7,
      "name": "Nazaré da Mata",
      "latitude": "-7.7416700",
      "longitude": "-35.2277800",
      "createdAt": "2025-12-28T19:37:17.445Z",
      "updatedAt": "2025-12-28T19:37:17.445Z",
      "stateName": "Pernambuco",
      "countryName": "Brazil"
    },
    {
      "id": 14038,
      "stateId": 253,
      "name": "Nazário",
      "latitude": null,
      "longitude": null,
      "createdAt": "2025-12-28T19:37:37.336Z",
      "updatedAt": "2025-12-28T19:37:37.336Z",
      "stateName": "Goiás",
      "countryName": "Brazil"
    },
    {
      "id": 13105,
      "stateId": 543,
      "name": "Nazarovo",
      "latitude": null,
      "longitude": null,
      "createdAt": "2025-12-28T19:20:47.366Z",
      "updatedAt": "2025-12-28T19:20:47.366Z",
      "stateName": "Krasnoyarsk",
      "countryName": "Russia"
    },
    {
      "id": 13329,
      "stateId": 402,
      "name": "Ndwedwe",
      "latitude": null,
      "longitude": null,
      "createdAt": "2025-12-28T19:23:06.415Z",
      "updatedAt": "2025-12-28T19:23:06.415Z",
      "stateName": "KwaZulu-Natal Prov.",
      "countryName": "South Africa"
    },
    {
      "id": 17299,
      "stateId": 2,
      "name": "Neasde",
      "latitude": null,
      "longitude": null,
      "createdAt": "2025-12-29T16:21:36.503Z",
      "updatedAt": "2025-12-29T16:21:36.503Z",
      "stateName": "England",
      "countryName": "United Kingdom"
    },
    {
      "id": 10311,
      "stateId": 73,
      "name": "Nebraska City",
      "latitude": "37.8034989",
      "longitude": "-92.5169818",
      "createdAt": "2025-12-28T18:51:55.170Z",
      "updatedAt": "2025-12-28T18:51:55.170Z",
      "stateName": "Nebraska",
      "countryName": "United States"
    },
    {
      "id": 8149,
      "stateId": 754,
      "name": "Néchin",
      "latitude": null,
      "longitude": null,
      "createdAt": "2025-12-28T18:35:49.412Z",
      "updatedAt": "2025-12-28T18:35:49.412Z",
      "stateName": "Hainaut",
      "countryName": "Belgium"
    },
    {
      "id": 17020,
      "stateId": 84,
      "name": "Neckarsteinach",
      "latitude": "50.9385735",
      "longitude": "9.5583023",
      "createdAt": "2025-12-29T15:11:18.986Z",
      "updatedAt": "2025-12-29T15:11:18.986Z",
      "stateName": "Hesse",
      "countryName": "Germany"
    },
    {
      "id": 2855,
      "stateId": 58,
      "name": "Necochea",
      "latitude": "-38.5472600",
      "longitude": "-58.7367500",
      "createdAt": "2025-12-28T18:12:53.464Z",
      "updatedAt": "2025-12-28T18:12:53.464Z",
      "stateName": "Buenos Aires",
      "countryName": "Argentina"
    },
    {
      "id": 7453,
      "stateId": 181,
      "name": "Necoclí",
      "latitude": null,
      "longitude": null,
      "createdAt": "2025-12-28T18:30:16.066Z",
      "updatedAt": "2025-12-28T18:30:16.066Z",
      "stateName": "Antioquia",
      "countryName": "Colombia"
    },
    {
      "id": 10210,
      "stateId": 20,
      "name": "Nederland",
      "latitude": "29.9743800",
      "longitude": "-93.9924000",
      "createdAt": "2025-12-28T18:51:08.912Z",
      "updatedAt": "2025-12-28T18:51:08.912Z",
      "stateName": "Texas",
      "countryName": "United States"
    },
    {
      "id": 12865,
      "stateId": 24,
      "name": "Needles",
      "latitude": "37.8034989",
      "longitude": "-92.5169818",
      "createdAt": "2025-12-28T19:19:15.135Z",
      "updatedAt": "2025-12-28T19:19:15.135Z",
      "stateName": "California",
      "countryName": "United States"
    },
    {
      "id": 15608,
      "stateId": 8,
      "name": "Neenah",
      "latitude": "44.1858200",
      "longitude": "-88.4626100",
      "createdAt": "2025-12-28T20:12:18.930Z",
      "updatedAt": "2025-12-28T20:12:18.930Z",
      "stateName": "Wisconsin",
      "countryName": "United States"
    },
    {
      "id": 7059,
      "stateId": 121,
      "name": "Neepawa",
      "latitude": null,
      "longitude": null,
      "createdAt": "2025-12-28T18:27:57.210Z",
      "updatedAt": "2025-12-28T18:27:57.210Z",
      "stateName": "Manitoba",
      "countryName": "Canada"
    },
    {
      "id": 15799,
      "stateId": 92,
      "name": "Negaunee",
      "latitude": "37.8034989",
      "longitude": "-92.5169818",
      "createdAt": "2025-12-28T20:19:31.500Z",
      "updatedAt": "2025-12-28T20:19:31.500Z",
      "stateName": "Michigan",
      "countryName": "United States"
    },
    {
      "id": 10475,
      "stateId": 193,
      "name": "Negreira",
      "latitude": null,
      "longitude": null,
      "createdAt": "2025-12-28T18:53:40.791Z",
      "updatedAt": "2025-12-28T18:53:40.791Z",
      "stateName": "Galicia",
      "countryName": "Spain"
    },
    {
      "id": 14432,
      "stateId": 8,
      "name": "Neillsville",
      "latitude": "37.8034989",
      "longitude": "-92.5169818",
      "createdAt": "2025-12-28T19:44:05.902Z",
      "updatedAt": "2025-12-28T19:44:05.902Z",
      "stateName": "Wisconsin",
      "countryName": "United States"
    },
    {
      "id": 715,
      "stateId": 330,
      "name": "Neiva",
      "latitude": "2.9273000",
      "longitude": "-75.2818900",
      "createdAt": "2025-12-28T17:02:11.512Z",
      "updatedAt": "2025-12-28T17:02:11.512Z",
      "stateName": "Huila",
      "countryName": "Colombia"
    },
    {
      "id": 16502,
      "stateId": 8,
      "name": "Nekoosa",
      "latitude": "37.8034989",
      "longitude": "-92.5169818",
      "createdAt": "2025-12-28T20:45:33.706Z",
      "updatedAt": "2025-12-28T20:45:33.706Z",
      "stateName": "Wisconsin",
      "countryName": "United States"
    },
    {
      "id": 17052,
      "stateId": 374,
      "name": "Nelas",
      "latitude": "39.5232529",
      "longitude": "-8.9987995",
      "createdAt": "2025-12-29T15:19:17.453Z",
      "updatedAt": "2025-12-29T15:19:17.453Z",
      "stateName": "Centro",
      "countryName": "Portugal"
    },
    {
      "id": 2958,
      "stateId": 380,
      "name": "Nellore",
      "latitude": null,
      "longitude": null,
      "createdAt": "2025-12-28T18:13:12.980Z",
      "updatedAt": "2025-12-28T18:13:12.980Z",
      "stateName": "Andhra Pradesh",
      "countryName": "India"
    },
    {
      "id": 5980,
      "stateId": 26,
      "name": "Nelson",
      "latitude": "46.9909847",
      "longitude": "-87.5986915",
      "createdAt": "2025-12-28T18:22:47.035Z",
      "updatedAt": "2025-12-28T18:22:47.035Z",
      "stateName": "British Columbia",
      "countryName": "Canada"
    },
    {
      "id": 14053,
      "stateId": 121,
      "name": "Nelson House",
      "latitude": "46.9909847",
      "longitude": "-87.5986915",
      "createdAt": "2025-12-28T19:37:54.358Z",
      "updatedAt": "2025-12-28T19:37:54.358Z",
      "stateName": "Manitoba",
      "countryName": "Canada"
    },
    {
      "id": 14579,
      "stateId": 14,
      "name": "Nelsonville",
      "latitude": "37.8034989",
      "longitude": "-92.5169818",
      "createdAt": "2025-12-28T19:46:02.875Z",
      "updatedAt": "2025-12-28T19:46:02.875Z",
      "stateName": "Ohio",
      "countryName": "United States"
    },
    {
      "id": 2406,
      "stateId": 28,
      "name": "Nelspruit",
      "latitude": null,
      "longitude": null,
      "createdAt": "2025-12-28T18:12:03.381Z",
      "updatedAt": "2025-12-28T18:12:03.381Z",
      "stateName": "Mpumalanga",
      "countryName": "South Africa"
    },
    {
      "id": 12758,
      "stateId": 45,
      "name": "Nenana",
      "latitude": "37.8034989",
      "longitude": "-92.5169818",
      "createdAt": "2025-12-28T19:18:19.524Z",
      "updatedAt": "2025-12-28T19:18:19.524Z",
      "stateName": "Alaska",
      "countryName": "United States"
    },
    {
      "id": 9405,
      "stateId": 46,
      "name": "Neoga",
      "latitude": "37.8034989",
      "longitude": "-92.5169818",
      "createdAt": "2025-12-28T18:44:05.289Z",
      "updatedAt": "2025-12-28T18:44:05.289Z",
      "stateName": "Illinois",
      "countryName": "United States"
    },
    {
      "id": 6092,
      "stateId": 112,
      "name": "Neosho",
      "latitude": "37.8034989",
      "longitude": "-92.5169818",
      "createdAt": "2025-12-28T18:23:14.537Z",
      "updatedAt": "2025-12-28T18:23:14.537Z",
      "stateName": "Missouri",
      "countryName": "United States"
    },
    {
      "id": 17304,
      "stateId": 95,
      "name": "Nepomuceno",
      "latitude": null,
      "longitude": null,
      "createdAt": "2025-12-29T16:21:49.994Z",
      "updatedAt": "2025-12-29T16:21:49.994Z",
      "stateName": "Minas Gerais",
      "countryName": "Brazil"
    },
    {
      "id": 334,
      "stateId": 33,
      "name": "Neptune Beach",
      "latitude": "37.8034989",
      "longitude": "-92.5169818",
      "createdAt": "2025-12-28T16:56:42.538Z",
      "updatedAt": "2025-12-28T16:56:42.538Z",
      "stateName": "Florida",
      "countryName": "United States"
    },
    {
      "id": 3855,
      "stateId": 208,
      "name": "Nérac",
      "latitude": "47.3768156",
      "longitude": "2.7742767",
      "createdAt": "2025-12-28T18:15:24.551Z",
      "updatedAt": "2025-12-28T18:15:24.551Z",
      "stateName": "Aquitaine",
      "countryName": "France"
    },
    {
      "id": 17554,
      "stateId": 253,
      "name": "Nerópolis",
      "latitude": null,
      "longitude": null,
      "createdAt": "2026-01-21T04:32:21.372Z",
      "updatedAt": "2026-01-21T04:32:21.372Z",
      "stateName": "Goiás",
      "countryName": "Brazil"
    },
    {
      "id": 11662,
      "stateId": 98,
      "name": "Nerviano",
      "latitude": "45.5534300",
      "longitude": "8.9792000",
      "createdAt": "2025-12-28T19:08:26.467Z",
      "updatedAt": "2025-12-28T19:08:26.467Z",
      "stateName": "Lombardy",
      "countryName": "Italy"
    },
    {
      "id": 3375,
      "stateId": 102,
      "name": "Nes",
      "latitude": "52.0575321",
      "longitude": "5.3403480",
      "createdAt": "2025-12-28T18:14:18.063Z",
      "updatedAt": "2025-12-28T18:14:18.063Z",
      "stateName": "Friesland",
      "countryName": "Netherlands"
    },
    {
      "id": 17901,
      "stateId": 1382,
      "name": "Nesher",
      "latitude": null,
      "longitude": null,
      "createdAt": "2026-03-12T08:00:48.940Z",
      "updatedAt": "2026-03-12T08:00:48.940Z",
      "stateName": "Haifa District",
      "countryName": "Israel"
    },
    {
      "id": 252,
      "stateId": 31,
      "name": "Ness City",
      "latitude": "37.8034989",
      "longitude": "-92.5169818",
      "createdAt": "2025-12-28T16:56:38.643Z",
      "updatedAt": "2025-12-28T16:56:38.643Z",
      "stateName": "Kansas",
      "countryName": "United States"
    },
    {
      "id": 12391,
      "stateId": 49,
      "name": "Nett Lake",
      "latitude": null,
      "longitude": null,
      "createdAt": "2025-12-28T19:15:42.505Z",
      "updatedAt": "2025-12-28T19:15:42.505Z",
      "stateName": "Minnesota",
      "countryName": "United States"
    },
    {
      "id": 454,
      "stateId": 103,
      "name": "Neubrandenburg",
      "latitude": "53.5641400",
      "longitude": "13.2753200",
      "createdAt": "2025-12-28T17:00:50.991Z",
      "updatedAt": "2025-12-28T17:00:50.991Z",
      "stateName": "Mecklenburg-West Pomerania",
      "countryName": "Germany"
    },
    {
      "id": 18004,
      "stateId": 723,
      "name": "Neubrandenburg",
      "latitude": "53.5641400",
      "longitude": "13.2753200",
      "createdAt": "2026-03-27T20:51:40.226Z",
      "updatedAt": "2026-03-27T20:51:40.226Z",
      "stateName": "Mecklenburg-Vorpommern",
      "countryName": "Germany"
    },
    {
      "id": 10438,
      "stateId": 34,
      "name": "Neuburg an der Donau",
      "latitude": null,
      "longitude": null,
      "createdAt": "2025-12-28T18:53:20.186Z",
      "updatedAt": "2025-12-28T18:53:20.186Z",
      "stateName": "Bavaria",
      "countryName": "Germany"
    },
    {
      "id": 14802,
      "stateId": 1272,
      "name": "Neuchatel",
      "latitude": "46.9917900",
      "longitude": "6.9310000",
      "createdAt": "2025-12-28T19:48:51.908Z",
      "updatedAt": "2025-12-28T19:48:51.908Z",
      "stateName": "Neuchâtel ",
      "countryName": "Switzerland"
    },
    {
      "id": 18017,
      "stateId": 212,
      "name": "Neuenhaus",
      "latitude": null,
      "longitude": null,
      "createdAt": "2026-03-28T22:43:53.021Z",
      "updatedAt": "2026-03-28T22:43:53.021Z",
      "stateName": "Lower Saxony",
      "countryName": "Germany"
    },
    {
      "id": 9565,
      "stateId": 34,
      "name": "Neumarkt in der Oberpfalz",
      "latitude": "49.2802800",
      "longitude": "11.4627800",
      "createdAt": "2025-12-28T18:45:18.358Z",
      "updatedAt": "2025-12-28T18:45:18.358Z",
      "stateName": "Bavaria",
      "countryName": "Germany"
    },
    {
      "id": 15545,
      "stateId": 5,
      "name": "Neumünster",
      "latitude": "54.0747700",
      "longitude": "9.9819500",
      "createdAt": "2025-12-28T20:10:14.215Z",
      "updatedAt": "2025-12-28T20:10:14.215Z",
      "stateName": "Schleswig-Holstein",
      "countryName": "Germany"
    },
    {
      "id": 18455,
      "stateId": 511,
      "name": "Neunkirchen",
      "latitude": "49.3444900",
      "longitude": "7.1804500",
      "createdAt": "2026-06-01T10:00:08.668Z",
      "updatedAt": "2026-06-01T10:00:08.668Z",
      "stateName": "Saarland",
      "countryName": "Germany"
    },
    {
      "id": 968,
      "stateId": 381,
      "name": "Neuquén",
      "latitude": "-38.9516100",
      "longitude": "-68.0591000",
      "createdAt": "2025-12-28T17:02:30.951Z",
      "updatedAt": "2025-12-28T17:02:30.951Z",
      "stateName": "Neuquén",
      "countryName": "Argentina"
    },
    {
      "id": 9154,
      "stateId": 212,
      "name": "Neuringe",
      "latitude": null,
      "longitude": null,
      "createdAt": "2025-12-28T18:41:55.320Z",
      "updatedAt": "2025-12-28T18:41:55.320Z",
      "stateName": "Lower Saxony",
      "countryName": "Germany"
    },
    {
      "id": 2770,
      "stateId": 432,
      "name": "Neuss",
      "latitude": "51.1980700",
      "longitude": "6.6850400",
      "createdAt": "2025-12-28T18:12:45.216Z",
      "updatedAt": "2025-12-28T18:12:45.216Z",
      "stateName": "North Rhine-Westphalia",
      "countryName": "Germany"
    },
    {
      "id": 3625,
      "stateId": 107,
      "name": "Neustadt",
      "latitude": "49.3500900",
      "longitude": "8.1388600",
      "createdAt": "2025-12-28T18:14:59.203Z",
      "updatedAt": "2025-12-28T18:14:59.203Z",
      "stateName": "Rhineland-Palatinate",
      "countryName": "Germany"
    },
    {
      "id": 17404,
      "stateId": 212,
      "name": " Neustadt am Rübenberge",
      "latitude": null,
      "longitude": null,
      "createdAt": "2026-01-05T17:23:22.427Z",
      "updatedAt": "2026-01-05T17:23:22.427Z",
      "stateName": "Lower Saxony",
      "countryName": "Germany"
    },
    {
      "id": 10842,
      "stateId": 536,
      "name": "Neuvelle-lès-Voisey",
      "latitude": null,
      "longitude": null,
      "createdAt": "2025-12-28T18:58:03.993Z",
      "updatedAt": "2025-12-28T18:58:03.993Z",
      "stateName": "Grand Est",
      "countryName": "France"
    },
    {
      "id": 18095,
      "stateId": 753,
      "name": "Neuville-de-Poitou",
      "latitude": "47.3768156",
      "longitude": "2.7742767",
      "createdAt": "2026-03-30T21:14:11.615Z",
      "updatedAt": "2026-03-30T21:14:11.615Z",
      "stateName": "Poitou-Charentes",
      "countryName": "France"
    },
    {
      "id": 4564,
      "stateId": 512,
      "name": "Neuville-en-Avesnois",
      "latitude": null,
      "longitude": null,
      "createdAt": "2025-12-28T18:17:53.752Z",
      "updatedAt": "2025-12-28T18:17:53.752Z",
      "stateName": "Nord",
      "countryName": "France"
    },
    {
      "id": 17238,
      "stateId": 107,
      "name": "Neuwied",
      "latitude": null,
      "longitude": null,
      "createdAt": "2025-12-29T16:12:31.242Z",
      "updatedAt": "2025-12-29T16:12:31.242Z",
      "stateName": "Rhineland-Palatinate",
      "countryName": "Germany"
    },
    {
      "id": 9788,
      "stateId": 511,
      "name": "Neuwied",
      "latitude": "50.4336000",
      "longitude": "7.4705700",
      "createdAt": "2025-12-28T18:47:16.732Z",
      "updatedAt": "2025-12-28T18:47:16.732Z",
      "stateName": "Saarland",
      "countryName": "Germany"
    },
    {
      "id": 8277,
      "stateId": 112,
      "name": "Nevada",
      "latitude": "37.8034989",
      "longitude": "-92.5169818",
      "createdAt": "2025-12-28T18:36:47.260Z",
      "updatedAt": "2025-12-28T18:36:47.260Z",
      "stateName": "Missouri",
      "countryName": "United States"
    },
    {
      "id": 13266,
      "stateId": 24,
      "name": "Nevada City",
      "latitude": "37.8034989",
      "longitude": "-92.5169818",
      "createdAt": "2025-12-28T19:22:26.370Z",
      "updatedAt": "2025-12-28T19:22:26.370Z",
      "stateName": "California",
      "countryName": "United States"
    },
    {
      "id": 4811,
      "stateId": 667,
      "name": "Nevers",
      "latitude": "46.9895600",
      "longitude": "3.1590000",
      "createdAt": "2025-12-28T18:18:44.174Z",
      "updatedAt": "2025-12-28T18:18:44.174Z",
      "stateName": "Bourgogne-Franche-Comté",
      "countryName": "France"
    },
    {
      "id": 9164,
      "stateId": 1020,
      "name": "Nevinnomyssk",
      "latitude": null,
      "longitude": null,
      "createdAt": "2025-12-28T18:42:17.374Z",
      "updatedAt": "2025-12-28T18:42:17.374Z",
      "stateName": "Stavropol",
      "countryName": "Russia"
    },
    {
      "id": 5796,
      "stateId": 14,
      "name": "New Albany",
      "latitude": "38.2856200",
      "longitude": "-85.8241300",
      "createdAt": "2025-12-28T18:22:10.487Z",
      "updatedAt": "2025-12-28T18:22:10.487Z",
      "stateName": "Ohio",
      "countryName": "United States"
    },
    {
      "id": 13685,
      "stateId": 51,
      "name": "New Albany",
      "latitude": "38.2856200",
      "longitude": "-85.8241300",
      "createdAt": "2025-12-28T19:29:33.592Z",
      "updatedAt": "2025-12-28T19:29:33.592Z",
      "stateName": "Indiana",
      "countryName": "United States"
    },
    {
      "id": 17817,
      "stateId": 68,
      "name": "New Albany",
      "latitude": "38.2856200",
      "longitude": "-85.8241300",
      "createdAt": "2026-03-03T05:43:15.806Z",
      "updatedAt": "2026-03-03T05:43:15.806Z",
      "stateName": "Pennsylvania",
      "countryName": "United States"
    },
    {
      "id": 16519,
      "stateId": 401,
      "name": "New Albany",
      "latitude": "38.2856200",
      "longitude": "-85.8241300",
      "createdAt": "2025-12-28T20:45:56.223Z",
      "updatedAt": "2025-12-28T20:45:56.223Z",
      "stateName": "Mississippi",
      "countryName": "United States"
    },
    {
      "id": 1476,
      "stateId": 24,
      "name": "Newark",
      "latitude": null,
      "longitude": null,
      "createdAt": "2025-12-28T17:04:34.002Z",
      "updatedAt": "2025-12-28T17:04:34.002Z",
      "stateName": "California",
      "countryName": "United States"
    },
    {
      "id": 5301,
      "stateId": 14,
      "name": "Newark",
      "latitude": "40.0581200",
      "longitude": "-82.4012600",
      "createdAt": "2025-12-28T18:20:20.808Z",
      "updatedAt": "2025-12-28T18:20:20.808Z",
      "stateName": "Ohio",
      "countryName": "United States"
    },
    {
      "id": 4785,
      "stateId": 148,
      "name": "Newark",
      "latitude": "39.6837200",
      "longitude": "-75.7496600",
      "createdAt": "2025-12-28T18:18:41.267Z",
      "updatedAt": "2025-12-28T18:18:41.267Z",
      "stateName": "Delaware",
      "countryName": "United States"
    },
    {
      "id": 169,
      "stateId": 106,
      "name": "Newark",
      "latitude": "40.7356600",
      "longitude": "-74.1723700",
      "createdAt": "2025-12-28T16:56:32.104Z",
      "updatedAt": "2025-12-28T16:56:32.104Z",
      "stateName": "New Jersey",
      "countryName": "United States"
    },
    {
      "id": 12725,
      "stateId": 64,
      "name": "Newark",
      "latitude": null,
      "longitude": null,
      "createdAt": "2025-12-28T19:17:47.539Z",
      "updatedAt": "2025-12-28T19:17:47.539Z",
      "stateName": "Maryland",
      "countryName": "United States"
    },
    {
      "id": 16071,
      "stateId": 2,
      "name": "Newark upon Trent",
      "latitude": "52.7709249",
      "longitude": "-1.7304307",
      "createdAt": "2025-12-28T20:31:11.963Z",
      "updatedAt": "2025-12-28T20:31:11.963Z",
      "stateName": "England",
      "countryName": "United Kingdom"
    }
  ],
  "meta": {
    "page": 110,
    "limit": 100,
    "total": 18002,
    "totalPages": 181
  }
}
