{
  "source": "50k-radio-stations",
  "provider": "rapidapi",
  "syncedAt": "2026-06-03T13:04:57.361Z",
  "endpoint": "/cities",
  "page": 69,
  "limit": 250,
  "data": [
    {
      "id": 4645,
      "stateId": 75,
      "name": "Hereford",
      "latitude": null,
      "longitude": null,
      "createdAt": "2025-12-28T18:18:12.312Z",
      "updatedAt": "2025-12-28T18:18:12.312Z",
      "stateName": "Arizona",
      "countryName": "United States"
    },
    {
      "id": 15328,
      "stateId": 594,
      "name": "Herent",
      "latitude": "50.9010009",
      "longitude": "4.3862404",
      "createdAt": "2025-12-28T20:02:42.515Z",
      "updatedAt": "2025-12-28T20:02:42.515Z",
      "stateName": "Flemish Brabant",
      "countryName": "Belgium"
    },
    {
      "id": 10689,
      "stateId": 811,
      "name": "Herentals",
      "latitude": "51.1765500",
      "longitude": "4.8324800",
      "createdAt": "2025-12-28T18:56:41.937Z",
      "updatedAt": "2025-12-28T18:56:41.937Z",
      "stateName": "Flemish Region",
      "countryName": "Belgium"
    },
    {
      "id": 7877,
      "stateId": 432,
      "name": "Herford",
      "latitude": "52.1145700",
      "longitude": "8.6734300",
      "createdAt": "2025-12-28T18:32:51.104Z",
      "updatedAt": "2025-12-28T18:32:51.104Z",
      "stateName": "North Rhine-Westphalia",
      "countryName": "Germany"
    },
    {
      "id": 12787,
      "stateId": 31,
      "name": "Herington",
      "latitude": "37.8034989",
      "longitude": "-92.5169818",
      "createdAt": "2025-12-28T19:18:40.257Z",
      "updatedAt": "2025-12-28T19:18:40.257Z",
      "stateName": "Kansas",
      "countryName": "United States"
    },
    {
      "id": 8301,
      "stateId": 6,
      "name": "Herkimer",
      "latitude": "37.8034989",
      "longitude": "-92.5169818",
      "createdAt": "2025-12-28T18:37:12.437Z",
      "updatedAt": "2025-12-28T18:37:12.437Z",
      "stateName": "New York",
      "countryName": "United States"
    },
    {
      "id": 1128,
      "stateId": 112,
      "name": "Hermann",
      "latitude": null,
      "longitude": null,
      "createdAt": "2025-12-28T17:03:11.445Z",
      "updatedAt": "2025-12-28T17:03:11.445Z",
      "stateName": "Missouri",
      "countryName": "United States"
    },
    {
      "id": 16874,
      "stateId": 49,
      "name": "Hermantown",
      "latitude": "37.8034989",
      "longitude": "-92.5169818",
      "createdAt": "2025-12-28T20:54:08.493Z",
      "updatedAt": "2025-12-28T20:54:08.493Z",
      "stateName": "Minnesota",
      "countryName": "United States"
    },
    {
      "id": 8457,
      "stateId": 104,
      "name": "Hermetschwil-Staffeln",
      "latitude": null,
      "longitude": null,
      "createdAt": "2025-12-28T18:38:43.049Z",
      "updatedAt": "2025-12-28T18:38:43.049Z",
      "stateName": "Aaragau",
      "countryName": "Switzerland"
    },
    {
      "id": 15790,
      "stateId": 24,
      "name": "Hermosa Beach",
      "latitude": null,
      "longitude": null,
      "createdAt": "2025-12-28T20:19:28.231Z",
      "updatedAt": "2025-12-28T20:19:28.231Z",
      "stateName": "California",
      "countryName": "United States"
    },
    {
      "id": 1124,
      "stateId": 345,
      "name": "Hermosillo",
      "latitude": "29.1026000",
      "longitude": "-110.9773200",
      "createdAt": "2025-12-28T17:03:11.216Z",
      "updatedAt": "2025-12-28T17:03:11.216Z",
      "stateName": "Sonora",
      "countryName": "Mexico"
    },
    {
      "id": 11163,
      "stateId": 298,
      "name": "Hernandarias",
      "latitude": null,
      "longitude": null,
      "createdAt": "2025-12-28T19:01:34.162Z",
      "updatedAt": "2025-12-28T19:01:34.162Z",
      "stateName": "Alto Paraná",
      "countryName": "Paraguay"
    },
    {
      "id": 14462,
      "stateId": 33,
      "name": "Hernando",
      "latitude": "37.8034989",
      "longitude": "-92.5169818",
      "createdAt": "2025-12-28T19:44:17.752Z",
      "updatedAt": "2025-12-28T19:44:17.752Z",
      "stateName": "Florida",
      "countryName": "United States"
    },
    {
      "id": 1631,
      "stateId": 50,
      "name": "Herndon",
      "latitude": "38.9695500",
      "longitude": "-77.3861000",
      "createdAt": "2025-12-28T18:01:41.765Z",
      "updatedAt": "2025-12-28T18:01:41.765Z",
      "stateName": "Virginia",
      "countryName": "United States"
    },
    {
      "id": 8317,
      "stateId": 432,
      "name": "Herne",
      "latitude": "51.5388000",
      "longitude": "7.2257200",
      "createdAt": "2025-12-28T18:37:19.085Z",
      "updatedAt": "2025-12-28T18:37:19.085Z",
      "stateName": "North Rhine-Westphalia",
      "countryName": "Germany"
    },
    {
      "id": 12608,
      "stateId": 908,
      "name": "Herne Bay",
      "latitude": "51.3730000",
      "longitude": "1.1285700",
      "createdAt": "2025-12-28T19:17:04.235Z",
      "updatedAt": "2025-12-28T19:17:04.235Z",
      "stateName": "Kent",
      "countryName": "United Kingdom"
    },
    {
      "id": 16138,
      "stateId": 153,
      "name": "Heron",
      "latitude": null,
      "longitude": null,
      "createdAt": "2025-12-28T20:35:07.724Z",
      "updatedAt": "2025-12-28T20:35:07.724Z",
      "stateName": "Montana",
      "countryName": "United States"
    },
    {
      "id": 11171,
      "stateId": 405,
      "name": "Hérouville-Saint-Clair",
      "latitude": "49.2108800",
      "longitude": "-0.3065300",
      "createdAt": "2025-12-28T19:01:39.224Z",
      "updatedAt": "2025-12-28T19:01:39.224Z",
      "stateName": "Normandy",
      "countryName": "France"
    },
    {
      "id": 11160,
      "stateId": 46,
      "name": "Herrin",
      "latitude": "37.8034989",
      "longitude": "-92.5169818",
      "createdAt": "2025-12-28T19:01:33.961Z",
      "updatedAt": "2025-12-28T19:01:33.961Z",
      "stateName": "Illinois",
      "countryName": "United States"
    },
    {
      "id": 11178,
      "stateId": 73,
      "name": "Hershey",
      "latitude": null,
      "longitude": null,
      "createdAt": "2025-12-28T19:01:44.141Z",
      "updatedAt": "2025-12-28T19:01:44.141Z",
      "stateName": "Nebraska",
      "countryName": "United States"
    },
    {
      "id": 15432,
      "stateId": 68,
      "name": "Hershey",
      "latitude": "37.8034989",
      "longitude": "-92.5169818",
      "createdAt": "2025-12-28T20:05:35.238Z",
      "updatedAt": "2025-12-28T20:05:35.238Z",
      "stateName": "Pennsylvania",
      "countryName": "United States"
    },
    {
      "id": 5497,
      "stateId": 55,
      "name": "Hertford",
      "latitude": "51.7958800",
      "longitude": "-0.0785400",
      "createdAt": "2025-12-28T18:21:04.964Z",
      "updatedAt": "2025-12-28T18:21:04.964Z",
      "stateName": "North Carolina",
      "countryName": "United States"
    },
    {
      "id": 8590,
      "stateId": 2,
      "name": "Hertford",
      "latitude": null,
      "longitude": null,
      "createdAt": "2025-12-28T18:39:20.697Z",
      "updatedAt": "2025-12-28T18:39:20.697Z",
      "stateName": "England",
      "countryName": "United Kingdom"
    },
    {
      "id": 11179,
      "stateId": 205,
      "name": "Herval",
      "latitude": null,
      "longitude": null,
      "createdAt": "2025-12-28T19:01:44.202Z",
      "updatedAt": "2025-12-28T19:01:44.202Z",
      "stateName": "Rio Grande do Sul",
      "countryName": "Brazil"
    },
    {
      "id": 11159,
      "stateId": 293,
      "name": "Herval d’ Oeste",
      "latitude": null,
      "longitude": null,
      "createdAt": "2025-12-28T19:01:33.295Z",
      "updatedAt": "2025-12-28T19:01:33.295Z",
      "stateName": "Santa Catarina",
      "countryName": "Brazil"
    },
    {
      "id": 4459,
      "stateId": 74,
      "name": "Hervey Bay",
      "latitude": "-33.9811915",
      "longitude": "144.8351072",
      "createdAt": "2025-12-28T18:17:38.635Z",
      "updatedAt": "2025-12-28T18:17:38.635Z",
      "stateName": "Queensland",
      "countryName": "Australia"
    },
    {
      "id": 4979,
      "stateId": 514,
      "name": "Herzberg",
      "latitude": "50.9385735",
      "longitude": "9.5583023",
      "createdAt": "2025-12-28T18:19:19.300Z",
      "updatedAt": "2025-12-28T18:19:19.300Z",
      "stateName": "Brandenburg",
      "countryName": "Germany"
    },
    {
      "id": 8663,
      "stateId": 611,
      "name": "Herzele",
      "latitude": "50.8868100",
      "longitude": "3.8901400",
      "createdAt": "2025-12-28T18:39:36.907Z",
      "updatedAt": "2025-12-28T18:39:36.907Z",
      "stateName": "East Flanders",
      "countryName": "Belgium"
    },
    {
      "id": 18368,
      "stateId": 426,
      "name": "Hesdin",
      "latitude": "47.3768156",
      "longitude": "2.7742767",
      "createdAt": "2026-05-18T19:10:34.152Z",
      "updatedAt": "2026-05-18T19:10:34.152Z",
      "stateName": "Hauts-de-France",
      "countryName": "France"
    },
    {
      "id": 6026,
      "stateId": 24,
      "name": "Hesperia",
      "latitude": "34.4263900",
      "longitude": "-117.3008800",
      "createdAt": "2025-12-28T18:22:52.758Z",
      "updatedAt": "2025-12-28T18:22:52.758Z",
      "stateName": "California",
      "countryName": "United States"
    },
    {
      "id": 11174,
      "stateId": 732,
      "name": "Hessisch Lichtenau",
      "latitude": "50.9385735",
      "longitude": "9.5583023",
      "createdAt": "2025-12-28T19:01:41.796Z",
      "updatedAt": "2025-12-28T19:01:41.796Z",
      "stateName": "Bayern",
      "countryName": "Germany"
    },
    {
      "id": 7888,
      "stateId": 2,
      "name": "Hessle",
      "latitude": null,
      "longitude": null,
      "createdAt": "2025-12-28T18:32:52.462Z",
      "updatedAt": "2025-12-28T18:32:52.462Z",
      "stateName": "England",
      "countryName": "United Kingdom"
    },
    {
      "id": 11277,
      "stateId": 220,
      "name": "Het Goor",
      "latitude": "52.0575321",
      "longitude": "5.3403480",
      "createdAt": "2025-12-28T19:03:44.446Z",
      "updatedAt": "2025-12-28T19:03:44.446Z",
      "stateName": "Overijssel",
      "countryName": "Netherlands"
    },
    {
      "id": 17240,
      "stateId": 107,
      "name": "Hettenleidelheim",
      "latitude": null,
      "longitude": null,
      "createdAt": "2025-12-29T16:12:49.135Z",
      "updatedAt": "2025-12-29T16:12:49.135Z",
      "stateName": "Rhineland-Palatinate",
      "countryName": "Germany"
    },
    {
      "id": 11176,
      "stateId": 497,
      "name": "Hettinger",
      "latitude": "37.8034989",
      "longitude": "-92.5169818",
      "createdAt": "2025-12-28T19:01:43.278Z",
      "updatedAt": "2025-12-28T19:01:43.278Z",
      "stateName": "North Dakota",
      "countryName": "United States"
    },
    {
      "id": 10047,
      "stateId": 511,
      "name": "Heusweiler",
      "latitude": "49.3500000",
      "longitude": "6.9333300",
      "createdAt": "2025-12-28T18:49:52.235Z",
      "updatedAt": "2025-12-28T18:49:52.235Z",
      "stateName": "Saarland",
      "countryName": "Germany"
    },
    {
      "id": 18014,
      "stateId": 106,
      "name": "Hewitt",
      "latitude": null,
      "longitude": null,
      "createdAt": "2026-03-28T22:20:28.678Z",
      "updatedAt": "2026-03-28T22:20:28.678Z",
      "stateName": "New Jersey",
      "countryName": "United States"
    },
    {
      "id": 13886,
      "stateId": 450,
      "name": "Heythuysen",
      "latitude": "52.0575321",
      "longitude": "5.3403480",
      "createdAt": "2025-12-28T19:34:10.907Z",
      "updatedAt": "2025-12-28T19:34:10.907Z",
      "stateName": "Limburg",
      "countryName": "Netherlands"
    },
    {
      "id": 5694,
      "stateId": 46,
      "name": "Heyworth",
      "latitude": "37.8034989",
      "longitude": "-92.5169818",
      "createdAt": "2025-12-28T18:21:55.568Z",
      "updatedAt": "2025-12-28T18:21:55.568Z",
      "stateName": "Illinois",
      "countryName": "United States"
    },
    {
      "id": 868,
      "stateId": 33,
      "name": "Hialeah",
      "latitude": "25.8576000",
      "longitude": "-80.2781100",
      "createdAt": "2025-12-28T17:02:24.807Z",
      "updatedAt": "2025-12-28T17:02:24.807Z",
      "stateName": "Florida",
      "countryName": "United States"
    },
    {
      "id": 16531,
      "stateId": 22,
      "name": "Hiawassee",
      "latitude": "37.8034989",
      "longitude": "-92.5169818",
      "createdAt": "2025-12-28T20:46:35.555Z",
      "updatedAt": "2025-12-28T20:46:35.555Z",
      "stateName": "Georgia",
      "countryName": "United States"
    },
    {
      "id": 2790,
      "stateId": 113,
      "name": "Hiawatha",
      "latitude": "37.8034989",
      "longitude": "-92.5169818",
      "createdAt": "2025-12-28T18:12:46.157Z",
      "updatedAt": "2025-12-28T18:12:46.157Z",
      "stateName": "Iowa",
      "countryName": "United States"
    },
    {
      "id": 234,
      "stateId": 49,
      "name": "Hibbing",
      "latitude": "47.4271500",
      "longitude": "-92.9376900",
      "createdAt": "2025-12-28T16:56:37.763Z",
      "updatedAt": "2025-12-28T16:56:37.763Z",
      "stateName": "Minnesota",
      "countryName": "United States"
    },
    {
      "id": 5272,
      "stateId": 55,
      "name": "Hickory",
      "latitude": "35.7331900",
      "longitude": "-81.3412000",
      "createdAt": "2025-12-28T18:20:16.709Z",
      "updatedAt": "2025-12-28T18:20:16.709Z",
      "stateName": "North Carolina",
      "countryName": "United States"
    },
    {
      "id": 14108,
      "stateId": 14,
      "name": "Hicksville",
      "latitude": "40.7684300",
      "longitude": "-73.5251300",
      "createdAt": "2025-12-28T19:39:25.058Z",
      "updatedAt": "2025-12-28T19:39:25.058Z",
      "stateName": "Ohio",
      "countryName": "United States"
    },
    {
      "id": 7959,
      "stateId": 333,
      "name": "Hidalgo del Parral",
      "latitude": "26.9296100",
      "longitude": "-105.6662000",
      "createdAt": "2025-12-28T18:33:30.893Z",
      "updatedAt": "2025-12-28T18:33:30.893Z",
      "stateName": "Chihuahua",
      "countryName": "Mexico"
    },
    {
      "id": 18094,
      "stateId": 231,
      "name": "Hidrolândia",
      "latitude": null,
      "longitude": null,
      "createdAt": "2026-03-30T21:12:39.180Z",
      "updatedAt": "2026-03-30T21:12:39.180Z",
      "stateName": "Ceará",
      "countryName": "Brazil"
    },
    {
      "id": 6669,
      "stateId": 122,
      "name": "Higdon",
      "latitude": "37.8034989",
      "longitude": "-92.5169818",
      "createdAt": "2025-12-28T18:26:26.498Z",
      "updatedAt": "2025-12-28T18:26:26.498Z",
      "stateName": "Alabama",
      "countryName": "United States"
    },
    {
      "id": 8559,
      "stateId": 2,
      "name": "High Hunsley",
      "latitude": "52.7709249",
      "longitude": "-1.7304307",
      "createdAt": "2025-12-28T18:39:15.051Z",
      "updatedAt": "2025-12-28T18:39:15.051Z",
      "stateName": "England",
      "countryName": "United Kingdom"
    },
    {
      "id": 16755,
      "stateId": 6,
      "name": "Highland",
      "latitude": "40.4499500",
      "longitude": "-111.7702100",
      "createdAt": "2025-12-28T20:51:16.046Z",
      "updatedAt": "2025-12-28T20:51:16.046Z",
      "stateName": "New York",
      "countryName": "United States"
    },
    {
      "id": 11535,
      "stateId": 46,
      "name": "Highland",
      "latitude": "42.1816900",
      "longitude": "-87.8003400",
      "createdAt": "2025-12-28T19:06:57.778Z",
      "updatedAt": "2025-12-28T19:06:57.778Z",
      "stateName": "Illinois",
      "countryName": "United States"
    },
    {
      "id": 1228,
      "stateId": 430,
      "name": "Highland",
      "latitude": "40.4499500",
      "longitude": "-111.7702100",
      "createdAt": "2025-12-28T17:03:20.084Z",
      "updatedAt": "2025-12-28T17:03:20.084Z",
      "stateName": "Utah",
      "countryName": "United States"
    },
    {
      "id": 4870,
      "stateId": 80,
      "name": "Highland Heights",
      "latitude": "37.8034989",
      "longitude": "-92.5169818",
      "createdAt": "2025-12-28T18:18:55.241Z",
      "updatedAt": "2025-12-28T18:18:55.241Z",
      "stateName": "Kentucky",
      "countryName": "United States"
    },
    {
      "id": 11530,
      "stateId": 46,
      "name": "Highland Park",
      "latitude": "42.1816900",
      "longitude": "-87.8003400",
      "createdAt": "2025-12-28T19:06:51.819Z",
      "updatedAt": "2025-12-28T19:06:51.819Z",
      "stateName": "Illinois",
      "countryName": "United States"
    },
    {
      "id": 11089,
      "stateId": 20,
      "name": "Highland Park",
      "latitude": "42.1816900",
      "longitude": "-87.8003400",
      "createdAt": "2025-12-28T19:00:49.030Z",
      "updatedAt": "2025-12-28T19:00:49.030Z",
      "stateName": "Texas",
      "countryName": "United States"
    },
    {
      "id": 16465,
      "stateId": 55,
      "name": "Highlands",
      "latitude": "37.8034989",
      "longitude": "-92.5169818",
      "createdAt": "2025-12-28T20:44:37.743Z",
      "updatedAt": "2025-12-28T20:44:37.743Z",
      "stateName": "North Carolina",
      "countryName": "United States"
    },
    {
      "id": 16347,
      "stateId": 50,
      "name": "Highland Springs",
      "latitude": "37.5459800",
      "longitude": "-77.3277600",
      "createdAt": "2025-12-28T20:41:56.972Z",
      "updatedAt": "2025-12-28T20:41:56.972Z",
      "stateName": "Virginia",
      "countryName": "United States"
    },
    {
      "id": 7715,
      "stateId": 27,
      "name": "Highlands Ranch",
      "latitude": null,
      "longitude": null,
      "createdAt": "2025-12-28T18:31:14.442Z",
      "updatedAt": "2025-12-28T18:31:14.442Z",
      "stateName": "Colorado",
      "countryName": "United States"
    },
    {
      "id": 6630,
      "stateId": 124,
      "name": "High Level",
      "latitude": "46.9909847",
      "longitude": "-87.5986915",
      "createdAt": "2025-12-28T18:26:11.192Z",
      "updatedAt": "2025-12-28T18:26:11.192Z",
      "stateName": "Alberta",
      "countryName": "Canada"
    },
    {
      "id": 10845,
      "stateId": 2,
      "name": "Highpeak Junction",
      "latitude": "52.7709249",
      "longitude": "-1.7304307",
      "createdAt": "2025-12-28T18:58:05.928Z",
      "updatedAt": "2025-12-28T18:58:05.928Z",
      "stateName": "England",
      "countryName": "United Kingdom"
    },
    {
      "id": 12924,
      "stateId": 112,
      "name": "High Point",
      "latitude": "35.9556900",
      "longitude": "-80.0053200",
      "createdAt": "2025-12-28T19:19:37.075Z",
      "updatedAt": "2025-12-28T19:19:37.075Z",
      "stateName": "Missouri",
      "countryName": "United States"
    },
    {
      "id": 337,
      "stateId": 55,
      "name": "High Point",
      "latitude": "35.9556900",
      "longitude": "-80.0053200",
      "createdAt": "2025-12-28T16:56:42.602Z",
      "updatedAt": "2025-12-28T16:56:42.602Z",
      "stateName": "North Carolina",
      "countryName": "United States"
    },
    {
      "id": 7127,
      "stateId": 124,
      "name": "High Prairie",
      "latitude": "46.9909847",
      "longitude": "-87.5986915",
      "createdAt": "2025-12-28T18:28:17.327Z",
      "updatedAt": "2025-12-28T18:28:17.327Z",
      "stateName": "Alberta",
      "countryName": "Canada"
    },
    {
      "id": 6604,
      "stateId": 124,
      "name": "High River",
      "latitude": "46.9909847",
      "longitude": "-87.5986915",
      "createdAt": "2025-12-28T18:26:07.391Z",
      "updatedAt": "2025-12-28T18:26:07.391Z",
      "stateName": "Alberta",
      "countryName": "Canada"
    },
    {
      "id": 16895,
      "stateId": 33,
      "name": "High Springs",
      "latitude": "37.8034989",
      "longitude": "-92.5169818",
      "createdAt": "2025-12-28T20:54:40.004Z",
      "updatedAt": "2025-12-28T20:54:40.004Z",
      "stateName": "Florida",
      "countryName": "United States"
    },
    {
      "id": 120,
      "stateId": 2,
      "name": "High Wycombe",
      "latitude": "51.6290700",
      "longitude": "-0.7493400",
      "createdAt": "2025-12-28T16:56:25.279Z",
      "updatedAt": "2025-12-28T16:56:25.279Z",
      "stateName": "England",
      "countryName": "United Kingdom"
    },
    {
      "id": 17747,
      "stateId": 763,
      "name": "Higuerote",
      "latitude": null,
      "longitude": null,
      "createdAt": "2026-02-14T12:10:07.991Z",
      "updatedAt": "2026-02-14T12:10:07.991Z",
      "stateName": "Miranda",
      "countryName": "Venezuela"
    },
    {
      "id": 13839,
      "stateId": 133,
      "name": "Higueruela",
      "latitude": "39.2717249",
      "longitude": "-3.2471696",
      "createdAt": "2025-12-28T19:33:20.416Z",
      "updatedAt": "2025-12-28T19:33:20.416Z",
      "stateName": "Castile-La Mancha",
      "countryName": "Spain"
    },
    {
      "id": 2584,
      "stateId": 612,
      "name": "Higüey",
      "latitude": "18.6150100",
      "longitude": "-68.7079800",
      "createdAt": "2025-12-28T18:12:29.134Z",
      "updatedAt": "2025-12-28T18:12:29.134Z",
      "stateName": "La Altagracia",
      "countryName": "Dominican Republic"
    },
    {
      "id": 9532,
      "stateId": 432,
      "name": "Hilden",
      "latitude": "51.1681800",
      "longitude": "6.9309300",
      "createdAt": "2025-12-28T18:45:07.122Z",
      "updatedAt": "2025-12-28T18:45:07.122Z",
      "stateName": "North Rhine-Westphalia",
      "countryName": "Germany"
    },
    {
      "id": 8852,
      "stateId": 212,
      "name": "Hildesheim",
      "latitude": "52.1507700",
      "longitude": "9.9511200",
      "createdAt": "2025-12-28T18:40:40.505Z",
      "updatedAt": "2025-12-28T18:40:40.505Z",
      "stateName": "Lower Saxony",
      "countryName": "Germany"
    },
    {
      "id": 6093,
      "stateId": 31,
      "name": "Hill City",
      "latitude": "37.8034989",
      "longitude": "-92.5169818",
      "createdAt": "2025-12-28T18:23:14.568Z",
      "updatedAt": "2025-12-28T18:23:14.568Z",
      "stateName": "Kansas",
      "countryName": "United States"
    },
    {
      "id": 13336,
      "stateId": 402,
      "name": "Hillcrest",
      "latitude": null,
      "longitude": null,
      "createdAt": "2025-12-28T19:23:07.918Z",
      "updatedAt": "2025-12-28T19:23:07.918Z",
      "stateName": "KwaZulu-Natal Prov.",
      "countryName": "South Africa"
    },
    {
      "id": 14626,
      "stateId": 14,
      "name": "Hilliard",
      "latitude": "40.0334000",
      "longitude": "-83.1582500",
      "createdAt": "2025-12-28T19:46:22.934Z",
      "updatedAt": "2025-12-28T19:46:22.934Z",
      "stateName": "Ohio",
      "countryName": "United States"
    },
    {
      "id": 17185,
      "stateId": 2,
      "name": "Hillingdon",
      "latitude": null,
      "longitude": null,
      "createdAt": "2025-12-29T15:49:54.314Z",
      "updatedAt": "2025-12-29T15:49:54.314Z",
      "stateName": "England",
      "countryName": "United Kingdom"
    },
    {
      "id": 16575,
      "stateId": 92,
      "name": "Hillman",
      "latitude": "37.8034989",
      "longitude": "-92.5169818",
      "createdAt": "2025-12-28T20:47:14.174Z",
      "updatedAt": "2025-12-28T20:47:14.174Z",
      "stateName": "Michigan",
      "countryName": "United States"
    },
    {
      "id": 12401,
      "stateId": 20,
      "name": "Hillsboro",
      "latitude": "45.5228900",
      "longitude": "-122.9898300",
      "createdAt": "2025-12-28T19:15:43.830Z",
      "updatedAt": "2025-12-28T19:15:43.830Z",
      "stateName": "Texas",
      "countryName": "United States"
    },
    {
      "id": 14839,
      "stateId": 81,
      "name": "Hillsboro",
      "latitude": "45.5228900",
      "longitude": "-122.9898300",
      "createdAt": "2025-12-28T19:49:30.527Z",
      "updatedAt": "2025-12-28T19:49:30.527Z",
      "stateName": "Oregon",
      "countryName": "United States"
    },
    {
      "id": 7785,
      "stateId": 46,
      "name": "Hillsboro",
      "latitude": null,
      "longitude": null,
      "createdAt": "2025-12-28T18:31:44.037Z",
      "updatedAt": "2025-12-28T18:31:44.037Z",
      "stateName": "Illinois",
      "countryName": "United States"
    },
    {
      "id": 13681,
      "stateId": 14,
      "name": "Hillsboro",
      "latitude": "45.5228900",
      "longitude": "-122.9898300",
      "createdAt": "2025-12-28T19:29:22.363Z",
      "updatedAt": "2025-12-28T19:29:22.363Z",
      "stateName": "Ohio",
      "countryName": "United States"
    },
    {
      "id": 15849,
      "stateId": 114,
      "name": "Hillsboro",
      "latitude": "45.5228900",
      "longitude": "-122.9898300",
      "createdAt": "2025-12-28T20:20:40.184Z",
      "updatedAt": "2025-12-28T20:20:40.184Z",
      "stateName": "New Hampshire",
      "countryName": "United States"
    },
    {
      "id": 3627,
      "stateId": 55,
      "name": "Hillsborough",
      "latitude": null,
      "longitude": null,
      "createdAt": "2025-12-28T18:14:59.303Z",
      "updatedAt": "2025-12-28T18:14:59.303Z",
      "stateName": "North Carolina",
      "countryName": "United States"
    },
    {
      "id": 16207,
      "stateId": 1329,
      "name": "Hillsborough",
      "latitude": "12.0564400",
      "longitude": "-61.7484900",
      "createdAt": "2025-12-28T20:38:19.181Z",
      "updatedAt": "2025-12-28T20:38:19.181Z",
      "stateName": "Carriacou",
      "countryName": "Grenada"
    },
    {
      "id": 7916,
      "stateId": 92,
      "name": "Hillsdale",
      "latitude": "37.8034989",
      "longitude": "-92.5169818",
      "createdAt": "2025-12-28T18:33:02.475Z",
      "updatedAt": "2025-12-28T18:33:02.475Z",
      "stateName": "Michigan",
      "countryName": "United States"
    },
    {
      "id": 16477,
      "stateId": 50,
      "name": "Hillsville",
      "latitude": "37.8034989",
      "longitude": "-92.5169818",
      "createdAt": "2025-12-28T20:44:48.784Z",
      "updatedAt": "2025-12-28T20:44:48.784Z",
      "stateName": "Virginia",
      "countryName": "United States"
    },
    {
      "id": 14157,
      "stateId": 444,
      "name": "Hillswick",
      "latitude": null,
      "longitude": null,
      "createdAt": "2025-12-28T19:40:55.262Z",
      "updatedAt": "2025-12-28T19:40:55.262Z",
      "stateName": "Scotland",
      "countryName": "United Kingdom"
    },
    {
      "id": 1367,
      "stateId": 128,
      "name": "Hilo",
      "latitude": "19.7299100",
      "longitude": "-155.0907300",
      "createdAt": "2025-12-28T17:03:44.112Z",
      "updatedAt": "2025-12-28T17:03:44.112Z",
      "stateName": "Hawaii",
      "countryName": "United States"
    },
    {
      "id": 12022,
      "stateId": 34,
      "name": "Hilpoltstein",
      "latitude": null,
      "longitude": null,
      "createdAt": "2025-12-28T19:11:35.433Z",
      "updatedAt": "2025-12-28T19:11:35.433Z",
      "stateName": "Bavaria",
      "countryName": "Germany"
    },
    {
      "id": 7937,
      "stateId": 145,
      "name": "Hilton Head Island",
      "latitude": "32.2163200",
      "longitude": "-80.7526100",
      "createdAt": "2025-12-28T18:33:08.774Z",
      "updatedAt": "2025-12-28T18:33:08.774Z",
      "stateName": "South Carolina",
      "countryName": "United States"
    },
    {
      "id": 16225,
      "stateId": 96,
      "name": "Hilvarenbeek",
      "latitude": "51.4858300",
      "longitude": "5.1375000",
      "createdAt": "2025-12-28T20:38:58.500Z",
      "updatedAt": "2025-12-28T20:38:58.500Z",
      "stateName": "North Brabant",
      "countryName": "Netherlands"
    },
    {
      "id": 665,
      "stateId": 52,
      "name": "Hilversum",
      "latitude": "52.2233300",
      "longitude": "5.1763900",
      "createdAt": "2025-12-28T17:01:18.790Z",
      "updatedAt": "2025-12-28T17:01:18.790Z",
      "stateName": "North Holland",
      "countryName": "Netherlands"
    },
    {
      "id": 8777,
      "stateId": 626,
      "name": "Himeji",
      "latitude": "34.8166700",
      "longitude": "134.7000000",
      "createdAt": "2025-12-28T18:40:13.802Z",
      "updatedAt": "2025-12-28T18:40:13.802Z",
      "stateName": "Kansai",
      "countryName": "Japan"
    },
    {
      "id": 2809,
      "stateId": 283,
      "name": "Himmatnagar",
      "latitude": null,
      "longitude": null,
      "createdAt": "2025-12-28T18:12:46.860Z",
      "updatedAt": "2025-12-28T18:12:46.860Z",
      "stateName": "Gujarat",
      "countryName": "India"
    },
    {
      "id": 10173,
      "stateId": 2,
      "name": "Hinckley",
      "latitude": null,
      "longitude": null,
      "createdAt": "2025-12-28T18:50:38.766Z",
      "updatedAt": "2025-12-28T18:50:38.766Z",
      "stateName": "England",
      "countryName": "United Kingdom"
    },
    {
      "id": 13671,
      "stateId": 49,
      "name": "Hinckley",
      "latitude": "52.5389000",
      "longitude": "-1.3761300",
      "createdAt": "2025-12-28T19:29:19.838Z",
      "updatedAt": "2025-12-28T19:29:19.838Z",
      "stateName": "Minnesota",
      "countryName": "United States"
    },
    {
      "id": 12600,
      "stateId": 80,
      "name": "Hindman",
      "latitude": "37.8034989",
      "longitude": "-92.5169818",
      "createdAt": "2025-12-28T19:17:00.413Z",
      "updatedAt": "2025-12-28T19:17:00.413Z",
      "stateName": "Kentucky",
      "countryName": "United States"
    },
    {
      "id": 7585,
      "stateId": 81,
      "name": "Hines",
      "latitude": "31.8468800",
      "longitude": "-81.5959500",
      "createdAt": "2025-12-28T18:30:48.238Z",
      "updatedAt": "2025-12-28T18:30:48.238Z",
      "stateName": "Oregon",
      "countryName": "United States"
    },
    {
      "id": 17643,
      "stateId": 436,
      "name": "Hinesburg",
      "latitude": null,
      "longitude": null,
      "createdAt": "2026-01-28T18:40:16.172Z",
      "updatedAt": "2026-01-28T18:40:16.172Z",
      "stateName": "Vermont",
      "countryName": "United States"
    },
    {
      "id": 10932,
      "stateId": 22,
      "name": "Hinesville",
      "latitude": "31.8468800",
      "longitude": "-81.5959500",
      "createdAt": "2025-12-28T18:59:33.675Z",
      "updatedAt": "2025-12-28T18:59:33.675Z",
      "stateName": "Georgia",
      "countryName": "United States"
    },
    {
      "id": 6648,
      "stateId": 124,
      "name": "Hinton",
      "latitude": "46.9909847",
      "longitude": "-87.5986915",
      "createdAt": "2025-12-28T18:26:12.125Z",
      "updatedAt": "2025-12-28T18:26:12.125Z",
      "stateName": "Alberta",
      "countryName": "Canada"
    }
  ],
  "meta": {
    "page": 69,
    "limit": 100,
    "total": 18002,
    "totalPages": 181
  }
}
