{
  "source": "50k-radio-stations",
  "provider": "rapidapi",
  "syncedAt": "2026-06-03T13:04:54.727Z",
  "endpoint": "/cities",
  "page": 66,
  "limit": 250,
  "data": [
    {
      "id": 1293,
      "stateId": 448,
      "name": "Haguenau",
      "latitude": "48.8155700",
      "longitude": "7.7905100",
      "createdAt": "2025-12-28T17:03:31.422Z",
      "updatedAt": "2025-12-28T17:03:31.422Z",
      "stateName": "Alsace",
      "countryName": "France"
    },
    {
      "id": 16908,
      "stateId": 22,
      "name": "Hahira",
      "latitude": "37.8034989",
      "longitude": "-92.5169818",
      "createdAt": "2025-12-28T20:55:02.838Z",
      "updatedAt": "2025-12-28T20:55:02.838Z",
      "stateName": "Georgia",
      "countryName": "United States"
    },
    {
      "id": 18340,
      "stateId": 1301,
      "name": "Haikou",
      "latitude": "24.7798500",
      "longitude": "102.5754800",
      "createdAt": "2026-05-17T15:41:56.465Z",
      "updatedAt": "2026-05-17T15:41:56.465Z",
      "stateName": "Hainan",
      "countryName": "China"
    },
    {
      "id": 13090,
      "stateId": 128,
      "name": "Haiku",
      "latitude": "37.8034989",
      "longitude": "-92.5169818",
      "createdAt": "2025-12-28T19:20:39.369Z",
      "updatedAt": "2025-12-28T19:20:39.369Z",
      "stateName": "Hawaii",
      "countryName": "United States"
    },
    {
      "id": 10986,
      "stateId": 2,
      "name": "Hailsham",
      "latitude": null,
      "longitude": null,
      "createdAt": "2025-12-28T18:59:58.787Z",
      "updatedAt": "2025-12-28T18:59:58.787Z",
      "stateName": "England",
      "countryName": "United Kingdom"
    },
    {
      "id": 5330,
      "stateId": 45,
      "name": "Haines",
      "latitude": "28.1145000",
      "longitude": "-81.6200900",
      "createdAt": "2025-12-28T18:20:22.666Z",
      "updatedAt": "2025-12-28T18:20:22.666Z",
      "stateName": "Alaska",
      "countryName": "United States"
    },
    {
      "id": 10698,
      "stateId": 33,
      "name": "Haines City",
      "latitude": "28.1145000",
      "longitude": "-81.6200900",
      "createdAt": "2025-12-28T18:56:46.111Z",
      "updatedAt": "2025-12-28T18:56:46.111Z",
      "stateName": "Florida",
      "countryName": "United States"
    },
    {
      "id": 7903,
      "stateId": 1001,
      "name": "Hai Phong",
      "latitude": null,
      "longitude": null,
      "createdAt": "2025-12-28T18:32:55.621Z",
      "updatedAt": "2025-12-28T18:32:55.621Z",
      "stateName": "Hai Phong",
      "countryName": "Vietnam"
    },
    {
      "id": 9572,
      "stateId": 97,
      "name": "Halberstadt",
      "latitude": "51.8956200",
      "longitude": "11.0562200",
      "createdAt": "2025-12-28T18:45:20.264Z",
      "updatedAt": "2025-12-28T18:45:20.264Z",
      "stateName": "Saxony-Anhalt",
      "countryName": "Germany"
    },
    {
      "id": 11308,
      "stateId": 96,
      "name": "Halderberge",
      "latitude": null,
      "longitude": null,
      "createdAt": "2025-12-28T19:04:09.892Z",
      "updatedAt": "2025-12-28T19:04:09.892Z",
      "stateName": "North Brabant",
      "countryName": "Netherlands"
    },
    {
      "id": 18162,
      "stateId": 919,
      "name": "Halen",
      "latitude": null,
      "longitude": null,
      "createdAt": "2026-04-06T19:01:33.089Z",
      "updatedAt": "2026-04-06T19:01:33.089Z",
      "stateName": "Limburg",
      "countryName": "Belgium"
    },
    {
      "id": 5101,
      "stateId": 122,
      "name": "Haleyville",
      "latitude": "37.8034989",
      "longitude": "-92.5169818",
      "createdAt": "2025-12-28T18:19:33.685Z",
      "updatedAt": "2025-12-28T18:19:33.685Z",
      "stateName": "Alabama",
      "countryName": "United States"
    },
    {
      "id": 12714,
      "stateId": 24,
      "name": "Half Moon Bay",
      "latitude": null,
      "longitude": null,
      "createdAt": "2025-12-28T19:17:43.667Z",
      "updatedAt": "2025-12-28T19:17:43.667Z",
      "stateName": "California",
      "countryName": "United States"
    },
    {
      "id": 13527,
      "stateId": 64,
      "name": "Halfway",
      "latitude": "37.8034989",
      "longitude": "-92.5169818",
      "createdAt": "2025-12-28T19:27:23.428Z",
      "updatedAt": "2025-12-28T19:27:23.428Z",
      "stateName": "Maryland",
      "countryName": "United States"
    },
    {
      "id": 6603,
      "stateId": 41,
      "name": "Haliburton",
      "latitude": "46.9909847",
      "longitude": "-87.5986915",
      "createdAt": "2025-12-28T18:26:07.356Z",
      "updatedAt": "2025-12-28T18:26:07.356Z",
      "stateName": "Ontario",
      "countryName": "Canada"
    },
    {
      "id": 4368,
      "stateId": 509,
      "name": "Halifax",
      "latitude": "44.6453300",
      "longitude": "-63.5723900",
      "createdAt": "2025-12-28T18:17:11.735Z",
      "updatedAt": "2025-12-28T18:17:11.735Z",
      "stateName": "Nova Scotia",
      "countryName": "Canada"
    },
    {
      "id": 4095,
      "stateId": 2,
      "name": "Halifax",
      "latitude": "53.7166700",
      "longitude": "-1.8500000",
      "createdAt": "2025-12-28T18:16:11.473Z",
      "updatedAt": "2025-12-28T18:16:11.473Z",
      "stateName": "England",
      "countryName": "United Kingdom"
    },
    {
      "id": 15610,
      "stateId": 444,
      "name": "Halkirk",
      "latitude": null,
      "longitude": null,
      "createdAt": "2025-12-28T20:12:20.363Z",
      "updatedAt": "2025-12-28T20:12:20.363Z",
      "stateName": "Scotland",
      "countryName": "United Kingdom"
    },
    {
      "id": 10355,
      "stateId": 33,
      "name": "Hallandale Beach",
      "latitude": null,
      "longitude": null,
      "createdAt": "2025-12-28T18:52:19.098Z",
      "updatedAt": "2025-12-28T18:52:19.098Z",
      "stateName": "Florida",
      "countryName": "United States"
    },
    {
      "id": 9802,
      "stateId": 34,
      "name": "Hallbergmoos",
      "latitude": "50.9385735",
      "longitude": "9.5583023",
      "createdAt": "2025-12-28T18:47:18.534Z",
      "updatedAt": "2025-12-28T18:47:18.534Z",
      "stateName": "Bavaria",
      "countryName": "Germany"
    },
    {
      "id": 18272,
      "stateId": 811,
      "name": "Halle",
      "latitude": "50.7338500",
      "longitude": "4.2345400",
      "createdAt": "2026-05-07T08:41:30.442Z",
      "updatedAt": "2026-05-07T08:41:30.442Z",
      "stateName": "Flemish Region",
      "countryName": "Belgium"
    },
    {
      "id": 2936,
      "stateId": 97,
      "name": "Halle",
      "latitude": "50.9385735",
      "longitude": "9.5583023",
      "createdAt": "2025-12-28T18:13:06.512Z",
      "updatedAt": "2025-12-28T18:13:06.512Z",
      "stateName": "Saxony-Anhalt",
      "countryName": "Germany"
    },
    {
      "id": 13191,
      "stateId": 20,
      "name": "Hallettsville",
      "latitude": "37.8034989",
      "longitude": "-92.5169818",
      "createdAt": "2025-12-28T19:21:27.216Z",
      "updatedAt": "2025-12-28T19:21:27.216Z",
      "stateName": "Texas",
      "countryName": "United States"
    },
    {
      "id": 16677,
      "stateId": 8,
      "name": "Hallie",
      "latitude": "37.8034989",
      "longitude": "-92.5169818",
      "createdAt": "2025-12-28T20:50:07.838Z",
      "updatedAt": "2025-12-28T20:50:07.838Z",
      "stateName": "Wisconsin",
      "countryName": "United States"
    },
    {
      "id": 14109,
      "stateId": 44,
      "name": "Halls Creek",
      "latitude": "-33.9811915",
      "longitude": "144.8351072",
      "createdAt": "2025-12-28T19:39:25.328Z",
      "updatedAt": "2025-12-28T19:39:25.328Z",
      "stateName": "Western Australia",
      "countryName": "Australia"
    },
    {
      "id": 16638,
      "stateId": 21,
      "name": "Halls Crossroads",
      "latitude": "37.8034989",
      "longitude": "-92.5169818",
      "createdAt": "2025-12-28T20:48:34.755Z",
      "updatedAt": "2025-12-28T20:48:34.755Z",
      "stateName": "Tennessee",
      "countryName": "United States"
    },
    {
      "id": 10954,
      "stateId": 1163,
      "name": "Hallstahammar",
      "latitude": "58.9901705",
      "longitude": "15.8143176",
      "createdAt": "2025-12-28T18:59:42.860Z",
      "updatedAt": "2025-12-28T18:59:42.860Z",
      "stateName": "Västmanland",
      "countryName": "Sweden"
    },
    {
      "id": 5719,
      "stateId": 20,
      "name": "Hallsville",
      "latitude": "37.8034989",
      "longitude": "-92.5169818",
      "createdAt": "2025-12-28T18:21:59.530Z",
      "updatedAt": "2025-12-28T18:21:59.530Z",
      "stateName": "Texas",
      "countryName": "United States"
    },
    {
      "id": 10351,
      "stateId": 833,
      "name": "Halmstad",
      "latitude": "56.6744600",
      "longitude": "12.8567600",
      "createdAt": "2025-12-28T18:52:17.175Z",
      "updatedAt": "2025-12-28T18:52:17.175Z",
      "stateName": "Halland",
      "countryName": "Sweden"
    },
    {
      "id": 11071,
      "stateId": 20,
      "name": "Haltom City",
      "latitude": "32.7995700",
      "longitude": "-97.2691800",
      "createdAt": "2025-12-28T19:00:42.802Z",
      "updatedAt": "2025-12-28T19:00:42.802Z",
      "stateName": "Texas",
      "countryName": "United States"
    },
    {
      "id": 15995,
      "stateId": 919,
      "name": "Ham",
      "latitude": "50.9010009",
      "longitude": "4.3862404",
      "createdAt": "2025-12-28T20:25:45.174Z",
      "updatedAt": "2025-12-28T20:25:45.174Z",
      "stateName": "Limburg",
      "countryName": "Belgium"
    },
    {
      "id": 10968,
      "stateId": 6,
      "name": "Hamburg",
      "latitude": "37.8034989",
      "longitude": "-92.5169818",
      "createdAt": "2025-12-28T18:59:45.644Z",
      "updatedAt": "2025-12-28T18:59:45.644Z",
      "stateName": "New York",
      "countryName": "United States"
    },
    {
      "id": 35,
      "stateId": 30,
      "name": "Hamburg",
      "latitude": "53.5753200",
      "longitude": "10.0153400",
      "createdAt": "2025-12-28T16:36:32.302Z",
      "updatedAt": "2025-12-28T16:36:32.302Z",
      "stateName": "Hamburg",
      "countryName": "Germany"
    },
    {
      "id": 7618,
      "stateId": 152,
      "name": "Hamden",
      "latitude": "41.3959300",
      "longitude": "-72.8967700",
      "createdAt": "2025-12-28T18:30:52.876Z",
      "updatedAt": "2025-12-28T18:30:52.876Z",
      "stateName": "Connecticut",
      "countryName": "United States"
    },
    {
      "id": 2944,
      "stateId": 515,
      "name": "Hamelin",
      "latitude": "50.9385735",
      "longitude": "9.5583023",
      "createdAt": "2025-12-28T18:13:07.802Z",
      "updatedAt": "2025-12-28T18:13:07.802Z",
      "stateName": "Bremen",
      "countryName": "Germany"
    },
    {
      "id": 58,
      "stateId": 43,
      "name": "Hamilton",
      "latitude": "-37.7833300",
      "longitude": "175.2833300",
      "createdAt": "2025-12-28T16:56:20.254Z",
      "updatedAt": "2025-12-28T16:56:20.254Z",
      "stateName": "Waikato",
      "countryName": "New Zealand"
    },
    {
      "id": 3659,
      "stateId": 153,
      "name": "Hamilton",
      "latitude": "39.3995000",
      "longitude": "-84.5613400",
      "createdAt": "2025-12-28T18:15:00.323Z",
      "updatedAt": "2025-12-28T18:15:00.323Z",
      "stateName": "Montana",
      "countryName": "United States"
    },
    {
      "id": 16763,
      "stateId": 6,
      "name": "Hamilton",
      "latitude": "39.3995000",
      "longitude": "-84.5613400",
      "createdAt": "2025-12-28T20:51:20.700Z",
      "updatedAt": "2025-12-28T20:51:20.700Z",
      "stateName": "New York",
      "countryName": "United States"
    },
    {
      "id": 102,
      "stateId": 41,
      "name": "Hamilton",
      "latitude": "43.2501100",
      "longitude": "-79.8496300",
      "createdAt": "2025-12-28T16:56:24.209Z",
      "updatedAt": "2025-12-28T16:56:24.209Z",
      "stateName": "Ontario",
      "countryName": "Canada"
    },
    {
      "id": 11106,
      "stateId": 14,
      "name": "Hamilton",
      "latitude": "39.3995000",
      "longitude": "-84.5613400",
      "createdAt": "2025-12-28T19:01:07.164Z",
      "updatedAt": "2025-12-28T19:01:07.164Z",
      "stateName": "Ohio",
      "countryName": "United States"
    },
    {
      "id": 12060,
      "stateId": 106,
      "name": "Hamilton",
      "latitude": "37.8034989",
      "longitude": "-92.5169818",
      "createdAt": "2025-12-28T19:11:57.134Z",
      "updatedAt": "2025-12-28T19:11:57.134Z",
      "stateName": "New Jersey",
      "countryName": "United States"
    },
    {
      "id": 15537,
      "stateId": 444,
      "name": "Hamilton",
      "latitude": null,
      "longitude": null,
      "createdAt": "2025-12-28T20:10:09.875Z",
      "updatedAt": "2025-12-28T20:10:09.875Z",
      "stateName": "Scotland",
      "countryName": "United Kingdom"
    },
    {
      "id": 17275,
      "stateId": 13,
      "name": "Hamilton",
      "latitude": "-33.9811915",
      "longitude": "144.8351072",
      "createdAt": "2025-12-29T16:16:51.131Z",
      "updatedAt": "2025-12-29T16:16:51.131Z",
      "stateName": "Victoria",
      "countryName": "Australia"
    },
    {
      "id": 12413,
      "stateId": 20,
      "name": "Hamilton",
      "latitude": "39.3995000",
      "longitude": "-84.5613400",
      "createdAt": "2025-12-28T19:15:50.699Z",
      "updatedAt": "2025-12-28T19:15:50.699Z",
      "stateName": "Texas",
      "countryName": "United States"
    },
    {
      "id": 17801,
      "stateId": 2,
      "name": "Hamilton",
      "latitude": null,
      "longitude": null,
      "createdAt": "2026-03-02T09:43:39.182Z",
      "updatedAt": "2026-03-02T09:43:39.182Z",
      "stateName": "England",
      "countryName": "United Kingdom"
    },
    {
      "id": 2609,
      "stateId": 342,
      "name": "Hamirpur",
      "latitude": "31.6841100",
      "longitude": "76.5250600",
      "createdAt": "2025-12-28T18:12:36.800Z",
      "updatedAt": "2025-12-28T18:12:36.800Z",
      "stateName": "Himachal Pradesh",
      "countryName": "India"
    },
    {
      "id": 14362,
      "stateId": 55,
      "name": "Hamlet",
      "latitude": "37.8034989",
      "longitude": "-92.5169818",
      "createdAt": "2025-12-28T19:43:32.116Z",
      "updatedAt": "2025-12-28T19:43:32.116Z",
      "stateName": "North Carolina",
      "countryName": "United States"
    },
    {
      "id": 12470,
      "stateId": 20,
      "name": "Hamlin",
      "latitude": "37.8034989",
      "longitude": "-92.5169818",
      "createdAt": "2025-12-28T19:16:00.497Z",
      "updatedAt": "2025-12-28T19:16:00.497Z",
      "stateName": "Texas",
      "countryName": "United States"
    },
    {
      "id": 5179,
      "stateId": 432,
      "name": "Hamm",
      "latitude": "51.6803300",
      "longitude": "7.8208900",
      "createdAt": "2025-12-28T18:20:05.833Z",
      "updatedAt": "2025-12-28T18:20:05.833Z",
      "stateName": "North Rhine-Westphalia",
      "countryName": "Germany"
    },
    {
      "id": 5123,
      "stateId": 840,
      "name": "Hammerfest",
      "latitude": "61.1229964",
      "longitude": "9.8057761",
      "createdAt": "2025-12-28T18:19:36.281Z",
      "updatedAt": "2025-12-28T18:19:36.281Z",
      "stateName": "Finnmark",
      "countryName": "Norway"
    },
    {
      "id": 11292,
      "stateId": 151,
      "name": "Hammon",
      "latitude": "41.5833700",
      "longitude": "-87.5000400",
      "createdAt": "2025-12-28T19:03:46.047Z",
      "updatedAt": "2025-12-28T19:03:46.047Z",
      "stateName": "Oklahoma",
      "countryName": "United States"
    },
    {
      "id": 3737,
      "stateId": 51,
      "name": "Hammond",
      "latitude": "41.5833700",
      "longitude": "-87.5000400",
      "createdAt": "2025-12-28T18:15:09.092Z",
      "updatedAt": "2025-12-28T18:15:09.092Z",
      "stateName": "Indiana",
      "countryName": "United States"
    },
    {
      "id": 5693,
      "stateId": 16,
      "name": "Hammond",
      "latitude": "30.5043600",
      "longitude": "-90.4612000",
      "createdAt": "2025-12-28T18:21:55.472Z",
      "updatedAt": "2025-12-28T18:21:55.472Z",
      "stateName": "Louisiana",
      "countryName": "United States"
    },
    {
      "id": 7953,
      "stateId": 106,
      "name": "Hammonton",
      "latitude": "37.8034989",
      "longitude": "-92.5169818",
      "createdAt": "2025-12-28T18:33:21.553Z",
      "updatedAt": "2025-12-28T18:33:21.553Z",
      "stateName": "New Jersey",
      "countryName": "United States"
    },
    {
      "id": 2498,
      "stateId": 47,
      "name": "Hampden",
      "latitude": "37.8034989",
      "longitude": "-92.5169818",
      "createdAt": "2025-12-28T18:12:17.873Z",
      "updatedAt": "2025-12-28T18:12:17.873Z",
      "stateName": "Massachusetts",
      "countryName": "United States"
    },
    {
      "id": 10781,
      "stateId": 22,
      "name": "Hampton",
      "latitude": "37.0298700",
      "longitude": "-76.3452200",
      "createdAt": "2025-12-28T18:57:33.640Z",
      "updatedAt": "2025-12-28T18:57:33.640Z",
      "stateName": "Georgia",
      "countryName": "United States"
    },
    {
      "id": 11679,
      "stateId": 113,
      "name": "Hampton",
      "latitude": "37.0298700",
      "longitude": "-76.3452200",
      "createdAt": "2025-12-28T19:08:36.334Z",
      "updatedAt": "2025-12-28T19:08:36.334Z",
      "stateName": "Iowa",
      "countryName": "United States"
    },
    {
      "id": 12550,
      "stateId": 32,
      "name": "Hampton",
      "latitude": "37.0298700",
      "longitude": "-76.3452200",
      "createdAt": "2025-12-28T19:16:36.574Z",
      "updatedAt": "2025-12-28T19:16:36.574Z",
      "stateName": "Arkansas",
      "countryName": "United States"
    },
    {
      "id": 10995,
      "stateId": 50,
      "name": "Hampton",
      "latitude": "37.0298700",
      "longitude": "-76.3452200",
      "createdAt": "2025-12-28T19:00:01.602Z",
      "updatedAt": "2025-12-28T19:00:01.602Z",
      "stateName": "Virginia",
      "countryName": "United States"
    },
    {
      "id": 11010,
      "stateId": 6,
      "name": "Hampton Bays",
      "latitude": "37.8034989",
      "longitude": "-92.5169818",
      "createdAt": "2025-12-28T19:00:09.911Z",
      "updatedAt": "2025-12-28T19:00:09.911Z",
      "stateName": "New York",
      "countryName": "United States"
    },
    {
      "id": 8498,
      "stateId": 702,
      "name": "Hamtic",
      "latitude": "12.5023632",
      "longitude": "122.3310559",
      "createdAt": "2025-12-28T18:38:54.114Z",
      "updatedAt": "2025-12-28T18:38:54.114Z",
      "stateName": "Antique",
      "countryName": "Philippines"
    },
    {
      "id": 16490,
      "stateId": 92,
      "name": "Hamtramck",
      "latitude": "42.3928200",
      "longitude": "-83.0496400",
      "createdAt": "2025-12-28T20:44:58.073Z",
      "updatedAt": "2025-12-28T20:44:58.073Z",
      "stateName": "Michigan",
      "countryName": "United States"
    },
    {
      "id": 12741,
      "stateId": 128,
      "name": "Hana",
      "latitude": null,
      "longitude": null,
      "createdAt": "2025-12-28T19:18:15.850Z",
      "updatedAt": "2025-12-28T19:18:15.850Z",
      "stateName": "Hawaii",
      "countryName": "United States"
    },
    {
      "id": 6752,
      "stateId": 145,
      "name": "Hanahan",
      "latitude": "32.9185100",
      "longitude": "-80.0220300",
      "createdAt": "2025-12-28T18:26:58.255Z",
      "updatedAt": "2025-12-28T18:26:58.255Z",
      "stateName": "South Carolina",
      "countryName": "United States"
    },
    {
      "id": 7385,
      "stateId": 128,
      "name": "Hanalei",
      "latitude": "37.8034989",
      "longitude": "-92.5169818",
      "createdAt": "2025-12-28T18:29:52.113Z",
      "updatedAt": "2025-12-28T18:29:52.113Z",
      "stateName": "Hawaii",
      "countryName": "United States"
    },
    {
      "id": 8585,
      "stateId": 92,
      "name": "Hancock",
      "latitude": "37.8034989",
      "longitude": "-92.5169818",
      "createdAt": "2025-12-28T18:39:19.119Z",
      "updatedAt": "2025-12-28T18:39:19.119Z",
      "stateName": "Michigan",
      "countryName": "United States"
    },
    {
      "id": 10966,
      "stateId": 501,
      "name": "Handen",
      "latitude": "58.9901705",
      "longitude": "15.8143176",
      "createdAt": "2025-12-28T18:59:44.861Z",
      "updatedAt": "2025-12-28T18:59:44.861Z",
      "stateName": "Södermanland",
      "countryName": "Sweden"
    },
    {
      "id": 18215,
      "stateId": 1242,
      "name": "Handen",
      "latitude": "58.9901705",
      "longitude": "15.8143176",
      "createdAt": "2026-04-27T00:52:00.226Z",
      "updatedAt": "2026-04-27T00:52:00.226Z",
      "stateName": "Stockholm",
      "countryName": "Sweden"
    },
    {
      "id": 12004,
      "stateId": 24,
      "name": "Hanford",
      "latitude": "36.3274500",
      "longitude": "-119.6456800",
      "createdAt": "2025-12-28T19:11:23.932Z",
      "updatedAt": "2025-12-28T19:11:23.932Z",
      "stateName": "California",
      "countryName": "United States"
    },
    {
      "id": 18339,
      "stateId": 703,
      "name": "Hangzhou",
      "latitude": "34.2982540",
      "longitude": "115.9128014",
      "createdAt": "2026-05-17T15:41:54.277Z",
      "updatedAt": "2026-05-17T15:41:54.277Z",
      "stateName": "Zhejiang",
      "countryName": "China"
    },
    {
      "id": 10951,
      "stateId": 501,
      "name": "Haninge",
      "latitude": "59.1677500",
      "longitude": "18.1447800",
      "createdAt": "2025-12-28T18:59:42.399Z",
      "updatedAt": "2025-12-28T18:59:42.399Z",
      "stateName": "Södermanland",
      "countryName": "Sweden"
    },
    {
      "id": 14077,
      "stateId": 51,
      "name": "Hanna",
      "latitude": "37.8034989",
      "longitude": "-92.5169818",
      "createdAt": "2025-12-28T19:38:42.750Z",
      "updatedAt": "2025-12-28T19:38:42.750Z",
      "stateName": "Indiana",
      "countryName": "United States"
    },
    {
      "id": 7505,
      "stateId": 112,
      "name": "Hannibal",
      "latitude": "39.7083800",
      "longitude": "-91.3584800",
      "createdAt": "2025-12-28T18:30:25.133Z",
      "updatedAt": "2025-12-28T18:30:25.133Z",
      "stateName": "Missouri",
      "countryName": "United States"
    },
    {
      "id": 1705,
      "stateId": 212,
      "name": "Hannoversch Münden",
      "latitude": "51.4150500",
      "longitude": "9.6504600",
      "createdAt": "2025-12-28T18:01:58.821Z",
      "updatedAt": "2025-12-28T18:01:58.821Z",
      "stateName": "Lower Saxony",
      "countryName": "Germany"
    },
    {
      "id": 17739,
      "stateId": 588,
      "name": "Hannut",
      "latitude": "50.9010009",
      "longitude": "4.3862404",
      "createdAt": "2026-02-14T11:00:21.912Z",
      "updatedAt": "2026-02-14T11:00:21.912Z",
      "stateName": "Liège",
      "countryName": "Belgium"
    },
    {
      "id": 9085,
      "stateId": 50,
      "name": "Hanover",
      "latitude": null,
      "longitude": null,
      "createdAt": "2025-12-28T18:41:49.270Z",
      "updatedAt": "2025-12-28T18:41:49.270Z",
      "stateName": "Virginia",
      "countryName": "United States"
    },
    {
      "id": 433,
      "stateId": 212,
      "name": "Hanover",
      "latitude": "52.3705200",
      "longitude": "9.7332200",
      "createdAt": "2025-12-28T17:00:50.032Z",
      "updatedAt": "2025-12-28T17:00:50.032Z",
      "stateName": "Lower Saxony",
      "countryName": "Germany"
    },
    {
      "id": 7857,
      "stateId": 114,
      "name": "Hanover",
      "latitude": "37.8034989",
      "longitude": "-92.5169818",
      "createdAt": "2025-12-28T18:32:45.500Z",
      "updatedAt": "2025-12-28T18:32:45.500Z",
      "stateName": "New Hampshire",
      "countryName": "United States"
    },
    {
      "id": 10959,
      "stateId": 68,
      "name": "Hanover",
      "latitude": "39.8006600",
      "longitude": "-76.9830400",
      "createdAt": "2025-12-28T18:59:44.125Z",
      "updatedAt": "2025-12-28T18:59:44.125Z",
      "stateName": "Pennsylvania",
      "countryName": "United States"
    },
    {
      "id": 5478,
      "stateId": 41,
      "name": "Hanover",
      "latitude": "46.9909847",
      "longitude": "-87.5986915",
      "createdAt": "2025-12-28T18:21:02.874Z",
      "updatedAt": "2025-12-28T18:21:02.874Z",
      "stateName": "Ontario",
      "countryName": "Canada"
    },
    {
      "id": 10440,
      "stateId": 212,
      "name": "Hanover-Mitte",
      "latitude": null,
      "longitude": null,
      "createdAt": "2025-12-28T18:53:20.414Z",
      "updatedAt": "2025-12-28T18:53:20.414Z",
      "stateName": "Lower Saxony",
      "countryName": "Germany"
    },
    {
      "id": 12541,
      "stateId": 96,
      "name": "Hapert",
      "latitude": "52.0575321",
      "longitude": "5.3403480",
      "createdAt": "2025-12-28T19:16:35.150Z",
      "updatedAt": "2025-12-28T19:16:35.150Z",
      "stateName": "North Brabant",
      "countryName": "Netherlands"
    },
    {
      "id": 15670,
      "stateId": 22,
      "name": "Hapeville",
      "latitude": "37.8034989",
      "longitude": "-92.5169818",
      "createdAt": "2025-12-28T20:14:21.547Z",
      "updatedAt": "2025-12-28T20:14:21.547Z",
      "stateName": "Georgia",
      "countryName": "United States"
    },
    {
      "id": 12186,
      "stateId": 24,
      "name": "Happy Camp",
      "latitude": "37.8034989",
      "longitude": "-92.5169818",
      "createdAt": "2025-12-28T19:13:38.511Z",
      "updatedAt": "2025-12-28T19:13:38.511Z",
      "stateName": "California",
      "countryName": "United States"
    },
    {
      "id": 4781,
      "stateId": 360,
      "name": "Happy Valley-Goose Bay",
      "latitude": "46.9909847",
      "longitude": "-87.5986915",
      "createdAt": "2025-12-28T18:18:40.575Z",
      "updatedAt": "2025-12-28T18:18:40.575Z",
      "stateName": "Newfoundland and Labrador",
      "countryName": "Canada"
    },
    {
      "id": 668,
      "stateId": 315,
      "name": "Harare",
      "latitude": "-17.8277200",
      "longitude": "31.0533700",
      "createdAt": "2025-12-28T17:01:18.930Z",
      "updatedAt": "2025-12-28T17:01:18.930Z",
      "stateName": "Harare",
      "countryName": "Zimbabwe"
    },
    {
      "id": 15666,
      "stateId": 92,
      "name": "Harbor Beach",
      "latitude": "37.8034989",
      "longitude": "-92.5169818",
      "createdAt": "2025-12-28T20:14:17.842Z",
      "updatedAt": "2025-12-28T20:14:17.842Z",
      "stateName": "Michigan",
      "countryName": "United States"
    },
    {
      "id": 10982,
      "stateId": 2,
      "name": "Harborough Magna",
      "latitude": "52.7709249",
      "longitude": "-1.7304307",
      "createdAt": "2025-12-28T18:59:55.435Z",
      "updatedAt": "2025-12-28T18:59:55.435Z",
      "stateName": "England",
      "countryName": "United Kingdom"
    },
    {
      "id": 7267,
      "stateId": 92,
      "name": "Harbor Springs",
      "latitude": "37.8034989",
      "longitude": "-92.5169818",
      "createdAt": "2025-12-28T18:29:05.805Z",
      "updatedAt": "2025-12-28T18:29:05.805Z",
      "stateName": "Michigan",
      "countryName": "United States"
    },
    {
      "id": 15424,
      "stateId": 145,
      "name": "Hardeeville",
      "latitude": "37.8034989",
      "longitude": "-92.5169818",
      "createdAt": "2025-12-28T20:05:32.411Z",
      "updatedAt": "2025-12-28T20:05:32.411Z",
      "stateName": "South Carolina",
      "countryName": "United States"
    },
    {
      "id": 452,
      "stateId": 220,
      "name": "Hardenberg",
      "latitude": "52.5758300",
      "longitude": "6.6194400",
      "createdAt": "2025-12-28T17:00:50.906Z",
      "updatedAt": "2025-12-28T17:00:50.906Z",
      "stateName": "Overijssel",
      "countryName": "Netherlands"
    },
    {
      "id": 10991,
      "stateId": 213,
      "name": "Harderwijk",
      "latitude": "52.3416700",
      "longitude": "5.6208300",
      "createdAt": "2025-12-28T19:00:01.246Z",
      "updatedAt": "2025-12-28T19:00:01.246Z",
      "stateName": "Gelderland",
      "countryName": "Netherlands"
    },
    {
      "id": 12719,
      "stateId": 153,
      "name": "Hardin",
      "latitude": "37.8034989",
      "longitude": "-92.5169818",
      "createdAt": "2025-12-28T19:17:46.418Z",
      "updatedAt": "2025-12-28T19:17:46.418Z",
      "stateName": "Montana",
      "countryName": "United States"
    },
    {
      "id": 13334,
      "stateId": 402,
      "name": "Harding",
      "latitude": null,
      "longitude": null,
      "createdAt": "2025-12-28T19:23:07.309Z",
      "updatedAt": "2025-12-28T19:23:07.309Z",
      "stateName": "KwaZulu-Natal Prov.",
      "countryName": "South Africa"
    },
    {
      "id": 12589,
      "stateId": 80,
      "name": "Hardinsburg",
      "latitude": "37.8034989",
      "longitude": "-92.5169818",
      "createdAt": "2025-12-28T19:16:56.945Z",
      "updatedAt": "2025-12-28T19:16:56.945Z",
      "stateName": "Kentucky",
      "countryName": "United States"
    },
    {
      "id": 16556,
      "stateId": 51,
      "name": "Hardinsburg",
      "latitude": "37.8034989",
      "longitude": "-92.5169818",
      "createdAt": "2025-12-28T20:47:03.577Z",
      "updatedAt": "2025-12-28T20:47:03.577Z",
      "stateName": "Indiana",
      "countryName": "United States"
    },
    {
      "id": 13477,
      "stateId": 2,
      "name": "Haringey",
      "latitude": "52.7709249",
      "longitude": "-1.7304307",
      "createdAt": "2025-12-28T19:25:57.818Z",
      "updatedAt": "2025-12-28T19:25:57.818Z",
      "stateName": "England",
      "countryName": "United Kingdom"
    },
    {
      "id": 15719,
      "stateId": 102,
      "name": "Harkema",
      "latitude": null,
      "longitude": null,
      "createdAt": "2025-12-28T20:16:24.778Z",
      "updatedAt": "2025-12-28T20:16:24.778Z",
      "stateName": "Friesland",
      "countryName": "Netherlands"
    },
    {
      "id": 6006,
      "stateId": 20,
      "name": "Harker Heights",
      "latitude": "31.0835100",
      "longitude": "-97.6597400",
      "createdAt": "2025-12-28T18:22:50.158Z",
      "updatedAt": "2025-12-28T18:22:50.158Z",
      "stateName": "Texas",
      "countryName": "United States"
    },
    {
      "id": 11726,
      "stateId": 113,
      "name": "Harlan",
      "latitude": "37.8034989",
      "longitude": "-92.5169818",
      "createdAt": "2025-12-28T19:08:48.730Z",
      "updatedAt": "2025-12-28T19:08:48.730Z",
      "stateName": "Iowa",
      "countryName": "United States"
    }
  ],
  "meta": {
    "page": 66,
    "limit": 100,
    "total": 18002,
    "totalPages": 181
  }
}
