{
  "source": "50k-radio-stations",
  "provider": "rapidapi",
  "syncedAt": "2026-06-03T13:05:15.980Z",
  "endpoint": "/cities",
  "page": 91,
  "limit": 250,
  "data": [
    {
      "id": 18332,
      "stateId": 1458,
      "name": "Lhasa",
      "latitude": null,
      "longitude": null,
      "createdAt": "2026-05-16T23:02:35.828Z",
      "updatedAt": "2026-05-16T23:02:35.828Z",
      "stateName": "Tibet",
      "countryName": "China"
    },
    {
      "id": 2000,
      "stateId": 531,
      "name": "Lhokseumawe",
      "latitude": "5.1801000",
      "longitude": "97.1507000",
      "createdAt": "2025-12-28T18:10:38.151Z",
      "updatedAt": "2025-12-28T18:10:38.151Z",
      "stateName": "Aceh",
      "countryName": "Indonesia"
    },
    {
      "id": 11266,
      "stateId": 973,
      "name": "L'Hospitalet de l'Infant",
      "latitude": null,
      "longitude": null,
      "createdAt": "2025-12-28T19:03:38.155Z",
      "updatedAt": "2025-12-28T19:03:38.155Z",
      "stateName": "Tarragona",
      "countryName": "Spain"
    },
    {
      "id": 3557,
      "stateId": 115,
      "name": "L'Hospitalet de Llobregat",
      "latitude": "41.3596700",
      "longitude": "2.1002800",
      "createdAt": "2025-12-28T18:14:49.498Z",
      "updatedAt": "2025-12-28T18:14:49.498Z",
      "stateName": "Barcelona",
      "countryName": "Spain"
    },
    {
      "id": 9170,
      "stateId": 365,
      "name": "Líbano",
      "latitude": "4.9218000",
      "longitude": "-75.0623200",
      "createdAt": "2025-12-28T18:42:20.045Z",
      "updatedAt": "2025-12-28T18:42:20.045Z",
      "stateName": "Tolima",
      "countryName": "Colombia"
    },
    {
      "id": 12724,
      "stateId": 153,
      "name": "Libby",
      "latitude": "37.8034989",
      "longitude": "-92.5169818",
      "createdAt": "2025-12-28T19:17:47.323Z",
      "updatedAt": "2025-12-28T19:17:47.323Z",
      "stateName": "Montana",
      "countryName": "United States"
    },
    {
      "id": 12867,
      "stateId": 31,
      "name": "Liberal",
      "latitude": "37.0430800",
      "longitude": "-100.9210000",
      "createdAt": "2025-12-28T19:19:15.527Z",
      "updatedAt": "2025-12-28T19:19:15.527Z",
      "stateName": "Kansas",
      "countryName": "United States"
    },
    {
      "id": 18070,
      "stateId": 205,
      "name": "Liberato Salzano",
      "latitude": null,
      "longitude": null,
      "createdAt": "2026-03-30T18:42:26.387Z",
      "updatedAt": "2026-03-30T18:42:26.387Z",
      "stateName": "Rio Grande do Sul",
      "countryName": "Brazil"
    },
    {
      "id": 17584,
      "stateId": 945,
      "name": "Liberia",
      "latitude": null,
      "longitude": null,
      "createdAt": "2026-01-23T19:10:39.344Z",
      "updatedAt": "2026-01-23T19:10:39.344Z",
      "stateName": "Guanacaste",
      "countryName": "Costa Rica"
    },
    {
      "id": 6051,
      "stateId": 80,
      "name": "Liberty",
      "latitude": "37.8034989",
      "longitude": "-92.5169818",
      "createdAt": "2025-12-28T18:23:09.334Z",
      "updatedAt": "2025-12-28T18:23:09.334Z",
      "stateName": "Kentucky",
      "countryName": "United States"
    },
    {
      "id": 13652,
      "stateId": 145,
      "name": "Liberty",
      "latitude": "39.2461100",
      "longitude": "-94.4191200",
      "createdAt": "2025-12-28T19:29:14.960Z",
      "updatedAt": "2025-12-28T19:29:14.960Z",
      "stateName": "South Carolina",
      "countryName": "United States"
    },
    {
      "id": 12709,
      "stateId": 20,
      "name": "Liberty",
      "latitude": "39.2461100",
      "longitude": "-94.4191200",
      "createdAt": "2025-12-28T19:17:42.930Z",
      "updatedAt": "2025-12-28T19:17:42.930Z",
      "stateName": "Texas",
      "countryName": "United States"
    },
    {
      "id": 12415,
      "stateId": 112,
      "name": "Liberty",
      "latitude": "39.2461100",
      "longitude": "-94.4191200",
      "createdAt": "2025-12-28T19:15:51.180Z",
      "updatedAt": "2025-12-28T19:15:51.180Z",
      "stateName": "Missouri",
      "countryName": "United States"
    },
    {
      "id": 14292,
      "stateId": 6,
      "name": "Liberty",
      "latitude": "39.2461100",
      "longitude": "-94.4191200",
      "createdAt": "2025-12-28T19:43:10.900Z",
      "updatedAt": "2025-12-28T19:43:10.900Z",
      "stateName": "New York",
      "countryName": "United States"
    },
    {
      "id": 16282,
      "stateId": 401,
      "name": "Liberty",
      "latitude": "39.2461100",
      "longitude": "-94.4191200",
      "createdAt": "2025-12-28T20:40:35.075Z",
      "updatedAt": "2025-12-28T20:40:35.075Z",
      "stateName": "Mississippi",
      "countryName": "United States"
    },
    {
      "id": 10971,
      "stateId": 440,
      "name": "Libmanan",
      "latitude": null,
      "longitude": null,
      "createdAt": "2025-12-28T18:59:49.041Z",
      "updatedAt": "2025-12-28T18:59:49.041Z",
      "stateName": "Camarines Sur",
      "countryName": "Philippines"
    },
    {
      "id": 3859,
      "stateId": 208,
      "name": "Libourne",
      "latitude": "44.9166700",
      "longitude": "-0.2333300",
      "createdAt": "2025-12-28T18:15:24.712Z",
      "updatedAt": "2025-12-28T18:15:24.712Z",
      "stateName": "Aquitaine",
      "countryName": "France"
    },
    {
      "id": 8933,
      "stateId": 187,
      "name": "Libres",
      "latitude": null,
      "longitude": null,
      "createdAt": "2025-12-28T18:41:03.718Z",
      "updatedAt": "2025-12-28T18:41:03.718Z",
      "stateName": "Puebla",
      "countryName": "Mexico"
    },
    {
      "id": 17254,
      "stateId": 207,
      "name": "Licata",
      "latitude": "37.1026700",
      "longitude": "13.9397200",
      "createdAt": "2025-12-29T16:13:34.473Z",
      "updatedAt": "2025-12-29T16:13:34.473Z",
      "stateName": "Sicily",
      "countryName": "Italy"
    },
    {
      "id": 8551,
      "stateId": 1048,
      "name": "Lichfield",
      "latitude": null,
      "longitude": null,
      "createdAt": "2025-12-28T18:39:12.781Z",
      "updatedAt": "2025-12-28T18:39:12.781Z",
      "stateName": "West Midlands",
      "countryName": "United Kingdom"
    },
    {
      "id": 17161,
      "stateId": 498,
      "name": "Lichtaart",
      "latitude": null,
      "longitude": null,
      "createdAt": "2025-12-29T15:43:41.422Z",
      "updatedAt": "2025-12-29T15:43:41.422Z",
      "stateName": "Antwerp",
      "countryName": "Belgium"
    },
    {
      "id": 13543,
      "stateId": 137,
      "name": "Lidianópolis",
      "latitude": null,
      "longitude": null,
      "createdAt": "2025-12-28T19:27:35.111Z",
      "updatedAt": "2025-12-28T19:27:35.111Z",
      "stateName": "Paraná",
      "countryName": "Brazil"
    },
    {
      "id": 15838,
      "stateId": 814,
      "name": "Lidkoping",
      "latitude": "58.9901705",
      "longitude": "15.8143176",
      "createdAt": "2025-12-28T20:20:30.309Z",
      "updatedAt": "2025-12-28T20:20:30.309Z",
      "stateName": "Västra Götaland",
      "countryName": "Sweden"
    },
    {
      "id": 3622,
      "stateId": 588,
      "name": "Liege",
      "latitude": "50.9010009",
      "longitude": "4.3862404",
      "createdAt": "2025-12-28T18:14:59.035Z",
      "updatedAt": "2025-12-28T18:14:59.035Z",
      "stateName": "Liège",
      "countryName": "Belgium"
    },
    {
      "id": 4392,
      "stateId": 765,
      "name": "Lienz",
      "latitude": "47.7354320",
      "longitude": "14.0841889",
      "createdAt": "2025-12-28T18:17:19.336Z",
      "updatedAt": "2025-12-28T18:17:19.336Z",
      "stateName": "Osttirol",
      "countryName": "Austria"
    },
    {
      "id": 8518,
      "stateId": 829,
      "name": "Ligao",
      "latitude": null,
      "longitude": null,
      "createdAt": "2025-12-28T18:38:59.113Z",
      "updatedAt": "2025-12-28T18:38:59.113Z",
      "stateName": "Albay",
      "countryName": "Philippines"
    },
    {
      "id": 17184,
      "stateId": 68,
      "name": "Ligonier",
      "latitude": "37.8034989",
      "longitude": "-92.5169818",
      "createdAt": "2025-12-29T15:49:43.960Z",
      "updatedAt": "2025-12-29T15:49:43.960Z",
      "stateName": "Pennsylvania",
      "countryName": "United States"
    },
    {
      "id": 10244,
      "stateId": 51,
      "name": "Ligonier",
      "latitude": "37.8034989",
      "longitude": "-92.5169818",
      "createdAt": "2025-12-28T18:51:21.608Z",
      "updatedAt": "2025-12-28T18:51:21.608Z",
      "stateName": "Indiana",
      "countryName": "United States"
    },
    {
      "id": 11967,
      "stateId": 128,
      "name": "Lihue",
      "latitude": "37.8034989",
      "longitude": "-92.5169818",
      "createdAt": "2025-12-28T19:10:59.285Z",
      "updatedAt": "2025-12-28T19:10:59.285Z",
      "stateName": "Hawaii",
      "countryName": "United States"
    },
    {
      "id": 18229,
      "stateId": 22,
      "name": "Lilburn",
      "latitude": "37.8034989",
      "longitude": "-92.5169818",
      "createdAt": "2026-04-29T03:10:19.718Z",
      "updatedAt": "2026-04-29T03:10:19.718Z",
      "stateName": "Georgia",
      "countryName": "United States"
    },
    {
      "id": 1211,
      "stateId": 426,
      "name": "Lille",
      "latitude": "50.6329700",
      "longitude": "3.0585800",
      "createdAt": "2025-12-28T17:03:18.288Z",
      "updatedAt": "2025-12-28T17:03:18.288Z",
      "stateName": "Hauts-de-France",
      "countryName": "France"
    },
    {
      "id": 2957,
      "stateId": 649,
      "name": "Lillestrom",
      "latitude": null,
      "longitude": null,
      "createdAt": "2025-12-28T18:13:10.903Z",
      "updatedAt": "2025-12-28T18:13:10.903Z",
      "stateName": "Akershus",
      "countryName": "Norway"
    },
    {
      "id": 8540,
      "stateId": 14,
      "name": "Lima",
      "latitude": "40.7425500",
      "longitude": "-84.1052300",
      "createdAt": "2025-12-28T18:39:10.568Z",
      "updatedAt": "2025-12-28T18:39:10.568Z",
      "stateName": "Ohio",
      "countryName": "United States"
    },
    {
      "id": 17340,
      "stateId": 58,
      "name": "Lima",
      "latitude": null,
      "longitude": null,
      "createdAt": "2025-12-29T19:36:30.163Z",
      "updatedAt": "2025-12-29T19:36:30.163Z",
      "stateName": "Buenos Aires",
      "countryName": "Argentina"
    },
    {
      "id": 4275,
      "stateId": 335,
      "name": "Lima Campos",
      "latitude": null,
      "longitude": null,
      "createdAt": "2025-12-28T18:16:42.548Z",
      "updatedAt": "2025-12-28T18:16:42.548Z",
      "stateName": "Maranhão",
      "countryName": "Brazil"
    },
    {
      "id": 8437,
      "stateId": 95,
      "name": "Lima Duarte",
      "latitude": null,
      "longitude": null,
      "createdAt": "2025-12-28T18:38:19.723Z",
      "updatedAt": "2025-12-28T18:38:19.723Z",
      "stateName": "Minas Gerais",
      "countryName": "Brazil"
    },
    {
      "id": 4658,
      "stateId": 37,
      "name": "Limans",
      "latitude": "47.3768156",
      "longitude": "2.7742767",
      "createdAt": "2025-12-28T18:18:15.343Z",
      "updatedAt": "2025-12-28T18:18:15.343Z",
      "stateName": "Provence-Alpes-Côte d'Azur",
      "countryName": "France"
    },
    {
      "id": 9551,
      "stateId": 93,
      "name": "Limbach-Oberfrohna",
      "latitude": "50.8588200",
      "longitude": "12.7616500",
      "createdAt": "2025-12-28T18:45:13.221Z",
      "updatedAt": "2025-12-28T18:45:13.221Z",
      "stateName": "Saxony",
      "countryName": "Germany"
    },
    {
      "id": 15467,
      "stateId": 409,
      "name": "Limbang",
      "latitude": "4.7500000",
      "longitude": "115.0000000",
      "createdAt": "2025-12-28T20:07:25.910Z",
      "updatedAt": "2025-12-28T20:07:25.910Z",
      "stateName": "Sarawak",
      "countryName": "Malaysia"
    },
    {
      "id": 17966,
      "stateId": 98,
      "name": "Limbiate",
      "latitude": "45.6001600",
      "longitude": "9.1283300",
      "createdAt": "2026-03-21T15:40:22.586Z",
      "updatedAt": "2026-03-21T15:40:22.586Z",
      "stateName": "Lombardy",
      "countryName": "Italy"
    },
    {
      "id": 2489,
      "stateId": 4,
      "name": "Limeira",
      "latitude": "-22.5647200",
      "longitude": "-47.4016700",
      "createdAt": "2025-12-28T18:12:17.303Z",
      "updatedAt": "2025-12-28T18:12:17.303Z",
      "stateName": "São Paulo",
      "countryName": "Brazil"
    },
    {
      "id": 14482,
      "stateId": 95,
      "name": "Limeira do Oeste",
      "latitude": null,
      "longitude": null,
      "createdAt": "2025-12-28T19:44:30.009Z",
      "updatedAt": "2025-12-28T19:44:30.009Z",
      "stateName": "Minas Gerais",
      "countryName": "Brazil"
    },
    {
      "id": 7620,
      "stateId": 7,
      "name": "Limoeiro",
      "latitude": null,
      "longitude": null,
      "createdAt": "2025-12-28T18:30:58.807Z",
      "updatedAt": "2025-12-28T18:30:58.807Z",
      "stateName": "Pernambuco",
      "countryName": "Brazil"
    },
    {
      "id": 17713,
      "stateId": 159,
      "name": "Limoeiro do Ajuru",
      "latitude": null,
      "longitude": null,
      "createdAt": "2026-02-10T22:20:28.321Z",
      "updatedAt": "2026-02-10T22:20:28.321Z",
      "stateName": "Pará",
      "countryName": "Brazil"
    },
    {
      "id": 6551,
      "stateId": 231,
      "name": "Limoeiro Do Norte",
      "latitude": "-5.1455600",
      "longitude": "-38.0980600",
      "createdAt": "2025-12-28T18:25:50.292Z",
      "updatedAt": "2025-12-28T18:25:50.292Z",
      "stateName": "Ceará",
      "countryName": "Brazil"
    },
    {
      "id": 4772,
      "stateId": 719,
      "name": "Limoges",
      "latitude": "45.8315300",
      "longitude": "1.2578100",
      "createdAt": "2025-12-28T18:18:39.508Z",
      "updatedAt": "2025-12-28T18:18:39.508Z",
      "stateName": "Limousin",
      "countryName": "France"
    },
    {
      "id": 17999,
      "stateId": 481,
      "name": "Limoges",
      "latitude": "45.8315300",
      "longitude": "1.2578100",
      "createdAt": "2026-03-27T13:32:31.737Z",
      "updatedAt": "2026-03-27T13:32:31.737Z",
      "stateName": "Nouvelle-Aquitaine",
      "countryName": "France"
    },
    {
      "id": 4594,
      "stateId": 792,
      "name": "Limón",
      "latitude": "9.9907400",
      "longitude": "-83.0359600",
      "createdAt": "2025-12-28T18:18:04.180Z",
      "updatedAt": "2025-12-28T18:18:04.180Z",
      "stateName": "Limon",
      "countryName": "Costa Rica"
    },
    {
      "id": 2421,
      "stateId": 453,
      "name": "Limpopo",
      "latitude": null,
      "longitude": null,
      "createdAt": "2025-12-28T18:12:07.450Z",
      "updatedAt": "2025-12-28T18:12:07.450Z",
      "stateName": "Limpopo",
      "countryName": "South Africa"
    },
    {
      "id": 1058,
      "stateId": 392,
      "name": "Linares",
      "latitude": null,
      "longitude": null,
      "createdAt": "2025-12-28T17:02:36.717Z",
      "updatedAt": "2025-12-28T17:02:36.717Z",
      "stateName": "Jaén",
      "countryName": "Spain"
    },
    {
      "id": 6077,
      "stateId": 326,
      "name": "Linares",
      "latitude": "24.8579800",
      "longitude": "-99.5676800",
      "createdAt": "2025-12-28T18:23:12.449Z",
      "updatedAt": "2025-12-28T18:23:12.449Z",
      "stateName": "Nuevo León",
      "countryName": "Mexico"
    },
    {
      "id": 5046,
      "stateId": 73,
      "name": "Lincoln",
      "latitude": "40.8000000",
      "longitude": "-96.6669600",
      "createdAt": "2025-12-28T18:19:28.124Z",
      "updatedAt": "2025-12-28T18:19:28.124Z",
      "stateName": "Nebraska",
      "countryName": "United States"
    },
    {
      "id": 8536,
      "stateId": 2,
      "name": "Lincoln",
      "latitude": null,
      "longitude": null,
      "createdAt": "2025-12-28T18:39:09.588Z",
      "updatedAt": "2025-12-28T18:39:09.588Z",
      "stateName": "England",
      "countryName": "United Kingdom"
    },
    {
      "id": 7931,
      "stateId": 24,
      "name": "Lincoln",
      "latitude": "38.8915600",
      "longitude": "-121.2930100",
      "createdAt": "2025-12-28T18:33:05.288Z",
      "updatedAt": "2025-12-28T18:33:05.288Z",
      "stateName": "California",
      "countryName": "United States"
    },
    {
      "id": 9787,
      "stateId": 497,
      "name": "Lincoln",
      "latitude": "40.8000000",
      "longitude": "-96.6669600",
      "createdAt": "2025-12-28T18:47:16.177Z",
      "updatedAt": "2025-12-28T18:47:16.177Z",
      "stateName": "North Dakota",
      "countryName": "United States"
    },
    {
      "id": 9126,
      "stateId": 46,
      "name": "Lincoln",
      "latitude": "38.8915600",
      "longitude": "-121.2930100",
      "createdAt": "2025-12-28T18:41:52.962Z",
      "updatedAt": "2025-12-28T18:41:52.962Z",
      "stateName": "Illinois",
      "countryName": "United States"
    },
    {
      "id": 8306,
      "stateId": 138,
      "name": "Lincoln",
      "latitude": "38.8915600",
      "longitude": "-121.2930100",
      "createdAt": "2025-12-28T18:37:15.906Z",
      "updatedAt": "2025-12-28T18:37:15.906Z",
      "stateName": "Maine",
      "countryName": "United States"
    },
    {
      "id": 2854,
      "stateId": 58,
      "name": "Lincoln",
      "latitude": "-34.8664900",
      "longitude": "-61.5302000",
      "createdAt": "2025-12-28T18:12:53.038Z",
      "updatedAt": "2025-12-28T18:12:53.038Z",
      "stateName": "Buenos Aires",
      "countryName": "Argentina"
    },
    {
      "id": 6493,
      "stateId": 151,
      "name": "Lincoln",
      "latitude": "38.8915600",
      "longitude": "-121.2930100",
      "createdAt": "2025-12-28T18:25:33.600Z",
      "updatedAt": "2025-12-28T18:25:33.600Z",
      "stateName": "Oklahoma",
      "countryName": "United States"
    },
    {
      "id": 8562,
      "stateId": 112,
      "name": "Lincoln",
      "latitude": null,
      "longitude": null,
      "createdAt": "2025-12-28T18:39:15.668Z",
      "updatedAt": "2025-12-28T18:39:15.668Z",
      "stateName": "Missouri",
      "countryName": "United States"
    },
    {
      "id": 9128,
      "stateId": 16,
      "name": "Lincoln Parish",
      "latitude": null,
      "longitude": null,
      "createdAt": "2025-12-28T18:41:53.024Z",
      "updatedAt": "2025-12-28T18:41:53.024Z",
      "stateName": "Louisiana",
      "countryName": "United States"
    },
    {
      "id": 1555,
      "stateId": 46,
      "name": "Lincolnshire",
      "latitude": "37.8034989",
      "longitude": "-92.5169818",
      "createdAt": "2025-12-28T17:04:42.991Z",
      "updatedAt": "2025-12-28T17:04:42.991Z",
      "stateName": "Illinois",
      "countryName": "United States"
    },
    {
      "id": 11803,
      "stateId": 2,
      "name": "Lincolnshire",
      "latitude": "52.7709249",
      "longitude": "-1.7304307",
      "createdAt": "2025-12-28T19:09:42.161Z",
      "updatedAt": "2025-12-28T19:09:42.161Z",
      "stateName": "England",
      "countryName": "United Kingdom"
    },
    {
      "id": 17549,
      "stateId": 22,
      "name": "Lincolnton",
      "latitude": null,
      "longitude": null,
      "createdAt": "2026-01-21T00:52:35.672Z",
      "updatedAt": "2026-01-21T00:52:35.672Z",
      "stateName": "Georgia",
      "countryName": "United States"
    },
    {
      "id": 15441,
      "stateId": 55,
      "name": "Lincolnton",
      "latitude": "37.8034989",
      "longitude": "-92.5169818",
      "createdAt": "2025-12-28T20:05:41.691Z",
      "updatedAt": "2025-12-28T20:05:41.691Z",
      "stateName": "North Carolina",
      "countryName": "United States"
    },
    {
      "id": 1702,
      "stateId": 106,
      "name": "Lincroft",
      "latitude": "37.8034989",
      "longitude": "-92.5169818",
      "createdAt": "2025-12-28T18:01:58.696Z",
      "updatedAt": "2025-12-28T18:01:58.696Z",
      "stateName": "New Jersey",
      "countryName": "United States"
    },
    {
      "id": 15620,
      "stateId": 206,
      "name": "Linda-a-Velha",
      "latitude": "38.7144600",
      "longitude": "-9.2422000",
      "createdAt": "2025-12-28T20:12:42.367Z",
      "updatedAt": "2025-12-28T20:12:42.367Z",
      "stateName": "Lisboa e Vale do Tejo",
      "countryName": "Portugal"
    },
    {
      "id": 10453,
      "stateId": 212,
      "name": "Linden-Limmer",
      "latitude": null,
      "longitude": null,
      "createdAt": "2025-12-28T18:53:24.842Z",
      "updatedAt": "2025-12-28T18:53:24.842Z",
      "stateName": "Lower Saxony",
      "countryName": "Germany"
    },
    {
      "id": 7619,
      "stateId": 106,
      "name": "Lindenwold",
      "latitude": "39.8242800",
      "longitude": "-74.9976700",
      "createdAt": "2025-12-28T18:30:53.019Z",
      "updatedAt": "2025-12-28T18:30:53.019Z",
      "stateName": "New Jersey",
      "countryName": "United States"
    },
    {
      "id": 12393,
      "stateId": 151,
      "name": "Lindsay",
      "latitude": "37.8034989",
      "longitude": "-92.5169818",
      "createdAt": "2025-12-28T19:15:42.721Z",
      "updatedAt": "2025-12-28T19:15:42.721Z",
      "stateName": "Oklahoma",
      "countryName": "United States"
    },
    {
      "id": 5730,
      "stateId": 41,
      "name": "Lindsay",
      "latitude": null,
      "longitude": null,
      "createdAt": "2025-12-28T18:22:01.299Z",
      "updatedAt": "2025-12-28T18:22:01.299Z",
      "stateName": "Ontario",
      "countryName": "Canada"
    },
    {
      "id": 11210,
      "stateId": 31,
      "name": "Lindsborg",
      "latitude": "37.8034989",
      "longitude": "-92.5169818",
      "createdAt": "2025-12-28T19:02:43.070Z",
      "updatedAt": "2025-12-28T19:02:43.070Z",
      "stateName": "Kansas",
      "countryName": "United States"
    },
    {
      "id": 16632,
      "stateId": 68,
      "name": "Linesville",
      "latitude": "37.8034989",
      "longitude": "-92.5169818",
      "createdAt": "2025-12-28T20:48:30.327Z",
      "updatedAt": "2025-12-28T20:48:30.327Z",
      "stateName": "Pennsylvania",
      "countryName": "United States"
    },
    {
      "id": 9079,
      "stateId": 212,
      "name": "Lingen",
      "latitude": "52.5214300",
      "longitude": "7.3184500",
      "createdAt": "2025-12-28T18:41:47.477Z",
      "updatedAt": "2025-12-28T18:41:47.477Z",
      "stateName": "Lower Saxony",
      "countryName": "Germany"
    },
    {
      "id": 4224,
      "stateId": 261,
      "name": "Linhares",
      "latitude": "-19.3911100",
      "longitude": "-40.0722200",
      "createdAt": "2025-12-28T18:16:39.247Z",
      "updatedAt": "2025-12-28T18:16:39.247Z",
      "stateName": "Espírito Santo",
      "countryName": "Brazil"
    },
    {
      "id": 14854,
      "stateId": 1276,
      "name": "Linköping",
      "latitude": "58.4108600",
      "longitude": "15.6215700",
      "createdAt": "2025-12-28T19:49:49.662Z",
      "updatedAt": "2025-12-28T19:49:49.662Z",
      "stateName": "Östergötland",
      "countryName": "Sweden"
    },
    {
      "id": 9129,
      "stateId": 112,
      "name": "Linn",
      "latitude": null,
      "longitude": null,
      "createdAt": "2025-12-28T18:41:53.057Z",
      "updatedAt": "2025-12-28T18:41:53.057Z",
      "stateName": "Missouri",
      "countryName": "United States"
    },
    {
      "id": 2121,
      "stateId": 4,
      "name": "Lins",
      "latitude": "-21.6786100",
      "longitude": "-49.7425000",
      "createdAt": "2025-12-28T18:10:57.318Z",
      "updatedAt": "2025-12-28T18:10:57.318Z",
      "stateName": "São Paulo",
      "countryName": "Brazil"
    },
    {
      "id": 7662,
      "stateId": 51,
      "name": "Linton",
      "latitude": "41.8444700",
      "longitude": "-90.1887400",
      "createdAt": "2025-12-28T18:31:07.077Z",
      "updatedAt": "2025-12-28T18:31:07.077Z",
      "stateName": "Indiana",
      "countryName": "United States"
    },
    {
      "id": 18257,
      "stateId": 1430,
      "name": "Linz",
      "latitude": "47.7354320",
      "longitude": "14.0841889",
      "createdAt": "2026-05-04T17:47:47.509Z",
      "updatedAt": "2026-05-04T17:47:47.509Z",
      "stateName": "Upper Austria",
      "countryName": "Austria"
    },
    {
      "id": 17067,
      "stateId": 107,
      "name": "Linz am Rhein",
      "latitude": "50.9385735",
      "longitude": "9.5583023",
      "createdAt": "2025-12-29T15:21:48.831Z",
      "updatedAt": "2025-12-29T15:21:48.831Z",
      "stateName": "Rhineland-Palatinate",
      "countryName": "Germany"
    },
    {
      "id": 5144,
      "stateId": 801,
      "name": "Lipa City",
      "latitude": null,
      "longitude": null,
      "createdAt": "2025-12-28T18:19:48.619Z",
      "updatedAt": "2025-12-28T18:19:48.619Z",
      "stateName": "Batangas",
      "countryName": "Philippines"
    },
    {
      "id": 15001,
      "stateId": 207,
      "name": "Lipari",
      "latitude": "42.4957616",
      "longitude": "12.4479260",
      "createdAt": "2025-12-28T19:52:00.953Z",
      "updatedAt": "2025-12-28T19:52:00.953Z",
      "stateName": "Sicily",
      "countryName": "Italy"
    },
    {
      "id": 4551,
      "stateId": 787,
      "name": "Lipetsk",
      "latitude": null,
      "longitude": null,
      "createdAt": "2025-12-28T18:17:52.266Z",
      "updatedAt": "2025-12-28T18:17:52.266Z",
      "stateName": "Lipetsk",
      "countryName": "Russia"
    },
    {
      "id": 6491,
      "stateId": 935,
      "name": "Lipolist",
      "latitude": "44.5056613",
      "longitude": "20.6420821",
      "createdAt": "2025-12-28T18:25:33.535Z",
      "updatedAt": "2025-12-28T18:25:33.535Z",
      "stateName": "Mačva",
      "countryName": "Serbia"
    },
    {
      "id": 17175,
      "stateId": 432,
      "name": "Lippborg",
      "latitude": null,
      "longitude": null,
      "createdAt": "2025-12-29T15:46:21.973Z",
      "updatedAt": "2025-12-29T15:46:21.973Z",
      "stateName": "North Rhine-Westphalia",
      "countryName": "Germany"
    },
    {
      "id": 11921,
      "stateId": 432,
      "name": "Lippstadt",
      "latitude": null,
      "longitude": null,
      "createdAt": "2025-12-28T19:10:41.520Z",
      "updatedAt": "2025-12-28T19:10:41.520Z",
      "stateName": "North Rhine-Westphalia",
      "countryName": "Germany"
    },
    {
      "id": 2229,
      "stateId": 259,
      "name": "Lira",
      "latitude": null,
      "longitude": null,
      "createdAt": "2025-12-28T18:11:15.970Z",
      "updatedAt": "2025-12-28T18:11:15.970Z",
      "stateName": "Eastern Region",
      "countryName": "Uganda"
    },
    {
      "id": 11617,
      "stateId": 497,
      "name": "Lisbon",
      "latitude": null,
      "longitude": null,
      "createdAt": "2025-12-28T19:08:05.762Z",
      "updatedAt": "2025-12-28T19:08:05.762Z",
      "stateName": "North Dakota",
      "countryName": "United States"
    },
    {
      "id": 566,
      "stateId": 206,
      "name": "Lisbon",
      "latitude": "38.7166700",
      "longitude": "-9.1333300",
      "createdAt": "2025-12-28T17:01:07.187Z",
      "updatedAt": "2025-12-28T17:01:07.187Z",
      "stateName": "Lisboa e Vale do Tejo",
      "countryName": "Portugal"
    },
    {
      "id": 16730,
      "stateId": 138,
      "name": "Lisbon Falls",
      "latitude": null,
      "longitude": null,
      "createdAt": "2025-12-28T20:50:41.858Z",
      "updatedAt": "2025-12-28T20:50:41.858Z",
      "stateName": "Maine",
      "countryName": "United States"
    },
    {
      "id": 5136,
      "stateId": 468,
      "name": "Lisburn",
      "latitude": "54.5233700",
      "longitude": "-6.0352700",
      "createdAt": "2025-12-28T18:19:39.573Z",
      "updatedAt": "2025-12-28T18:19:39.573Z",
      "stateName": "Northern Ireland",
      "countryName": "United Kingdom"
    },
    {
      "id": 17934,
      "stateId": 1387,
      "name": "Lisciano",
      "latitude": "42.4957616",
      "longitude": "12.4479260",
      "createdAt": "2026-03-16T05:05:40.168Z",
      "updatedAt": "2026-03-16T05:05:40.168Z",
      "stateName": "Marche",
      "countryName": "Italy"
    },
    {
      "id": 11958,
      "stateId": 521,
      "name": "Lisciano",
      "latitude": "42.4957616",
      "longitude": "12.4479260",
      "createdAt": "2025-12-28T19:10:57.194Z",
      "updatedAt": "2025-12-28T19:10:57.194Z",
      "stateName": "Ancona",
      "countryName": "Italy"
    },
    {
      "id": 8557,
      "stateId": 753,
      "name": "L'Isle-Jourdain",
      "latitude": "47.3768156",
      "longitude": "2.7742767",
      "createdAt": "2025-12-28T18:39:14.902Z",
      "updatedAt": "2025-12-28T18:39:14.902Z",
      "stateName": "Poitou-Charentes",
      "countryName": "France"
    },
    {
      "id": 18053,
      "stateId": 1400,
      "name": "L'Isle-Jourdain",
      "latitude": "47.3768156",
      "longitude": "2.7742767",
      "createdAt": "2026-03-30T10:11:45.581Z",
      "updatedAt": "2026-03-30T10:11:45.581Z",
      "stateName": "Occitania",
      "countryName": "France"
    },
    {
      "id": 1720,
      "stateId": 19,
      "name": "Lismore",
      "latitude": "-28.8135400",
      "longitude": "153.2773000",
      "createdAt": "2025-12-28T18:10:05.499Z",
      "updatedAt": "2025-12-28T18:10:05.499Z",
      "stateName": "New South Wales",
      "countryName": "Australia"
    },
    {
      "id": 17623,
      "stateId": 41,
      "name": "Listowel",
      "latitude": null,
      "longitude": null,
      "createdAt": "2026-01-27T12:12:51.561Z",
      "updatedAt": "2026-01-27T12:12:51.561Z",
      "stateName": "Ontario",
      "countryName": "Canada"
    },
    {
      "id": 17409,
      "stateId": 258,
      "name": "Listuguj",
      "latitude": null,
      "longitude": null,
      "createdAt": "2026-01-05T19:46:12.163Z",
      "updatedAt": "2026-01-05T19:46:12.163Z",
      "stateName": "Quebec",
      "countryName": "Canada"
    },
    {
      "id": 9050,
      "stateId": 49,
      "name": "Litchfield",
      "latitude": "37.8034989",
      "longitude": "-92.5169818",
      "createdAt": "2025-12-28T18:41:40.392Z",
      "updatedAt": "2025-12-28T18:41:40.392Z",
      "stateName": "Minnesota",
      "countryName": "United States"
    }
  ],
  "meta": {
    "page": 91,
    "limit": 100,
    "total": 18002,
    "totalPages": 181
  }
}
