{
  "source": "50k-radio-stations",
  "provider": "rapidapi",
  "syncedAt": "2026-06-03T13:05:38.710Z",
  "endpoint": "/cities",
  "page": 118,
  "limit": 250,
  "data": [
    {
      "id": 251,
      "stateId": 113,
      "name": "Osage",
      "latitude": "37.8034989",
      "longitude": "-92.5169818",
      "createdAt": "2025-12-28T16:56:38.609Z",
      "updatedAt": "2025-12-28T16:56:38.609Z",
      "stateName": "Iowa",
      "countryName": "United States"
    },
    {
      "id": 5531,
      "stateId": 112,
      "name": "Osage Beach",
      "latitude": "37.8034989",
      "longitude": "-92.5169818",
      "createdAt": "2025-12-28T18:21:13.951Z",
      "updatedAt": "2025-12-28T18:21:13.951Z",
      "stateName": "Missouri",
      "countryName": "United States"
    },
    {
      "id": 6110,
      "stateId": 31,
      "name": "Osage City",
      "latitude": "37.8034989",
      "longitude": "-92.5169818",
      "createdAt": "2025-12-28T18:23:16.237Z",
      "updatedAt": "2025-12-28T18:23:16.237Z",
      "stateName": "Kansas",
      "countryName": "United States"
    },
    {
      "id": 12384,
      "stateId": 49,
      "name": "Osakis",
      "latitude": "37.8034989",
      "longitude": "-92.5169818",
      "createdAt": "2025-12-28T19:15:40.615Z",
      "updatedAt": "2025-12-28T19:15:40.615Z",
      "stateName": "Minnesota",
      "countryName": "United States"
    },
    {
      "id": 4845,
      "stateId": 4,
      "name": "Osasco",
      "latitude": "-23.5325000",
      "longitude": "-46.7916700",
      "createdAt": "2025-12-28T18:18:49.549Z",
      "updatedAt": "2025-12-28T18:18:49.549Z",
      "stateName": "São Paulo",
      "countryName": "Brazil"
    },
    {
      "id": 11674,
      "stateId": 113,
      "name": "Osceola",
      "latitude": "37.8034989",
      "longitude": "-92.5169818",
      "createdAt": "2025-12-28T19:08:35.277Z",
      "updatedAt": "2025-12-28T19:08:35.277Z",
      "stateName": "Iowa",
      "countryName": "United States"
    },
    {
      "id": 12475,
      "stateId": 112,
      "name": "Osceola",
      "latitude": "37.8034989",
      "longitude": "-92.5169818",
      "createdAt": "2025-12-28T19:16:01.833Z",
      "updatedAt": "2025-12-28T19:16:01.833Z",
      "stateName": "Missouri",
      "countryName": "United States"
    },
    {
      "id": 14850,
      "stateId": 92,
      "name": "Oscoda",
      "latitude": "37.8034989",
      "longitude": "-92.5169818",
      "createdAt": "2025-12-28T19:49:47.614Z",
      "updatedAt": "2025-12-28T19:49:47.614Z",
      "stateName": "Michigan",
      "countryName": "United States"
    },
    {
      "id": 17875,
      "stateId": 39,
      "name": "Oshakati",
      "latitude": "-17.7833300",
      "longitude": "15.6833300",
      "createdAt": "2026-03-11T04:22:59.926Z",
      "updatedAt": "2026-03-11T04:22:59.926Z",
      "stateName": "Windhoek",
      "countryName": "Namibia"
    },
    {
      "id": 17918,
      "stateId": 1390,
      "name": "Oshakati",
      "latitude": "-17.7833300",
      "longitude": "15.6833300",
      "createdAt": "2026-03-13T04:42:43.098Z",
      "updatedAt": "2026-03-13T04:42:43.098Z",
      "stateName": "Oshana Region",
      "countryName": "Namibia"
    },
    {
      "id": 1560,
      "stateId": 41,
      "name": "Oshawa",
      "latitude": "43.9001200",
      "longitude": "-78.8495700",
      "createdAt": "2025-12-28T17:04:44.041Z",
      "updatedAt": "2025-12-28T17:04:44.041Z",
      "stateName": "Ontario",
      "countryName": "Canada"
    },
    {
      "id": 3213,
      "stateId": 8,
      "name": "Oshkosh",
      "latitude": "44.0247100",
      "longitude": "-88.5426100",
      "createdAt": "2025-12-28T18:13:58.592Z",
      "updatedAt": "2025-12-28T18:13:58.592Z",
      "stateName": "Wisconsin",
      "countryName": "United States"
    },
    {
      "id": 7393,
      "stateId": 113,
      "name": "Oskaloosa",
      "latitude": "37.8034989",
      "longitude": "-92.5169818",
      "createdAt": "2025-12-28T18:29:53.672Z",
      "updatedAt": "2025-12-28T18:29:53.672Z",
      "stateName": "Iowa",
      "countryName": "United States"
    },
    {
      "id": 2610,
      "stateId": 54,
      "name": "Osmanabad",
      "latitude": "18.1815800",
      "longitude": "76.0388900",
      "createdAt": "2025-12-28T18:12:36.826Z",
      "updatedAt": "2025-12-28T18:12:36.826Z",
      "stateName": "Maharashtra",
      "countryName": "India"
    },
    {
      "id": 4819,
      "stateId": 212,
      "name": "Osnabruck",
      "latitude": "50.9385735",
      "longitude": "9.5583023",
      "createdAt": "2025-12-28T18:18:45.803Z",
      "updatedAt": "2025-12-28T18:18:45.803Z",
      "stateName": "Lower Saxony",
      "countryName": "Germany"
    },
    {
      "id": 1700,
      "stateId": 212,
      "name": "Osnabrück",
      "latitude": "52.2726400",
      "longitude": "8.0498000",
      "createdAt": "2025-12-28T18:01:58.420Z",
      "updatedAt": "2025-12-28T18:01:58.420Z",
      "stateName": "Lower Saxony",
      "countryName": "Germany"
    },
    {
      "id": 6529,
      "stateId": 77,
      "name": "Osogbo",
      "latitude": null,
      "longitude": null,
      "createdAt": "2025-12-28T18:25:40.366Z",
      "updatedAt": "2025-12-28T18:25:40.366Z",
      "stateName": "Katsina State",
      "countryName": "Nigeria"
    },
    {
      "id": 14842,
      "stateId": 205,
      "name": "Osorio",
      "latitude": "18.2025000",
      "longitude": "-98.0486400",
      "createdAt": "2025-12-28T19:49:34.585Z",
      "updatedAt": "2025-12-28T19:49:34.585Z",
      "stateName": "Rio Grande do Sul",
      "countryName": "Brazil"
    },
    {
      "id": 1451,
      "stateId": 470,
      "name": "Osorno",
      "latitude": "-40.5739500",
      "longitude": "-73.1334800",
      "createdAt": "2025-12-28T17:04:31.816Z",
      "updatedAt": "2025-12-28T17:04:31.816Z",
      "stateName": "Los Lagos",
      "countryName": "Chile"
    },
    {
      "id": 7040,
      "stateId": 26,
      "name": "Osoyoos",
      "latitude": "46.9909847",
      "longitude": "-87.5986915",
      "createdAt": "2025-12-28T18:27:55.286Z",
      "updatedAt": "2025-12-28T18:27:55.286Z",
      "stateName": "British Columbia",
      "countryName": "Canada"
    },
    {
      "id": 11949,
      "stateId": 98,
      "name": "Ospitaletto",
      "latitude": "42.4957616",
      "longitude": "12.4479260",
      "createdAt": "2025-12-28T19:10:53.849Z",
      "updatedAt": "2025-12-28T19:10:53.849Z",
      "stateName": "Lombardy",
      "countryName": "Italy"
    },
    {
      "id": 14858,
      "stateId": 96,
      "name": "Oss",
      "latitude": null,
      "longitude": null,
      "createdAt": "2025-12-28T19:49:50.371Z",
      "updatedAt": "2025-12-28T19:49:50.371Z",
      "stateName": "North Brabant",
      "countryName": "Netherlands"
    },
    {
      "id": 7811,
      "stateId": 96,
      "name": "Ossendrecht",
      "latitude": null,
      "longitude": null,
      "createdAt": "2025-12-28T18:32:15.543Z",
      "updatedAt": "2025-12-28T18:32:15.543Z",
      "stateName": "North Brabant",
      "countryName": "Netherlands"
    },
    {
      "id": 3342,
      "stateId": 6,
      "name": "Ossining",
      "latitude": "41.1628700",
      "longitude": "-73.8615200",
      "createdAt": "2025-12-28T18:14:15.659Z",
      "updatedAt": "2025-12-28T18:14:15.659Z",
      "stateName": "New York",
      "countryName": "United States"
    },
    {
      "id": 9966,
      "stateId": 114,
      "name": "Ossipee",
      "latitude": null,
      "longitude": null,
      "createdAt": "2025-12-28T18:49:15.235Z",
      "updatedAt": "2025-12-28T18:49:15.235Z",
      "stateName": "New Hampshire",
      "countryName": "United States"
    },
    {
      "id": 14853,
      "stateId": 432,
      "name": "Ostbevern",
      "latitude": null,
      "longitude": null,
      "createdAt": "2025-12-28T19:49:48.232Z",
      "updatedAt": "2025-12-28T19:49:48.232Z",
      "stateName": "North Rhine-Westphalia",
      "countryName": "Germany"
    },
    {
      "id": 18218,
      "stateId": 1242,
      "name": "Osteraker",
      "latitude": "58.9901705",
      "longitude": "15.8143176",
      "createdAt": "2026-04-27T07:21:07.349Z",
      "updatedAt": "2026-04-27T07:21:07.349Z",
      "stateName": "Stockholm",
      "countryName": "Sweden"
    },
    {
      "id": 14843,
      "stateId": 501,
      "name": "Osteraker",
      "latitude": "58.9901705",
      "longitude": "15.8143176",
      "createdAt": "2025-12-28T19:49:37.673Z",
      "updatedAt": "2025-12-28T19:49:37.673Z",
      "stateName": "Södermanland",
      "countryName": "Sweden"
    },
    {
      "id": 14849,
      "stateId": 1277,
      "name": "Östersund",
      "latitude": "63.1792000",
      "longitude": "14.6356600",
      "createdAt": "2025-12-28T19:49:46.221Z",
      "updatedAt": "2025-12-28T19:49:46.221Z",
      "stateName": "Jämtland",
      "countryName": "Sweden"
    },
    {
      "id": 14640,
      "stateId": 9,
      "name": "Ostroleka",
      "latitude": "51.8024603",
      "longitude": "19.2550087",
      "createdAt": "2025-12-28T19:46:31.869Z",
      "updatedAt": "2025-12-28T19:46:31.869Z",
      "stateName": "Masovia",
      "countryName": "Poland"
    },
    {
      "id": 9550,
      "stateId": 577,
      "name": "Ostrzeszów",
      "latitude": null,
      "longitude": null,
      "createdAt": "2025-12-28T18:45:12.765Z",
      "updatedAt": "2025-12-28T18:45:12.765Z",
      "stateName": "Greater Poland",
      "countryName": "Poland"
    },
    {
      "id": 3785,
      "stateId": 306,
      "name": "Ostuni",
      "latitude": "40.7248400",
      "longitude": "17.5792200",
      "createdAt": "2025-12-28T18:15:14.669Z",
      "updatedAt": "2025-12-28T18:15:14.669Z",
      "stateName": "Apulia",
      "countryName": "Italy"
    },
    {
      "id": 7142,
      "stateId": 4,
      "name": "Osvaldo Cruz",
      "latitude": "-21.7966700",
      "longitude": "-50.8786100",
      "createdAt": "2025-12-28T18:28:28.194Z",
      "updatedAt": "2025-12-28T18:28:28.194Z",
      "stateName": "São Paulo",
      "countryName": "Brazil"
    },
    {
      "id": 1621,
      "stateId": 6,
      "name": "Oswego",
      "latitude": "43.4553500",
      "longitude": "-76.5105000",
      "createdAt": "2025-12-28T18:01:40.310Z",
      "updatedAt": "2025-12-28T18:01:40.310Z",
      "stateName": "New York",
      "countryName": "United States"
    },
    {
      "id": 14856,
      "stateId": 2,
      "name": "Oswestry",
      "latitude": "52.8619500",
      "longitude": "-3.0549700",
      "createdAt": "2025-12-28T19:49:49.803Z",
      "updatedAt": "2025-12-28T19:49:49.803Z",
      "stateName": "England",
      "countryName": "United Kingdom"
    },
    {
      "id": 8168,
      "stateId": 77,
      "name": "Ota",
      "latitude": "8.5507521",
      "longitude": "7.2114717",
      "createdAt": "2025-12-28T18:36:13.460Z",
      "updatedAt": "2025-12-28T18:36:13.460Z",
      "stateName": "Katsina State",
      "countryName": "Nigeria"
    },
    {
      "id": 6824,
      "stateId": 293,
      "name": "Otacílio Costa",
      "latitude": null,
      "longitude": null,
      "createdAt": "2025-12-28T18:27:18.502Z",
      "updatedAt": "2025-12-28T18:27:18.502Z",
      "stateName": "Santa Catarina",
      "countryName": "Brazil"
    },
    {
      "id": 14865,
      "stateId": 11,
      "name": "Otaru",
      "latitude": "43.1894400",
      "longitude": "141.0022200",
      "createdAt": "2025-12-28T19:50:02.412Z",
      "updatedAt": "2025-12-28T19:50:02.412Z",
      "stateName": "北海道 (Hokkaido)",
      "countryName": "Japan"
    },
    {
      "id": 8750,
      "stateId": 232,
      "name": "Otavalo",
      "latitude": "0.2345700",
      "longitude": "-78.2624800",
      "createdAt": "2025-12-28T18:40:02.031Z",
      "updatedAt": "2025-12-28T18:40:02.031Z",
      "stateName": "Pichincha",
      "countryName": "Ecuador"
    },
    {
      "id": 9386,
      "stateId": 42,
      "name": "Othello",
      "latitude": "37.8034989",
      "longitude": "-92.5169818",
      "createdAt": "2025-12-28T18:44:01.848Z",
      "updatedAt": "2025-12-28T18:44:01.848Z",
      "stateName": "Washington",
      "countryName": "United States"
    },
    {
      "id": 12302,
      "stateId": 27,
      "name": "Otis",
      "latitude": "11.7139100",
      "longitude": "11.0810800",
      "createdAt": "2025-12-28T19:15:11.974Z",
      "updatedAt": "2025-12-28T19:15:11.974Z",
      "stateName": "Colorado",
      "countryName": "United States"
    },
    {
      "id": 1447,
      "stateId": 39,
      "name": "Otjiwarongo",
      "latitude": "-20.4636900",
      "longitude": "16.6477200",
      "createdAt": "2025-12-28T17:04:31.519Z",
      "updatedAt": "2025-12-28T17:04:31.519Z",
      "stateName": "Windhoek",
      "countryName": "Namibia"
    },
    {
      "id": 17935,
      "stateId": 1392,
      "name": "Otjiwarongo",
      "latitude": "-20.4636900",
      "longitude": "16.6477200",
      "createdAt": "2026-03-16T05:51:54.481Z",
      "updatedAt": "2026-03-16T05:51:54.481Z",
      "stateName": "Otjozondjupa Region",
      "countryName": "Namibia"
    },
    {
      "id": 3770,
      "stateId": 505,
      "name": "Otradny",
      "latitude": null,
      "longitude": null,
      "createdAt": "2025-12-28T18:15:12.888Z",
      "updatedAt": "2025-12-28T18:15:12.888Z",
      "stateName": "Samara",
      "countryName": "Russia"
    },
    {
      "id": 3975,
      "stateId": 92,
      "name": "Otsego",
      "latitude": "37.8034989",
      "longitude": "-92.5169818",
      "createdAt": "2025-12-28T18:15:45.812Z",
      "updatedAt": "2025-12-28T18:15:45.812Z",
      "stateName": "Michigan",
      "countryName": "United States"
    },
    {
      "id": 54,
      "stateId": 41,
      "name": "Ottawa",
      "latitude": "45.4111700",
      "longitude": "-75.6981200",
      "createdAt": "2025-12-28T16:36:35.709Z",
      "updatedAt": "2025-12-28T16:36:35.709Z",
      "stateName": "Ontario",
      "countryName": "Canada"
    },
    {
      "id": 5533,
      "stateId": 14,
      "name": "Ottawa",
      "latitude": "41.3455900",
      "longitude": "-88.8425800",
      "createdAt": "2025-12-28T18:21:14.444Z",
      "updatedAt": "2025-12-28T18:21:14.444Z",
      "stateName": "Ohio",
      "countryName": "United States"
    },
    {
      "id": 3409,
      "stateId": 31,
      "name": "Ottawa",
      "latitude": "41.3455900",
      "longitude": "-88.8425800",
      "createdAt": "2025-12-28T18:14:21.812Z",
      "updatedAt": "2025-12-28T18:14:21.812Z",
      "stateName": "Kansas",
      "countryName": "United States"
    },
    {
      "id": 6496,
      "stateId": 46,
      "name": "Ottawa",
      "latitude": "41.3455900",
      "longitude": "-88.8425800",
      "createdAt": "2025-12-28T18:25:33.885Z",
      "updatedAt": "2025-12-28T18:25:33.885Z",
      "stateName": "Illinois",
      "countryName": "United States"
    },
    {
      "id": 12460,
      "stateId": 112,
      "name": "Otterville",
      "latitude": "37.8034989",
      "longitude": "-92.5169818",
      "createdAt": "2025-12-28T19:15:58.953Z",
      "updatedAt": "2025-12-28T19:15:58.953Z",
      "stateName": "Missouri",
      "countryName": "United States"
    },
    {
      "id": 11693,
      "stateId": 113,
      "name": "Ottumwa",
      "latitude": "41.0200100",
      "longitude": "-92.4113000",
      "createdAt": "2025-12-28T19:08:39.379Z",
      "updatedAt": "2025-12-28T19:08:39.379Z",
      "stateName": "Iowa",
      "countryName": "United States"
    },
    {
      "id": 8040,
      "stateId": 563,
      "name": "Ouargla",
      "latitude": "31.9493200",
      "longitude": "5.3250200",
      "createdAt": "2025-12-28T18:34:32.480Z",
      "updatedAt": "2025-12-28T18:34:32.480Z",
      "stateName": "Regionale du Sud- Est",
      "countryName": "Algeria"
    },
    {
      "id": 14747,
      "stateId": 111,
      "name": "Ouddorp",
      "latitude": "52.0575321",
      "longitude": "5.3403480",
      "createdAt": "2025-12-28T19:47:43.676Z",
      "updatedAt": "2025-12-28T19:47:43.676Z",
      "stateName": "South Holland",
      "countryName": "Netherlands"
    },
    {
      "id": 14966,
      "stateId": 227,
      "name": "Oude Pekela",
      "latitude": null,
      "longitude": null,
      "createdAt": "2025-12-28T19:50:51.090Z",
      "updatedAt": "2025-12-28T19:50:51.090Z",
      "stateName": "Groningen",
      "countryName": "Netherlands"
    },
    {
      "id": 11920,
      "stateId": 52,
      "name": "Ouder-Amstel",
      "latitude": null,
      "longitude": null,
      "createdAt": "2025-12-28T19:10:41.451Z",
      "updatedAt": "2025-12-28T19:10:41.451Z",
      "stateName": "North Holland",
      "countryName": "Netherlands"
    },
    {
      "id": 2807,
      "stateId": 111,
      "name": "Oude Wetering",
      "latitude": null,
      "longitude": null,
      "createdAt": "2025-12-28T18:12:46.545Z",
      "updatedAt": "2025-12-28T18:12:46.545Z",
      "stateName": "South Holland",
      "countryName": "Netherlands"
    },
    {
      "id": 14965,
      "stateId": 90,
      "name": "Oullins",
      "latitude": "45.7177400",
      "longitude": "4.8038200",
      "createdAt": "2025-12-28T19:50:50.915Z",
      "updatedAt": "2025-12-28T19:50:50.915Z",
      "stateName": "Rhône-Alpes",
      "countryName": "France"
    },
    {
      "id": 6901,
      "stateId": 950,
      "name": "Oulu",
      "latitude": "65.0123600",
      "longitude": "25.4681600",
      "createdAt": "2025-12-28T18:27:30.621Z",
      "updatedAt": "2025-12-28T18:27:30.621Z",
      "stateName": "Oulu",
      "countryName": "Finland"
    },
    {
      "id": 1938,
      "stateId": 193,
      "name": "Ourense",
      "latitude": "42.3366900",
      "longitude": "-7.8640700",
      "createdAt": "2025-12-28T18:10:32.107Z",
      "updatedAt": "2025-12-28T18:10:32.107Z",
      "stateName": "Galicia",
      "countryName": "Spain"
    },
    {
      "id": 14955,
      "stateId": 262,
      "name": "Ouriçangas",
      "latitude": null,
      "longitude": null,
      "createdAt": "2025-12-28T19:50:40.091Z",
      "updatedAt": "2025-12-28T19:50:40.091Z",
      "stateName": "Bahia",
      "countryName": "Brazil"
    },
    {
      "id": 7625,
      "stateId": 7,
      "name": "Ouricuri",
      "latitude": null,
      "longitude": null,
      "createdAt": "2025-12-28T18:31:00.923Z",
      "updatedAt": "2025-12-28T18:31:00.923Z",
      "stateName": "Pernambuco",
      "countryName": "Brazil"
    },
    {
      "id": 9613,
      "stateId": 159,
      "name": "Ourilândia do Norte",
      "latitude": null,
      "longitude": null,
      "createdAt": "2025-12-28T18:45:37.684Z",
      "updatedAt": "2025-12-28T18:45:37.684Z",
      "stateName": "Pará",
      "countryName": "Brazil"
    },
    {
      "id": 2470,
      "stateId": 4,
      "name": "Ourinhos",
      "latitude": "-22.9788900",
      "longitude": "-49.8705600",
      "createdAt": "2025-12-28T18:12:15.854Z",
      "updatedAt": "2025-12-28T18:12:15.854Z",
      "stateName": "São Paulo",
      "countryName": "Brazil"
    },
    {
      "id": 6892,
      "stateId": 293,
      "name": "Ouro",
      "latitude": null,
      "longitude": null,
      "createdAt": "2025-12-28T18:27:27.935Z",
      "updatedAt": "2025-12-28T18:27:27.935Z",
      "stateName": "Santa Catarina",
      "countryName": "Brazil"
    },
    {
      "id": 9315,
      "stateId": 95,
      "name": "Ouro Branco",
      "latitude": null,
      "longitude": null,
      "createdAt": "2025-12-28T18:43:36.463Z",
      "updatedAt": "2025-12-28T18:43:36.463Z",
      "stateName": "Minas Gerais",
      "countryName": "Brazil"
    },
    {
      "id": 8050,
      "stateId": 95,
      "name": "Ouro Fino",
      "latitude": "-17.4339069",
      "longitude": "-45.8426650",
      "createdAt": "2025-12-28T18:34:47.740Z",
      "updatedAt": "2025-12-28T18:34:47.740Z",
      "stateName": "Minas Gerais",
      "countryName": "Brazil"
    },
    {
      "id": 751,
      "stateId": 95,
      "name": "Ouro Preto",
      "latitude": "-20.3948400",
      "longitude": "-43.5051700",
      "createdAt": "2025-12-28T17:02:14.748Z",
      "updatedAt": "2025-12-28T17:02:14.748Z",
      "stateName": "Minas Gerais",
      "countryName": "Brazil"
    },
    {
      "id": 3547,
      "stateId": 652,
      "name": "Ouro Preto do Oeste",
      "latitude": "-10.7480600",
      "longitude": "-62.2158300",
      "createdAt": "2025-12-28T18:14:47.759Z",
      "updatedAt": "2025-12-28T18:14:47.759Z",
      "stateName": "Rondônia",
      "countryName": "Brazil"
    },
    {
      "id": 14471,
      "stateId": 137,
      "name": "Ouro Verde do Oeste",
      "latitude": null,
      "longitude": null,
      "createdAt": "2025-12-28T19:44:26.840Z",
      "updatedAt": "2025-12-28T19:44:26.840Z",
      "stateName": "Paraná",
      "countryName": "Brazil"
    },
    {
      "id": 4523,
      "stateId": 374,
      "name": "Ovar",
      "latitude": "40.8586200",
      "longitude": "-8.6251300",
      "createdAt": "2025-12-28T18:17:50.370Z",
      "updatedAt": "2025-12-28T18:17:50.370Z",
      "stateName": "Centro",
      "countryName": "Portugal"
    },
    {
      "id": 7259,
      "stateId": 684,
      "name": "Ovejas",
      "latitude": null,
      "longitude": null,
      "createdAt": "2025-12-28T18:29:00.108Z",
      "updatedAt": "2025-12-28T18:29:00.108Z",
      "stateName": "Sucre",
      "countryName": "Colombia"
    },
    {
      "id": 86,
      "stateId": 31,
      "name": "Overland Park",
      "latitude": "38.9822300",
      "longitude": "-94.6707900",
      "createdAt": "2025-12-28T16:56:22.476Z",
      "updatedAt": "2025-12-28T16:56:22.476Z",
      "stateName": "Kansas",
      "countryName": "United States"
    },
    {
      "id": 13205,
      "stateId": 20,
      "name": "Overton",
      "latitude": "37.8034989",
      "longitude": "-92.5169818",
      "createdAt": "2025-12-28T19:21:32.561Z",
      "updatedAt": "2025-12-28T19:21:32.561Z",
      "stateName": "Texas",
      "countryName": "United States"
    },
    {
      "id": 5865,
      "stateId": 73,
      "name": "Overton",
      "latitude": "37.8034989",
      "longitude": "-92.5169818",
      "createdAt": "2025-12-28T18:22:30.871Z",
      "updatedAt": "2025-12-28T18:22:30.871Z",
      "stateName": "Nebraska",
      "countryName": "United States"
    },
    {
      "id": 5699,
      "stateId": 15,
      "name": "Overton",
      "latitude": "37.8034989",
      "longitude": "-92.5169818",
      "createdAt": "2025-12-28T18:21:56.129Z",
      "updatedAt": "2025-12-28T18:21:56.129Z",
      "stateName": "Nevada",
      "countryName": "United States"
    },
    {
      "id": 14867,
      "stateId": 2,
      "name": "Overton",
      "latitude": null,
      "longitude": null,
      "createdAt": "2025-12-28T19:50:02.437Z",
      "updatedAt": "2025-12-28T19:50:02.437Z",
      "stateName": "England",
      "countryName": "United Kingdom"
    },
    {
      "id": 14873,
      "stateId": 92,
      "name": "Ovid",
      "latitude": "37.8034989",
      "longitude": "-92.5169818",
      "createdAt": "2025-12-28T19:50:05.387Z",
      "updatedAt": "2025-12-28T19:50:05.387Z",
      "stateName": "Michigan",
      "countryName": "United States"
    },
    {
      "id": 219,
      "stateId": 130,
      "name": "Oviedo",
      "latitude": "43.3602900",
      "longitude": "-5.8447600",
      "createdAt": "2025-12-28T16:56:36.402Z",
      "updatedAt": "2025-12-28T16:56:36.402Z",
      "stateName": "Asturias",
      "countryName": "Spain"
    },
    {
      "id": 7496,
      "stateId": 33,
      "name": "Oviedo",
      "latitude": "28.6700000",
      "longitude": "-81.2081200",
      "createdAt": "2025-12-28T18:30:24.312Z",
      "updatedAt": "2025-12-28T18:30:24.312Z",
      "stateName": "Florida",
      "countryName": "United States"
    },
    {
      "id": 8820,
      "stateId": 1065,
      "name": "Owa-Eke",
      "latitude": null,
      "longitude": null,
      "createdAt": "2025-12-28T18:40:31.414Z",
      "updatedAt": "2025-12-28T18:40:31.414Z",
      "stateName": "Delta",
      "countryName": "Nigeria"
    },
    {
      "id": 11058,
      "stateId": 151,
      "name": "Owasso",
      "latitude": "36.2695400",
      "longitude": "-95.8547100",
      "createdAt": "2025-12-28T19:00:39.645Z",
      "updatedAt": "2025-12-28T19:00:39.645Z",
      "stateName": "Oklahoma",
      "countryName": "United States"
    },
    {
      "id": 12301,
      "stateId": 49,
      "name": "Owatonna",
      "latitude": "44.0838500",
      "longitude": "-93.2260400",
      "createdAt": "2025-12-28T19:15:11.595Z",
      "updatedAt": "2025-12-28T19:15:11.595Z",
      "stateName": "Minnesota",
      "countryName": "United States"
    },
    {
      "id": 3581,
      "stateId": 6,
      "name": "Owego",
      "latitude": "37.8034989",
      "longitude": "-92.5169818",
      "createdAt": "2025-12-28T18:14:53.351Z",
      "updatedAt": "2025-12-28T18:14:53.351Z",
      "stateName": "New York",
      "countryName": "United States"
    },
    {
      "id": 3448,
      "stateId": 8,
      "name": "Owen",
      "latitude": "37.8034989",
      "longitude": "-92.5169818",
      "createdAt": "2025-12-28T18:14:26.680Z",
      "updatedAt": "2025-12-28T18:14:26.680Z",
      "stateName": "Wisconsin",
      "countryName": "United States"
    },
    {
      "id": 9785,
      "stateId": 80,
      "name": "Owensboro",
      "latitude": "37.7742200",
      "longitude": "-87.1133300",
      "createdAt": "2025-12-28T18:47:15.703Z",
      "updatedAt": "2025-12-28T18:47:15.703Z",
      "stateName": "Kentucky",
      "countryName": "United States"
    },
    {
      "id": 5684,
      "stateId": 41,
      "name": "Owen Sound",
      "latitude": "44.5671700",
      "longitude": "-80.9434900",
      "createdAt": "2025-12-28T18:21:53.505Z",
      "updatedAt": "2025-12-28T18:21:53.505Z",
      "stateName": "Ontario",
      "countryName": "Canada"
    },
    {
      "id": 13348,
      "stateId": 112,
      "name": "Owensville",
      "latitude": "37.8034989",
      "longitude": "-92.5169818",
      "createdAt": "2025-12-28T19:23:19.489Z",
      "updatedAt": "2025-12-28T19:23:19.489Z",
      "stateName": "Missouri",
      "countryName": "United States"
    },
    {
      "id": 5184,
      "stateId": 845,
      "name": "Owerri",
      "latitude": "5.4836300",
      "longitude": "7.0332500",
      "createdAt": "2025-12-28T18:20:06.365Z",
      "updatedAt": "2025-12-28T18:20:06.365Z",
      "stateName": "Imo",
      "countryName": "Nigeria"
    },
    {
      "id": 5995,
      "stateId": 80,
      "name": "Owingsville",
      "latitude": "37.8034989",
      "longitude": "-92.5169818",
      "createdAt": "2025-12-28T18:22:49.033Z",
      "updatedAt": "2025-12-28T18:22:49.033Z",
      "stateName": "Kentucky",
      "countryName": "United States"
    },
    {
      "id": 10110,
      "stateId": 92,
      "name": "Owosso",
      "latitude": "42.9978000",
      "longitude": "-84.1766400",
      "createdAt": "2025-12-28T18:50:19.719Z",
      "updatedAt": "2025-12-28T18:50:19.719Z",
      "stateName": "Michigan",
      "countryName": "United States"
    },
    {
      "id": 4872,
      "stateId": 2,
      "name": "Oxford",
      "latitude": "51.7522200",
      "longitude": "-1.2559600",
      "createdAt": "2025-12-28T18:18:55.534Z",
      "updatedAt": "2025-12-28T18:18:55.534Z",
      "stateName": "England",
      "countryName": "United Kingdom"
    },
    {
      "id": 14535,
      "stateId": 14,
      "name": "Oxford",
      "latitude": "39.5070000",
      "longitude": "-84.7452300",
      "createdAt": "2025-12-28T19:45:51.539Z",
      "updatedAt": "2025-12-28T19:45:51.539Z",
      "stateName": "Ohio",
      "countryName": "United States"
    },
    {
      "id": 1175,
      "stateId": 401,
      "name": "Oxford",
      "latitude": "34.3665000",
      "longitude": "-89.5192500",
      "createdAt": "2025-12-28T17:03:15.811Z",
      "updatedAt": "2025-12-28T17:03:15.811Z",
      "stateName": "Mississippi",
      "countryName": "United States"
    },
    {
      "id": 14905,
      "stateId": 122,
      "name": "Oxford",
      "latitude": "33.6142700",
      "longitude": "-85.8349600",
      "createdAt": "2025-12-28T19:50:16.585Z",
      "updatedAt": "2025-12-28T19:50:16.585Z",
      "stateName": "Alabama",
      "countryName": "United States"
    },
    {
      "id": 1328,
      "stateId": 24,
      "name": "Oxnard",
      "latitude": "34.1975000",
      "longitude": "-119.1770500",
      "createdAt": "2025-12-28T17:03:41.300Z",
      "updatedAt": "2025-12-28T17:03:41.300Z",
      "stateName": "California",
      "countryName": "United States"
    },
    {
      "id": 8985,
      "stateId": 64,
      "name": "Oxon HIll",
      "latitude": null,
      "longitude": null,
      "createdAt": "2025-12-28T18:41:15.118Z",
      "updatedAt": "2025-12-28T18:41:15.118Z",
      "stateName": "Maryland",
      "countryName": "United States"
    },
    {
      "id": 14939,
      "stateId": 122,
      "name": "Ozark",
      "latitude": "37.0208900",
      "longitude": "-93.2060200",
      "createdAt": "2025-12-28T19:50:27.602Z",
      "updatedAt": "2025-12-28T19:50:27.602Z",
      "stateName": "Alabama",
      "countryName": "United States"
    },
    {
      "id": 5025,
      "stateId": 112,
      "name": "Ozark",
      "latitude": "37.0208900",
      "longitude": "-93.2060200",
      "createdAt": "2025-12-28T18:19:25.869Z",
      "updatedAt": "2025-12-28T18:19:25.869Z",
      "stateName": "Missouri",
      "countryName": "United States"
    },
    {
      "id": 9218,
      "stateId": 944,
      "name": "Ozyorsk",
      "latitude": null,
      "longitude": null,
      "createdAt": "2025-12-28T18:42:38.619Z",
      "updatedAt": "2025-12-28T18:42:38.619Z",
      "stateName": "Chelyabinsk",
      "countryName": "Russia"
    },
    {
      "id": 2350,
      "stateId": 12,
      "name": "Paarl",
      "latitude": "-33.7337800",
      "longitude": "18.9752300",
      "createdAt": "2025-12-28T18:11:52.584Z",
      "updatedAt": "2025-12-28T18:11:52.584Z",
      "stateName": "Western Cape",
      "countryName": "South Africa"
    }
  ],
  "meta": {
    "page": 118,
    "limit": 100,
    "total": 18002,
    "totalPages": 181
  }
}
