{
  "source": "50k-radio-stations",
  "provider": "rapidapi",
  "syncedAt": "2026-06-03T13:05:16.808Z",
  "endpoint": "/cities",
  "page": 92,
  "limit": 250,
  "data": [
    {
      "id": 3714,
      "stateId": 152,
      "name": "Litchfield",
      "latitude": "37.8034989",
      "longitude": "-92.5169818",
      "createdAt": "2025-12-28T18:15:03.446Z",
      "updatedAt": "2025-12-28T18:15:03.446Z",
      "stateName": "Connecticut",
      "countryName": "United States"
    },
    {
      "id": 4427,
      "stateId": 19,
      "name": "Lithgow",
      "latitude": null,
      "longitude": null,
      "createdAt": "2025-12-28T18:17:30.811Z",
      "updatedAt": "2025-12-28T18:17:30.811Z",
      "stateName": "New South Wales",
      "countryName": "Australia"
    },
    {
      "id": 6616,
      "stateId": 41,
      "name": "Little Current",
      "latitude": "46.9909847",
      "longitude": "-87.5986915",
      "createdAt": "2025-12-28T18:26:09.300Z",
      "updatedAt": "2025-12-28T18:26:09.300Z",
      "stateName": "Ontario",
      "countryName": "Canada"
    },
    {
      "id": 8665,
      "stateId": 395,
      "name": "Little Eagle",
      "latitude": "37.8034989",
      "longitude": "-92.5169818",
      "createdAt": "2025-12-28T18:39:37.570Z",
      "updatedAt": "2025-12-28T18:39:37.570Z",
      "stateName": "South Dakota",
      "countryName": "United States"
    },
    {
      "id": 9816,
      "stateId": 49,
      "name": "Little Falls",
      "latitude": "37.8034989",
      "longitude": "-92.5169818",
      "createdAt": "2025-12-28T18:47:26.578Z",
      "updatedAt": "2025-12-28T18:47:26.578Z",
      "stateName": "Minnesota",
      "countryName": "United States"
    },
    {
      "id": 255,
      "stateId": 6,
      "name": "Little Falls",
      "latitude": "37.8034989",
      "longitude": "-92.5169818",
      "createdAt": "2025-12-28T16:56:38.847Z",
      "updatedAt": "2025-12-28T16:56:38.847Z",
      "stateName": "New York",
      "countryName": "United States"
    },
    {
      "id": 14547,
      "stateId": 14,
      "name": "Little Hocking",
      "latitude": "37.8034989",
      "longitude": "-92.5169818",
      "createdAt": "2025-12-28T19:45:54.907Z",
      "updatedAt": "2025-12-28T19:45:54.907Z",
      "stateName": "Ohio",
      "countryName": "United States"
    },
    {
      "id": 38,
      "stateId": 32,
      "name": "Little Rock",
      "latitude": "34.7464800",
      "longitude": "-92.2895900",
      "createdAt": "2025-12-28T16:36:32.504Z",
      "updatedAt": "2025-12-28T16:36:32.504Z",
      "stateName": "Arkansas",
      "countryName": "United States"
    },
    {
      "id": 13118,
      "stateId": 27,
      "name": "Littleton",
      "latitude": "39.6133200",
      "longitude": "-105.0166500",
      "createdAt": "2025-12-28T19:20:54.773Z",
      "updatedAt": "2025-12-28T19:20:54.773Z",
      "stateName": "Colorado",
      "countryName": "United States"
    },
    {
      "id": 9127,
      "stateId": 47,
      "name": "Littleton",
      "latitude": null,
      "longitude": null,
      "createdAt": "2025-12-28T18:41:52.997Z",
      "updatedAt": "2025-12-28T18:41:52.997Z",
      "stateName": "Massachusetts",
      "countryName": "United States"
    },
    {
      "id": 16600,
      "stateId": 122,
      "name": "Littleville",
      "latitude": "37.8034989",
      "longitude": "-92.5169818",
      "createdAt": "2025-12-28T20:47:43.271Z",
      "updatedAt": "2025-12-28T20:47:43.271Z",
      "stateName": "Alabama",
      "countryName": "United States"
    },
    {
      "id": 10755,
      "stateId": 33,
      "name": "Live Oak",
      "latitude": "36.9835600",
      "longitude": "-121.9805200",
      "createdAt": "2025-12-28T18:57:07.177Z",
      "updatedAt": "2025-12-28T18:57:07.177Z",
      "stateName": "Florida",
      "countryName": "United States"
    },
    {
      "id": 12821,
      "stateId": 24,
      "name": "Livermore",
      "latitude": "37.6818700",
      "longitude": "-121.7680100",
      "createdAt": "2025-12-28T19:18:52.072Z",
      "updatedAt": "2025-12-28T19:18:52.072Z",
      "stateName": "California",
      "countryName": "United States"
    },
    {
      "id": 7054,
      "stateId": 509,
      "name": "Liverpool",
      "latitude": "46.9909847",
      "longitude": "-87.5986915",
      "createdAt": "2025-12-28T18:27:56.305Z",
      "updatedAt": "2025-12-28T18:27:56.305Z",
      "stateName": "Nova Scotia",
      "countryName": "Canada"
    },
    {
      "id": 1496,
      "stateId": 2,
      "name": "Liverpool",
      "latitude": "53.4105800",
      "longitude": "-2.9779400",
      "createdAt": "2025-12-28T17:04:35.795Z",
      "updatedAt": "2025-12-28T17:04:35.795Z",
      "stateName": "England",
      "countryName": "United Kingdom"
    },
    {
      "id": 3756,
      "stateId": 19,
      "name": "Liverpool",
      "latitude": "-33.9000000",
      "longitude": "150.9333300",
      "createdAt": "2025-12-28T18:15:11.501Z",
      "updatedAt": "2025-12-28T18:15:11.501Z",
      "stateName": "New South Wales",
      "countryName": "Australia"
    },
    {
      "id": 17337,
      "stateId": 444,
      "name": "Livingston",
      "latitude": null,
      "longitude": null,
      "createdAt": "2025-12-29T19:05:47.685Z",
      "updatedAt": "2025-12-29T19:05:47.685Z",
      "stateName": "Scotland",
      "countryName": "United Kingdom"
    },
    {
      "id": 13500,
      "stateId": 21,
      "name": "Livingston",
      "latitude": "40.7959300",
      "longitude": "-74.3148700",
      "createdAt": "2025-12-28T19:27:13.076Z",
      "updatedAt": "2025-12-28T19:27:13.076Z",
      "stateName": "Tennessee",
      "countryName": "United States"
    },
    {
      "id": 11320,
      "stateId": 92,
      "name": "Livingston",
      "latitude": "37.8034989",
      "longitude": "-92.5169818",
      "createdAt": "2025-12-28T19:04:22.806Z",
      "updatedAt": "2025-12-28T19:04:22.806Z",
      "stateName": "Michigan",
      "countryName": "United States"
    },
    {
      "id": 9130,
      "stateId": 106,
      "name": "Livingston",
      "latitude": null,
      "longitude": null,
      "createdAt": "2025-12-28T18:41:53.105Z",
      "updatedAt": "2025-12-28T18:41:53.105Z",
      "stateName": "New Jersey",
      "countryName": "United States"
    },
    {
      "id": 12461,
      "stateId": 24,
      "name": "Livingston",
      "latitude": "37.8034989",
      "longitude": "-92.5169818",
      "createdAt": "2025-12-28T19:15:58.988Z",
      "updatedAt": "2025-12-28T19:15:58.988Z",
      "stateName": "California",
      "countryName": "United States"
    },
    {
      "id": 12928,
      "stateId": 153,
      "name": "Livingston",
      "latitude": "37.8034989",
      "longitude": "-92.5169818",
      "createdAt": "2025-12-28T19:19:37.922Z",
      "updatedAt": "2025-12-28T19:19:37.922Z",
      "stateName": "Montana",
      "countryName": "United States"
    },
    {
      "id": 8532,
      "stateId": 20,
      "name": "Livingston",
      "latitude": "40.7959300",
      "longitude": "-74.3148700",
      "createdAt": "2025-12-28T18:39:08.784Z",
      "updatedAt": "2025-12-28T18:39:08.784Z",
      "stateName": "Texas",
      "countryName": "United States"
    },
    {
      "id": 9481,
      "stateId": 466,
      "name": "Lívingston",
      "latitude": null,
      "longitude": null,
      "createdAt": "2025-12-28T18:44:26.261Z",
      "updatedAt": "2025-12-28T18:44:26.261Z",
      "stateName": "Izabal",
      "countryName": "Guatemala"
    },
    {
      "id": 17236,
      "stateId": 1348,
      "name": "Livny",
      "latitude": null,
      "longitude": null,
      "createdAt": "2025-12-29T16:12:03.978Z",
      "updatedAt": "2025-12-29T16:12:03.978Z",
      "stateName": "Oryol",
      "countryName": "Russia"
    },
    {
      "id": 18252,
      "stateId": 1423,
      "name": "Livny",
      "latitude": null,
      "longitude": null,
      "createdAt": "2026-05-04T13:33:24.602Z",
      "updatedAt": "2026-05-04T13:33:24.602Z",
      "stateName": "Oryol Oblast",
      "countryName": "Russia"
    },
    {
      "id": 9915,
      "stateId": 92,
      "name": "​Livonia",
      "latitude": null,
      "longitude": null,
      "createdAt": "2025-12-28T18:48:42.970Z",
      "updatedAt": "2025-12-28T18:48:42.970Z",
      "stateName": "Michigan",
      "countryName": "United States"
    },
    {
      "id": 9648,
      "stateId": 92,
      "name": "Livonia",
      "latitude": "42.3683700",
      "longitude": "-83.3527100",
      "createdAt": "2025-12-28T18:46:09.427Z",
      "updatedAt": "2025-12-28T18:46:09.427Z",
      "stateName": "Michigan",
      "countryName": "United States"
    },
    {
      "id": 5857,
      "stateId": 321,
      "name": "Livorno",
      "latitude": "43.5442700",
      "longitude": "10.3261500",
      "createdAt": "2025-12-28T18:22:29.719Z",
      "updatedAt": "2025-12-28T18:22:29.719Z",
      "stateName": "Tuscany",
      "countryName": "Italy"
    },
    {
      "id": 15139,
      "stateId": 262,
      "name": "Livramento de Nossa Senhora",
      "latitude": null,
      "longitude": null,
      "createdAt": "2025-12-28T19:56:03.973Z",
      "updatedAt": "2025-12-28T19:56:03.973Z",
      "stateName": "Bahia",
      "countryName": "Brazil"
    },
    {
      "id": 6196,
      "stateId": 917,
      "name": "Ljig",
      "latitude": null,
      "longitude": null,
      "createdAt": "2025-12-28T18:23:26.966Z",
      "updatedAt": "2025-12-28T18:23:26.966Z",
      "stateName": "Kolubara",
      "countryName": "Serbia"
    },
    {
      "id": 2933,
      "stateId": 636,
      "name": "Ljubljana",
      "latitude": "46.0510800",
      "longitude": "14.5051300",
      "createdAt": "2025-12-28T18:13:06.355Z",
      "updatedAt": "2025-12-28T18:13:06.355Z",
      "stateName": "Ljubljana",
      "countryName": "Slovenia"
    },
    {
      "id": 13107,
      "stateId": 1115,
      "name": "Ljungby",
      "latitude": "58.9901705",
      "longitude": "15.8143176",
      "createdAt": "2025-12-28T19:20:49.601Z",
      "updatedAt": "2025-12-28T19:20:49.601Z",
      "stateName": "Kronoberg",
      "countryName": "Sweden"
    },
    {
      "id": 9704,
      "stateId": 275,
      "name": "Llallagua",
      "latitude": null,
      "longitude": null,
      "createdAt": "2025-12-28T18:46:52.558Z",
      "updatedAt": "2025-12-28T18:46:52.558Z",
      "stateName": "Potosi",
      "countryName": "Bolivia"
    },
    {
      "id": 13554,
      "stateId": 656,
      "name": "Llamellin",
      "latitude": null,
      "longitude": null,
      "createdAt": "2025-12-28T19:27:47.526Z",
      "updatedAt": "2025-12-28T19:27:47.526Z",
      "stateName": "Ancash",
      "countryName": "Peru"
    },
    {
      "id": 13553,
      "stateId": 115,
      "name": "Llançà",
      "latitude": null,
      "longitude": null,
      "createdAt": "2025-12-28T19:27:47.161Z",
      "updatedAt": "2025-12-28T19:27:47.161Z",
      "stateName": "Barcelona",
      "countryName": "Spain"
    },
    {
      "id": 7848,
      "stateId": 82,
      "name": "Llandovery",
      "latitude": null,
      "longitude": null,
      "createdAt": "2025-12-28T18:32:39.757Z",
      "updatedAt": "2025-12-28T18:32:39.757Z",
      "stateName": "Wales",
      "countryName": "United Kingdom"
    },
    {
      "id": 13557,
      "stateId": 82,
      "name": "Llanelli",
      "latitude": "51.6819500",
      "longitude": "-4.1619100",
      "createdAt": "2025-12-28T19:27:48.105Z",
      "updatedAt": "2025-12-28T19:27:48.105Z",
      "stateName": "Wales",
      "countryName": "United Kingdom"
    },
    {
      "id": 1167,
      "stateId": 130,
      "name": "Llanes",
      "latitude": "39.2717249",
      "longitude": "-3.2471696",
      "createdAt": "2025-12-28T17:03:15.322Z",
      "updatedAt": "2025-12-28T17:03:15.322Z",
      "stateName": "Asturias",
      "countryName": "Spain"
    },
    {
      "id": 13558,
      "stateId": 82,
      "name": "Llangefni",
      "latitude": null,
      "longitude": null,
      "createdAt": "2025-12-28T19:27:48.203Z",
      "updatedAt": "2025-12-28T19:27:48.203Z",
      "stateName": "Wales",
      "countryName": "United Kingdom"
    },
    {
      "id": 3655,
      "stateId": 20,
      "name": "Llano",
      "latitude": "37.8034989",
      "longitude": "-92.5169818",
      "createdAt": "2025-12-28T18:15:00.109Z",
      "updatedAt": "2025-12-28T18:15:00.109Z",
      "stateName": "Texas",
      "countryName": "United States"
    },
    {
      "id": 1208,
      "stateId": 115,
      "name": "Lleida",
      "latitude": "41.6167400",
      "longitude": "0.6221800",
      "createdAt": "2025-12-28T17:03:18.209Z",
      "updatedAt": "2025-12-28T17:03:18.209Z",
      "stateName": "Barcelona",
      "countryName": "Spain"
    },
    {
      "id": 13555,
      "stateId": 798,
      "name": "Llerena",
      "latitude": "39.2717249",
      "longitude": "-3.2471696",
      "createdAt": "2025-12-28T19:27:47.570Z",
      "updatedAt": "2025-12-28T19:27:47.570Z",
      "stateName": "Extremadura",
      "countryName": "Spain"
    },
    {
      "id": 13556,
      "stateId": 115,
      "name": "Lloret de Mar",
      "latitude": null,
      "longitude": null,
      "createdAt": "2025-12-28T19:27:47.957Z",
      "updatedAt": "2025-12-28T19:27:47.957Z",
      "stateName": "Barcelona",
      "countryName": "Spain"
    },
    {
      "id": 7083,
      "stateId": 124,
      "name": "Lloydminster",
      "latitude": "53.2834600",
      "longitude": "-110.0015700",
      "createdAt": "2025-12-28T18:28:08.202Z",
      "updatedAt": "2025-12-28T18:28:08.202Z",
      "stateName": "Alberta",
      "countryName": "Canada"
    },
    {
      "id": 13560,
      "stateId": 131,
      "name": "Llucmajor",
      "latitude": null,
      "longitude": null,
      "createdAt": "2025-12-28T19:27:48.348Z",
      "updatedAt": "2025-12-28T19:27:48.348Z",
      "stateName": "Balearic Islands",
      "countryName": "Spain"
    },
    {
      "id": 6801,
      "stateId": 137,
      "name": "Loanda",
      "latitude": null,
      "longitude": null,
      "createdAt": "2025-12-28T18:27:14.791Z",
      "updatedAt": "2025-12-28T18:27:14.791Z",
      "stateName": "Paraná",
      "countryName": "Brazil"
    },
    {
      "id": 18010,
      "stateId": 222,
      "name": "Loano",
      "latitude": "-27.8333300",
      "longitude": "26.7500000",
      "createdAt": "2026-03-28T09:16:12.167Z",
      "updatedAt": "2026-03-28T09:16:12.167Z",
      "stateName": "Liguria",
      "countryName": "Italy"
    },
    {
      "id": 4024,
      "stateId": 167,
      "name": "Lo Barnechea",
      "latitude": null,
      "longitude": null,
      "createdAt": "2025-12-28T18:15:52.885Z",
      "updatedAt": "2025-12-28T18:15:52.885Z",
      "stateName": "Región Metropolitana de Santiago",
      "countryName": "Chile"
    },
    {
      "id": 16652,
      "stateId": 21,
      "name": "Lobelville",
      "latitude": "37.8034989",
      "longitude": "-92.5169818",
      "createdAt": "2025-12-28T20:48:46.311Z",
      "updatedAt": "2025-12-28T20:48:46.311Z",
      "stateName": "Tennessee",
      "countryName": "United States"
    },
    {
      "id": 15504,
      "stateId": 58,
      "name": "Loberia",
      "latitude": null,
      "longitude": null,
      "createdAt": "2025-12-28T20:09:14.227Z",
      "updatedAt": "2025-12-28T20:09:14.227Z",
      "stateName": "Buenos Aires",
      "countryName": "Argentina"
    },
    {
      "id": 2830,
      "stateId": 58,
      "name": "Lobos",
      "latitude": "32.6333300",
      "longitude": "-16.9666700",
      "createdAt": "2025-12-28T18:12:50.778Z",
      "updatedAt": "2025-12-28T18:12:50.778Z",
      "stateName": "Buenos Aires",
      "countryName": "Argentina"
    },
    {
      "id": 18011,
      "stateId": 300,
      "name": "Loches",
      "latitude": "47.3768156",
      "longitude": "2.7742767",
      "createdAt": "2026-03-28T10:11:06.745Z",
      "updatedAt": "2026-03-28T10:11:06.745Z",
      "stateName": "Centre-Val de Loire",
      "countryName": "France"
    },
    {
      "id": 12886,
      "stateId": 20,
      "name": "Lockhart",
      "latitude": "37.8034989",
      "longitude": "-92.5169818",
      "createdAt": "2025-12-28T19:19:21.046Z",
      "updatedAt": "2025-12-28T19:19:21.046Z",
      "stateName": "Texas",
      "countryName": "United States"
    },
    {
      "id": 10750,
      "stateId": 68,
      "name": "Lock Haven",
      "latitude": "37.8034989",
      "longitude": "-92.5169818",
      "createdAt": "2025-12-28T18:57:03.694Z",
      "updatedAt": "2025-12-28T18:57:03.694Z",
      "stateName": "Pennsylvania",
      "countryName": "United States"
    },
    {
      "id": 11252,
      "stateId": 6,
      "name": "Lockport",
      "latitude": "43.1706100",
      "longitude": "-78.6903100",
      "createdAt": "2025-12-28T19:03:31.311Z",
      "updatedAt": "2025-12-28T19:03:31.311Z",
      "stateName": "New York",
      "countryName": "United States"
    },
    {
      "id": 13124,
      "stateId": 153,
      "name": "Lockwood",
      "latitude": "37.8034989",
      "longitude": "-92.5169818",
      "createdAt": "2025-12-28T19:20:56.963Z",
      "updatedAt": "2025-12-28T19:20:56.963Z",
      "stateName": "Montana",
      "countryName": "United States"
    },
    {
      "id": 14071,
      "stateId": 223,
      "name": "Locri",
      "latitude": "42.4957616",
      "longitude": "12.4479260",
      "createdAt": "2025-12-28T19:38:34.930Z",
      "updatedAt": "2025-12-28T19:38:34.930Z",
      "stateName": "Calabria",
      "countryName": "Italy"
    },
    {
      "id": 10992,
      "stateId": 22,
      "name": "Locust Grove",
      "latitude": null,
      "longitude": null,
      "createdAt": "2025-12-28T19:00:01.273Z",
      "updatedAt": "2025-12-28T19:00:01.273Z",
      "stateName": "Georgia",
      "countryName": "United States"
    },
    {
      "id": 11142,
      "stateId": 38,
      "name": "Lodève",
      "latitude": "47.3768156",
      "longitude": "2.7742767",
      "createdAt": "2025-12-28T19:01:22.330Z",
      "updatedAt": "2025-12-28T19:01:22.330Z",
      "stateName": "Occitanie",
      "countryName": "France"
    },
    {
      "id": 1925,
      "stateId": 98,
      "name": "Lodi",
      "latitude": "45.3098900",
      "longitude": "9.5008500",
      "createdAt": "2025-12-28T18:10:31.066Z",
      "updatedAt": "2025-12-28T18:10:31.066Z",
      "stateName": "Lombardy",
      "countryName": "Italy"
    },
    {
      "id": 12405,
      "stateId": 24,
      "name": "Lodi",
      "latitude": "38.1302000",
      "longitude": "-121.2724500",
      "createdAt": "2025-12-28T19:15:48.908Z",
      "updatedAt": "2025-12-28T19:15:48.908Z",
      "stateName": "California",
      "countryName": "United States"
    },
    {
      "id": 12068,
      "stateId": 106,
      "name": "Lodi",
      "latitude": "40.8823200",
      "longitude": "-74.0832000",
      "createdAt": "2025-12-28T19:12:00.726Z",
      "updatedAt": "2025-12-28T19:12:00.726Z",
      "stateName": "New Jersey",
      "countryName": "United States"
    },
    {
      "id": 7818,
      "stateId": 837,
      "name": "Lódz",
      "latitude": "51.8024603",
      "longitude": "19.2550087",
      "createdAt": "2025-12-28T18:32:18.891Z",
      "updatedAt": "2025-12-28T18:32:18.891Z",
      "stateName": "Łódź",
      "countryName": "Poland"
    },
    {
      "id": 9651,
      "stateId": 167,
      "name": "Lo Espejo",
      "latitude": null,
      "longitude": null,
      "createdAt": "2025-12-28T18:46:10.037Z",
      "updatedAt": "2025-12-28T18:46:10.037Z",
      "stateName": "Región Metropolitana de Santiago",
      "countryName": "Chile"
    },
    {
      "id": 4780,
      "stateId": 809,
      "name": "Loga",
      "latitude": null,
      "longitude": null,
      "createdAt": "2025-12-28T18:18:40.357Z",
      "updatedAt": "2025-12-28T18:18:40.357Z",
      "stateName": "Granada",
      "countryName": "Spain"
    },
    {
      "id": 14583,
      "stateId": 14,
      "name": "Logan",
      "latitude": "41.7354900",
      "longitude": "-111.8343900",
      "createdAt": "2025-12-28T19:46:03.633Z",
      "updatedAt": "2025-12-28T19:46:03.633Z",
      "stateName": "Ohio",
      "countryName": "United States"
    },
    {
      "id": 2499,
      "stateId": 430,
      "name": "Logan",
      "latitude": "41.7354900",
      "longitude": "-111.8343900",
      "createdAt": "2025-12-28T18:12:17.898Z",
      "updatedAt": "2025-12-28T18:12:17.898Z",
      "stateName": "Utah",
      "countryName": "United States"
    },
    {
      "id": 4403,
      "stateId": 74,
      "name": "Logan City",
      "latitude": "-27.6391700",
      "longitude": "153.1094400",
      "createdAt": "2025-12-28T18:17:24.518Z",
      "updatedAt": "2025-12-28T18:17:24.518Z",
      "stateName": "Queensland",
      "countryName": "Australia"
    },
    {
      "id": 3668,
      "stateId": 51,
      "name": "Logansport",
      "latitude": "40.7544800",
      "longitude": "-86.3566700",
      "createdAt": "2025-12-28T18:15:00.677Z",
      "updatedAt": "2025-12-28T18:15:00.677Z",
      "stateName": "Indiana",
      "countryName": "United States"
    },
    {
      "id": 11797,
      "stateId": 22,
      "name": "Loganville",
      "latitude": "37.8034989",
      "longitude": "-92.5169818",
      "createdAt": "2025-12-28T19:09:39.669Z",
      "updatedAt": "2025-12-28T19:09:39.669Z",
      "stateName": "Georgia",
      "countryName": "United States"
    },
    {
      "id": 807,
      "stateId": 348,
      "name": "Logroño",
      "latitude": null,
      "longitude": null,
      "createdAt": "2025-12-28T17:02:19.866Z",
      "updatedAt": "2025-12-28T17:02:19.866Z",
      "stateName": "La Rioja",
      "countryName": "Spain"
    },
    {
      "id": 461,
      "stateId": 34,
      "name": "Lohr a. Main",
      "latitude": null,
      "longitude": null,
      "createdAt": "2025-12-28T17:00:51.334Z",
      "updatedAt": "2025-12-28T17:00:51.334Z",
      "stateName": "Bavaria",
      "countryName": "Germany"
    },
    {
      "id": 1420,
      "stateId": 463,
      "name": "Loja",
      "latitude": "-3.9931300",
      "longitude": "-79.2042200",
      "createdAt": "2025-12-28T17:04:28.937Z",
      "updatedAt": "2025-12-28T17:04:28.937Z",
      "stateName": "Loja",
      "countryName": "Ecuador"
    },
    {
      "id": 8709,
      "stateId": 611,
      "name": "Lokeren",
      "latitude": "51.1036400",
      "longitude": "3.9933900",
      "createdAt": "2025-12-28T18:39:42.515Z",
      "updatedAt": "2025-12-28T18:39:42.515Z",
      "stateName": "East Flanders",
      "countryName": "Belgium"
    },
    {
      "id": 17336,
      "stateId": 77,
      "name": "Lokoja",
      "latitude": null,
      "longitude": null,
      "createdAt": "2025-12-29T19:05:40.848Z",
      "updatedAt": "2025-12-29T19:05:40.848Z",
      "stateName": "Katsina State",
      "countryName": "Nigeria"
    },
    {
      "id": 12490,
      "stateId": 153,
      "name": "Lolo",
      "latitude": "37.8034989",
      "longitude": "-92.5169818",
      "createdAt": "2025-12-28T19:16:10.258Z",
      "updatedAt": "2025-12-28T19:16:10.258Z",
      "stateName": "Montana",
      "countryName": "United States"
    },
    {
      "id": 6090,
      "stateId": 398,
      "name": "Loma Bonita",
      "latitude": "21.0459460",
      "longitude": "-100.0405298",
      "createdAt": "2025-12-28T18:23:14.403Z",
      "updatedAt": "2025-12-28T18:23:14.403Z",
      "stateName": "Oaxaca",
      "countryName": "Mexico"
    },
    {
      "id": 12430,
      "stateId": 24,
      "name": "Loma Linda",
      "latitude": "34.0483500",
      "longitude": "-117.2611500",
      "createdAt": "2025-12-28T19:15:54.384Z",
      "updatedAt": "2025-12-28T19:15:54.384Z",
      "stateName": "California",
      "countryName": "United States"
    },
    {
      "id": 8935,
      "stateId": 58,
      "name": "Lomas del Mirador",
      "latitude": "-32.1628172",
      "longitude": "-62.0921509",
      "createdAt": "2025-12-28T18:41:03.942Z",
      "updatedAt": "2025-12-28T18:41:03.942Z",
      "stateName": "Buenos Aires",
      "countryName": "Argentina"
    },
    {
      "id": 1395,
      "stateId": 58,
      "name": "Lomas de Zamora",
      "latitude": "-32.1628172",
      "longitude": "-62.0921509",
      "createdAt": "2025-12-28T17:04:25.841Z",
      "updatedAt": "2025-12-28T17:04:25.841Z",
      "stateName": "Buenos Aires",
      "countryName": "Argentina"
    },
    {
      "id": 15782,
      "stateId": 8,
      "name": "Lomira",
      "latitude": null,
      "longitude": null,
      "createdAt": "2025-12-28T20:19:18.903Z",
      "updatedAt": "2025-12-28T20:19:18.903Z",
      "stateName": "Wisconsin",
      "countryName": "United States"
    },
    {
      "id": 249,
      "stateId": 24,
      "name": "Lompoc",
      "latitude": "34.6391500",
      "longitude": "-120.4579400",
      "createdAt": "2025-12-28T16:56:38.543Z",
      "updatedAt": "2025-12-28T16:56:38.543Z",
      "stateName": "California",
      "countryName": "United States"
    },
    {
      "id": 9399,
      "stateId": 640,
      "name": "Lomza",
      "latitude": "51.8024603",
      "longitude": "19.2550087",
      "createdAt": "2025-12-28T18:44:03.874Z",
      "updatedAt": "2025-12-28T18:44:03.874Z",
      "stateName": "Podlaskie",
      "countryName": "Poland"
    },
    {
      "id": 1527,
      "stateId": 80,
      "name": "London",
      "latitude": "37.8034989",
      "longitude": "-92.5169818",
      "createdAt": "2025-12-28T17:04:39.429Z",
      "updatedAt": "2025-12-28T17:04:39.429Z",
      "stateName": "Kentucky",
      "countryName": "United States"
    },
    {
      "id": 4856,
      "stateId": 14,
      "name": "London",
      "latitude": "37.8034989",
      "longitude": "-92.5169818",
      "createdAt": "2025-12-28T18:18:50.440Z",
      "updatedAt": "2025-12-28T18:18:50.440Z",
      "stateName": "Ohio",
      "countryName": "United States"
    },
    {
      "id": 2,
      "stateId": 2,
      "name": "London",
      "latitude": "51.5085300",
      "longitude": "-0.1257400",
      "createdAt": "2025-12-28T16:13:36.675Z",
      "updatedAt": "2025-12-28T16:13:36.675Z",
      "stateName": "England",
      "countryName": "United Kingdom"
    },
    {
      "id": 904,
      "stateId": 41,
      "name": "London",
      "latitude": "42.9833900",
      "longitude": "-81.2330400",
      "createdAt": "2025-12-28T17:02:27.186Z",
      "updatedAt": "2025-12-28T17:02:27.186Z",
      "stateName": "Ontario",
      "countryName": "Canada"
    },
    {
      "id": 541,
      "stateId": 137,
      "name": "Londrina",
      "latitude": "-23.3102800",
      "longitude": "-51.1627800",
      "createdAt": "2025-12-28T17:01:04.589Z",
      "updatedAt": "2025-12-28T17:01:04.589Z",
      "stateName": "Paraná",
      "countryName": "Brazil"
    },
    {
      "id": 10864,
      "stateId": 151,
      "name": "Lone Grove",
      "latitude": "37.8034989",
      "longitude": "-92.5169818",
      "createdAt": "2025-12-28T18:58:20.663Z",
      "updatedAt": "2025-12-28T18:58:20.663Z",
      "stateName": "Oklahoma",
      "countryName": "United States"
    },
    {
      "id": 1028,
      "stateId": 24,
      "name": "Long Beach",
      "latitude": "33.7669600",
      "longitude": "-118.1892300",
      "createdAt": "2025-12-28T17:02:34.501Z",
      "updatedAt": "2025-12-28T17:02:34.501Z",
      "stateName": "California",
      "countryName": "United States"
    },
    {
      "id": 12252,
      "stateId": 401,
      "name": "Long Beach",
      "latitude": "37.8034989",
      "longitude": "-92.5169818",
      "createdAt": "2025-12-28T19:14:44.216Z",
      "updatedAt": "2025-12-28T19:14:44.216Z",
      "stateName": "Mississippi",
      "countryName": "United States"
    },
    {
      "id": 5713,
      "stateId": 106,
      "name": "Long Branch",
      "latitude": "40.3042800",
      "longitude": "-73.9923600",
      "createdAt": "2025-12-28T18:21:58.812Z",
      "updatedAt": "2025-12-28T18:21:58.812Z",
      "stateName": "New Jersey",
      "countryName": "United States"
    },
    {
      "id": 5469,
      "stateId": 6,
      "name": "Long Island",
      "latitude": "40.7448200",
      "longitude": "-73.9487500",
      "createdAt": "2025-12-28T18:21:00.756Z",
      "updatedAt": "2025-12-28T18:21:00.756Z",
      "stateName": "New York",
      "countryName": "United States"
    },
    {
      "id": 5200,
      "stateId": 6,
      "name": "Long Island City",
      "latitude": "40.7448200",
      "longitude": "-73.9487500",
      "createdAt": "2025-12-28T18:20:08.404Z",
      "updatedAt": "2025-12-28T18:20:08.404Z",
      "stateName": "New York",
      "countryName": "United States"
    },
    {
      "id": 14095,
      "stateId": 6,
      "name": "Long Lake",
      "latitude": "37.8034989",
      "longitude": "-92.5169818",
      "createdAt": "2025-12-28T19:38:57.541Z",
      "updatedAt": "2025-12-28T19:38:57.541Z",
      "stateName": "New York",
      "countryName": "United States"
    },
    {
      "id": 9683,
      "stateId": 27,
      "name": "Longmont",
      "latitude": "40.1672100",
      "longitude": "-105.1019300",
      "createdAt": "2025-12-28T18:46:42.886Z",
      "updatedAt": "2025-12-28T18:46:42.886Z",
      "stateName": "Colorado",
      "countryName": "United States"
    },
    {
      "id": 15319,
      "stateId": 121,
      "name": "Long Plain",
      "latitude": null,
      "longitude": null,
      "createdAt": "2025-12-28T20:02:23.797Z",
      "updatedAt": "2025-12-28T20:02:23.797Z",
      "stateName": "Manitoba",
      "countryName": "Canada"
    },
    {
      "id": 1806,
      "stateId": 74,
      "name": "Longreach",
      "latitude": "-33.9811915",
      "longitude": "144.8351072",
      "createdAt": "2025-12-28T18:10:12.411Z",
      "updatedAt": "2025-12-28T18:10:12.411Z",
      "stateName": "Queensland",
      "countryName": "Australia"
    },
    {
      "id": 6661,
      "stateId": 258,
      "name": "Longueuil",
      "latitude": "45.5312100",
      "longitude": "-73.5180600",
      "createdAt": "2025-12-28T18:26:20.618Z",
      "updatedAt": "2025-12-28T18:26:20.618Z",
      "stateName": "Quebec",
      "countryName": "Canada"
    }
  ],
  "meta": {
    "page": 92,
    "limit": 100,
    "total": 18002,
    "totalPages": 181
  }
}
