{
  "source": "50k-radio-stations",
  "provider": "rapidapi",
  "syncedAt": "2026-06-03T13:04:31.329Z",
  "endpoint": "/cities",
  "page": 38,
  "limit": 250,
  "data": [
    {
      "id": 3080,
      "stateId": 190,
      "name": "Coatzacoalcos",
      "latitude": "18.1334600",
      "longitude": "-94.4424200",
      "createdAt": "2025-12-28T18:13:39.244Z",
      "updatedAt": "2025-12-28T18:13:39.244Z",
      "stateName": "Veracruz",
      "countryName": "Mexico"
    },
    {
      "id": 2234,
      "stateId": 569,
      "name": "Coban",
      "latitude": "14.8315200",
      "longitude": "-90.7261285",
      "createdAt": "2025-12-28T18:11:18.582Z",
      "updatedAt": "2025-12-28T18:11:18.582Z",
      "stateName": "Alta Verapaz",
      "countryName": "Guatemala"
    },
    {
      "id": 10709,
      "stateId": 569,
      "name": "Cobán",
      "latitude": null,
      "longitude": null,
      "createdAt": "2025-12-28T18:56:48.797Z",
      "updatedAt": "2025-12-28T18:56:48.797Z",
      "stateName": "Alta Verapaz",
      "countryName": "Guatemala"
    },
    {
      "id": 14324,
      "stateId": 6,
      "name": "Cobleskill",
      "latitude": "37.8034989",
      "longitude": "-92.5169818",
      "createdAt": "2025-12-28T19:43:14.993Z",
      "updatedAt": "2025-12-28T19:43:14.993Z",
      "stateName": "New York",
      "countryName": "United States"
    },
    {
      "id": 6614,
      "stateId": 41,
      "name": "Cobourg",
      "latitude": "43.9597700",
      "longitude": "-78.1651500",
      "createdAt": "2025-12-28T18:26:09.188Z",
      "updatedAt": "2025-12-28T18:26:09.188Z",
      "stateName": "Ontario",
      "countryName": "Canada"
    },
    {
      "id": 6050,
      "stateId": 81,
      "name": "Coburg",
      "latitude": "37.8034989",
      "longitude": "-92.5169818",
      "createdAt": "2025-12-28T18:23:09.298Z",
      "updatedAt": "2025-12-28T18:23:09.298Z",
      "stateName": "Oregon",
      "countryName": "United States"
    },
    {
      "id": 402,
      "stateId": 34,
      "name": "Coburg",
      "latitude": "50.2593700",
      "longitude": "10.9638400",
      "createdAt": "2025-12-28T17:00:48.419Z",
      "updatedAt": "2025-12-28T17:00:48.419Z",
      "stateName": "Bavaria",
      "countryName": "Germany"
    },
    {
      "id": 14896,
      "stateId": 174,
      "name": "Cocal",
      "latitude": null,
      "longitude": null,
      "createdAt": "2025-12-28T19:50:14.678Z",
      "updatedAt": "2025-12-28T19:50:14.678Z",
      "stateName": "Piauí",
      "countryName": "Brazil"
    },
    {
      "id": 17009,
      "stateId": 293,
      "name": "Cocal do Sul",
      "latitude": null,
      "longitude": null,
      "createdAt": "2025-12-29T14:01:03.376Z",
      "updatedAt": "2025-12-29T14:01:03.376Z",
      "stateName": "Santa Catarina",
      "countryName": "Brazil"
    },
    {
      "id": 15971,
      "stateId": 85,
      "name": "Cocalinho",
      "latitude": null,
      "longitude": null,
      "createdAt": "2025-12-28T20:24:47.117Z",
      "updatedAt": "2025-12-28T20:24:47.117Z",
      "stateName": "Mato Grosso",
      "countryName": "Brazil"
    },
    {
      "id": 8204,
      "stateId": 253,
      "name": "Cocalzinho de Goiás",
      "latitude": "-17.4339069",
      "longitude": "-45.8426650",
      "createdAt": "2025-12-28T18:36:24.623Z",
      "updatedAt": "2025-12-28T18:36:24.623Z",
      "stateName": "Goiás",
      "countryName": "Brazil"
    },
    {
      "id": 7388,
      "stateId": 120,
      "name": "Cocentaina",
      "latitude": "39.2717249",
      "longitude": "-3.2471696",
      "createdAt": "2025-12-28T18:29:52.493Z",
      "updatedAt": "2025-12-28T18:29:52.493Z",
      "stateName": "Valencia",
      "countryName": "Spain"
    },
    {
      "id": 512,
      "stateId": 242,
      "name": "Cochabamba",
      "latitude": "-17.3895000",
      "longitude": "-66.1568000",
      "createdAt": "2025-12-28T17:00:58.545Z",
      "updatedAt": "2025-12-28T17:00:58.545Z",
      "stateName": "Cercado",
      "countryName": "Bolivia"
    },
    {
      "id": 8902,
      "stateId": 22,
      "name": "Cochran",
      "latitude": null,
      "longitude": null,
      "createdAt": "2025-12-28T18:40:55.355Z",
      "updatedAt": "2025-12-28T18:40:55.355Z",
      "stateName": "Georgia",
      "countryName": "United States"
    },
    {
      "id": 6620,
      "stateId": 41,
      "name": "Cochrane",
      "latitude": "51.1834100",
      "longitude": "-114.4687100",
      "createdAt": "2025-12-28T18:26:09.812Z",
      "updatedAt": "2025-12-28T18:26:09.812Z",
      "stateName": "Ontario",
      "countryName": "Canada"
    },
    {
      "id": 17853,
      "stateId": 124,
      "name": "Cochrane",
      "latitude": "51.1834100",
      "longitude": "-114.4687100",
      "createdAt": "2026-03-09T06:14:52.179Z",
      "updatedAt": "2026-03-09T06:14:52.179Z",
      "stateName": "Alberta",
      "countryName": "Canada"
    },
    {
      "id": 4189,
      "stateId": 20,
      "name": "Cockrell Hill",
      "latitude": "37.8034989",
      "longitude": "-92.5169818",
      "createdAt": "2025-12-28T18:16:30.927Z",
      "updatedAt": "2025-12-28T18:16:30.927Z",
      "stateName": "Texas",
      "countryName": "United States"
    },
    {
      "id": 10358,
      "stateId": 33,
      "name": "Cocoa",
      "latitude": "28.3861200",
      "longitude": "-80.7420000",
      "createdAt": "2025-12-28T18:52:20.384Z",
      "updatedAt": "2025-12-28T18:52:20.384Z",
      "stateName": "Florida",
      "countryName": "United States"
    },
    {
      "id": 16549,
      "stateId": 33,
      "name": "Cocoa Beach",
      "latitude": "37.8034989",
      "longitude": "-92.5169818",
      "createdAt": "2025-12-28T20:46:49.241Z",
      "updatedAt": "2025-12-28T20:46:49.241Z",
      "stateName": "Florida",
      "countryName": "United States"
    },
    {
      "id": 1108,
      "stateId": 33,
      "name": "Coconut Creek",
      "latitude": "26.2517500",
      "longitude": "-80.1789400",
      "createdAt": "2025-12-28T17:02:48.728Z",
      "updatedAt": "2025-12-28T17:02:48.728Z",
      "stateName": "Florida",
      "countryName": "United States"
    },
    {
      "id": 7369,
      "stateId": 262,
      "name": "Cocos",
      "latitude": null,
      "longitude": null,
      "createdAt": "2025-12-28T18:29:48.275Z",
      "updatedAt": "2025-12-28T18:29:48.275Z",
      "stateName": "Bahia",
      "countryName": "Brazil"
    },
    {
      "id": 16239,
      "stateId": 98,
      "name": "Codevilla",
      "latitude": "42.4957616",
      "longitude": "12.4479260",
      "createdAt": "2025-12-28T20:39:45.982Z",
      "updatedAt": "2025-12-28T20:39:45.982Z",
      "stateName": "Lombardy",
      "countryName": "Italy"
    },
    {
      "id": 7407,
      "stateId": 335,
      "name": "Codo",
      "latitude": null,
      "longitude": null,
      "createdAt": "2025-12-28T18:29:55.506Z",
      "updatedAt": "2025-12-28T18:29:55.506Z",
      "stateName": "Maranhão",
      "countryName": "Brazil"
    },
    {
      "id": 4833,
      "stateId": 154,
      "name": "Cody",
      "latitude": "37.8034989",
      "longitude": "-92.5169818",
      "createdAt": "2025-12-28T18:18:48.102Z",
      "updatedAt": "2025-12-28T18:18:48.102Z",
      "stateName": "Wyoming",
      "countryName": "United States"
    },
    {
      "id": 17099,
      "stateId": 270,
      "name": "Coelemu",
      "latitude": "-35.4727272",
      "longitude": "-71.8075952",
      "createdAt": "2025-12-29T15:29:07.192Z",
      "updatedAt": "2025-12-29T15:29:07.192Z",
      "stateName": "Bio Bío",
      "countryName": "Chile"
    },
    {
      "id": 6830,
      "stateId": 335,
      "name": "Coelho Neto",
      "latitude": null,
      "longitude": null,
      "createdAt": "2025-12-28T18:27:19.248Z",
      "updatedAt": "2025-12-28T18:27:19.248Z",
      "stateName": "Maranhão",
      "countryName": "Brazil"
    },
    {
      "id": 11460,
      "stateId": 110,
      "name": "Coeur d'Alene",
      "latitude": "47.6776800",
      "longitude": "-116.7804700",
      "createdAt": "2025-12-28T19:05:54.382Z",
      "updatedAt": "2025-12-28T19:05:54.382Z",
      "stateName": "Idaho",
      "countryName": "United States"
    },
    {
      "id": 18439,
      "stateId": 226,
      "name": "Coevorden",
      "latitude": "52.0575321",
      "longitude": "5.3403480",
      "createdAt": "2026-05-30T20:30:15.597Z",
      "updatedAt": "2026-05-30T20:30:15.597Z",
      "stateName": "Drenthe",
      "countryName": "Netherlands"
    },
    {
      "id": 12668,
      "stateId": 31,
      "name": "Coffeyville",
      "latitude": "37.8034989",
      "longitude": "-92.5169818",
      "createdAt": "2025-12-28T19:17:23.418Z",
      "updatedAt": "2025-12-28T19:17:23.418Z",
      "stateName": "Kansas",
      "countryName": "United States"
    },
    {
      "id": 1773,
      "stateId": 19,
      "name": "Coffs Harbour",
      "latitude": "-30.2962600",
      "longitude": "153.1135100",
      "createdAt": "2025-12-28T18:10:09.843Z",
      "updatedAt": "2025-12-28T18:10:09.843Z",
      "stateName": "New South Wales",
      "countryName": "Australia"
    },
    {
      "id": 7892,
      "stateId": 471,
      "name": "Cofimvaba",
      "latitude": null,
      "longitude": null,
      "createdAt": "2025-12-28T18:32:54.921Z",
      "updatedAt": "2025-12-28T18:32:54.921Z",
      "stateName": "Eastern Cape",
      "countryName": "South Africa"
    },
    {
      "id": 18032,
      "stateId": 171,
      "name": "Cofradía",
      "latitude": null,
      "longitude": null,
      "createdAt": "2026-03-29T20:00:45.703Z",
      "updatedAt": "2026-03-29T20:00:45.703Z",
      "stateName": "Cortes",
      "countryName": "Honduras"
    },
    {
      "id": 11691,
      "stateId": 113,
      "name": "Coggon",
      "latitude": "37.8034989",
      "longitude": "-92.5169818",
      "createdAt": "2025-12-28T19:08:39.132Z",
      "updatedAt": "2025-12-28T19:08:39.132Z",
      "stateName": "Iowa",
      "countryName": "United States"
    },
    {
      "id": 13840,
      "stateId": 753,
      "name": "Cognac",
      "latitude": "45.7000000",
      "longitude": "-0.3333300",
      "createdAt": "2025-12-28T19:33:20.928Z",
      "updatedAt": "2025-12-28T19:33:20.928Z",
      "stateName": "Poitou-Charentes",
      "countryName": "France"
    },
    {
      "id": 3401,
      "stateId": 29,
      "name": "Cogua",
      "latitude": null,
      "longitude": null,
      "createdAt": "2025-12-28T18:14:21.178Z",
      "updatedAt": "2025-12-28T18:14:21.178Z",
      "stateName": "Cundinamarca",
      "countryName": "Colombia"
    },
    {
      "id": 2914,
      "stateId": 634,
      "name": "Coihaique",
      "latitude": "-45.5752400",
      "longitude": "-72.0661900",
      "createdAt": "2025-12-28T18:13:00.048Z",
      "updatedAt": "2025-12-28T18:13:00.048Z",
      "stateName": "Aisén",
      "countryName": "Chile"
    },
    {
      "id": 18341,
      "stateId": 839,
      "name": "Coihueco",
      "latitude": "-35.4727272",
      "longitude": "-71.8075952",
      "createdAt": "2026-05-17T15:45:28.886Z",
      "updatedAt": "2026-05-17T15:45:28.886Z",
      "stateName": "Ñuble",
      "countryName": "Chile"
    },
    {
      "id": 2622,
      "stateId": 378,
      "name": "Coimbatore",
      "latitude": "11.0055500",
      "longitude": "76.9661200",
      "createdAt": "2025-12-28T18:12:37.622Z",
      "updatedAt": "2025-12-28T18:12:37.622Z",
      "stateName": "Tamil Nadu",
      "countryName": "India"
    },
    {
      "id": 15085,
      "stateId": 95,
      "name": "Coimbra",
      "latitude": null,
      "longitude": null,
      "createdAt": "2025-12-28T19:54:16.188Z",
      "updatedAt": "2025-12-28T19:54:16.188Z",
      "stateName": "Minas Gerais",
      "countryName": "Brazil"
    },
    {
      "id": 9189,
      "stateId": 442,
      "name": "Coinco",
      "latitude": null,
      "longitude": null,
      "createdAt": "2025-12-28T18:42:29.355Z",
      "updatedAt": "2025-12-28T18:42:29.355Z",
      "stateName": "Cachapoal",
      "countryName": "Chile"
    },
    {
      "id": 16482,
      "stateId": 145,
      "name": "Cokesbury",
      "latitude": null,
      "longitude": null,
      "createdAt": "2025-12-28T20:44:55.195Z",
      "updatedAt": "2025-12-28T20:44:55.195Z",
      "stateName": "South Carolina",
      "countryName": "United States"
    },
    {
      "id": 17276,
      "stateId": 13,
      "name": "Colac",
      "latitude": null,
      "longitude": null,
      "createdAt": "2025-12-29T16:16:52.442Z",
      "updatedAt": "2025-12-29T16:16:52.442Z",
      "stateName": "Victoria",
      "countryName": "Australia"
    },
    {
      "id": 3745,
      "stateId": 261,
      "name": "Colatina",
      "latitude": null,
      "longitude": null,
      "createdAt": "2025-12-28T18:15:09.828Z",
      "updatedAt": "2025-12-28T18:15:09.828Z",
      "stateName": "Espírito Santo",
      "countryName": "Brazil"
    },
    {
      "id": 7374,
      "stateId": 31,
      "name": "Colby",
      "latitude": "37.8034989",
      "longitude": "-92.5169818",
      "createdAt": "2025-12-28T18:29:49.335Z",
      "updatedAt": "2025-12-28T18:29:49.335Z",
      "stateName": "Kansas",
      "countryName": "United States"
    },
    {
      "id": 18443,
      "stateId": 1394,
      "name": "Colchagua",
      "latitude": "-34.5482400",
      "longitude": "-71.4006600",
      "createdAt": "2026-05-31T17:20:32.413Z",
      "updatedAt": "2026-05-31T17:20:32.413Z",
      "stateName": "O'Higgins Region",
      "countryName": "Chile"
    },
    {
      "id": 1754,
      "stateId": 2,
      "name": "Colchester",
      "latitude": "51.8892100",
      "longitude": "0.9042100",
      "createdAt": "2025-12-28T18:10:08.828Z",
      "updatedAt": "2025-12-28T18:10:08.828Z",
      "stateName": "England",
      "countryName": "United Kingdom"
    },
    {
      "id": 16839,
      "stateId": 436,
      "name": "Colchester",
      "latitude": "44.5439400",
      "longitude": "-73.1479100",
      "createdAt": "2025-12-28T20:53:32.184Z",
      "updatedAt": "2025-12-28T20:53:32.184Z",
      "stateName": "Vermont",
      "countryName": "United States"
    },
    {
      "id": 14084,
      "stateId": 6,
      "name": "Cold Brook",
      "latitude": null,
      "longitude": null,
      "createdAt": "2025-12-28T19:38:51.483Z",
      "updatedAt": "2025-12-28T19:38:51.483Z",
      "stateName": "New York",
      "countryName": "United States"
    },
    {
      "id": 5714,
      "stateId": 124,
      "name": "Cold Lake",
      "latitude": null,
      "longitude": null,
      "createdAt": "2025-12-28T18:21:58.886Z",
      "updatedAt": "2025-12-28T18:21:58.886Z",
      "stateName": "Alberta",
      "countryName": "Canada"
    },
    {
      "id": 12918,
      "stateId": 49,
      "name": "Cold Spring",
      "latitude": "37.8034989",
      "longitude": "-92.5169818",
      "createdAt": "2025-12-28T19:19:35.093Z",
      "updatedAt": "2025-12-28T19:19:35.093Z",
      "stateName": "Minnesota",
      "countryName": "United States"
    },
    {
      "id": 9146,
      "stateId": 80,
      "name": "Cold Spring",
      "latitude": null,
      "longitude": null,
      "createdAt": "2025-12-28T18:41:54.213Z",
      "updatedAt": "2025-12-28T18:41:54.213Z",
      "stateName": "Kentucky",
      "countryName": "United States"
    },
    {
      "id": 4888,
      "stateId": 92,
      "name": "Coldwater",
      "latitude": "37.8034989",
      "longitude": "-92.5169818",
      "createdAt": "2025-12-28T18:18:56.830Z",
      "updatedAt": "2025-12-28T18:18:56.830Z",
      "stateName": "Michigan",
      "countryName": "United States"
    },
    {
      "id": 16417,
      "stateId": 401,
      "name": "Coldwater",
      "latitude": "37.8034989",
      "longitude": "-92.5169818",
      "createdAt": "2025-12-28T20:43:42.610Z",
      "updatedAt": "2025-12-28T20:43:42.610Z",
      "stateName": "Mississippi",
      "countryName": "United States"
    },
    {
      "id": 13356,
      "stateId": 20,
      "name": "Coleman",
      "latitude": "37.8034989",
      "longitude": "-92.5169818",
      "createdAt": "2025-12-28T19:23:25.041Z",
      "updatedAt": "2025-12-28T19:23:25.041Z",
      "stateName": "Texas",
      "countryName": "United States"
    },
    {
      "id": 16690,
      "stateId": 92,
      "name": "Coleman",
      "latitude": "37.8034989",
      "longitude": "-92.5169818",
      "createdAt": "2025-12-28T20:50:18.311Z",
      "updatedAt": "2025-12-28T20:50:18.311Z",
      "stateName": "Michigan",
      "countryName": "United States"
    },
    {
      "id": 5509,
      "stateId": 468,
      "name": "Coleraine",
      "latitude": "55.1333300",
      "longitude": "-6.6666700",
      "createdAt": "2025-12-28T18:21:08.596Z",
      "updatedAt": "2025-12-28T18:21:08.596Z",
      "stateName": "Northern Ireland",
      "countryName": "United Kingdom"
    },
    {
      "id": 6809,
      "stateId": 46,
      "name": "Colfax",
      "latitude": "37.8034989",
      "longitude": "-92.5169818",
      "createdAt": "2025-12-28T18:27:15.990Z",
      "updatedAt": "2025-12-28T18:27:15.990Z",
      "stateName": "Illinois",
      "countryName": "United States"
    },
    {
      "id": 17459,
      "stateId": 754,
      "name": "Colfontaine",
      "latitude": null,
      "longitude": null,
      "createdAt": "2026-01-11T23:15:11.554Z",
      "updatedAt": "2026-01-11T23:15:11.554Z",
      "stateName": "Hainaut",
      "countryName": "Belgium"
    },
    {
      "id": 13519,
      "stateId": 85,
      "name": "Colíder",
      "latitude": "-17.4339069",
      "longitude": "-45.8426650",
      "createdAt": "2025-12-28T19:27:18.588Z",
      "updatedAt": "2025-12-28T19:27:18.588Z",
      "stateName": "Mato Grosso",
      "countryName": "Brazil"
    },
    {
      "id": 3154,
      "stateId": 669,
      "name": "Colima",
      "latitude": "19.2499700",
      "longitude": "-103.7271400",
      "createdAt": "2025-12-28T18:13:47.012Z",
      "updatedAt": "2025-12-28T18:13:47.012Z",
      "stateName": "Colima",
      "countryName": "Mexico"
    },
    {
      "id": 7289,
      "stateId": 4,
      "name": "Colina",
      "latitude": null,
      "longitude": null,
      "createdAt": "2025-12-28T18:29:23.153Z",
      "updatedAt": "2025-12-28T18:29:23.153Z",
      "stateName": "São Paulo",
      "countryName": "Brazil"
    },
    {
      "id": 7313,
      "stateId": 167,
      "name": "Colina",
      "latitude": null,
      "longitude": null,
      "createdAt": "2025-12-28T18:29:33.371Z",
      "updatedAt": "2025-12-28T18:29:33.371Z",
      "stateName": "Región Metropolitana de Santiago",
      "countryName": "Chile"
    },
    {
      "id": 11893,
      "stateId": 335,
      "name": "Colinas",
      "latitude": "-6.0258300",
      "longitude": "-44.2491700",
      "createdAt": "2025-12-28T19:10:35.638Z",
      "updatedAt": "2025-12-28T19:10:35.638Z",
      "stateName": "Maranhão",
      "countryName": "Brazil"
    },
    {
      "id": 13496,
      "stateId": 595,
      "name": "Colinas do Tocantins",
      "latitude": null,
      "longitude": null,
      "createdAt": "2025-12-28T19:27:11.225Z",
      "updatedAt": "2025-12-28T19:27:11.225Z",
      "stateName": "Tocantins",
      "countryName": "Brazil"
    },
    {
      "id": 6306,
      "stateId": 475,
      "name": "Collado Villalba",
      "latitude": "39.2717249",
      "longitude": "-3.2471696",
      "createdAt": "2025-12-28T18:24:38.696Z",
      "updatedAt": "2025-12-28T18:24:38.696Z",
      "stateName": "Community of Madrid",
      "countryName": "Spain"
    },
    {
      "id": 5442,
      "stateId": 222,
      "name": "Colle",
      "latitude": "42.4957616",
      "longitude": "12.4479260",
      "createdAt": "2025-12-28T18:20:52.747Z",
      "updatedAt": "2025-12-28T18:20:52.747Z",
      "stateName": "Liguria",
      "countryName": "Italy"
    },
    {
      "id": 13192,
      "stateId": 45,
      "name": "College",
      "latitude": "37.8034989",
      "longitude": "-92.5169818",
      "createdAt": "2025-12-28T19:21:27.480Z",
      "updatedAt": "2025-12-28T19:21:27.480Z",
      "stateName": "Alaska",
      "countryName": "United States"
    },
    {
      "id": 153,
      "stateId": 21,
      "name": "Collegedale",
      "latitude": "37.8034989",
      "longitude": "-92.5169818",
      "createdAt": "2025-12-28T16:56:30.068Z",
      "updatedAt": "2025-12-28T16:56:30.068Z",
      "stateName": "Tennessee",
      "countryName": "United States"
    },
    {
      "id": 16420,
      "stateId": 22,
      "name": "College Park",
      "latitude": "38.9806700",
      "longitude": "-76.9369200",
      "createdAt": "2025-12-28T20:43:47.136Z",
      "updatedAt": "2025-12-28T20:43:47.136Z",
      "stateName": "Georgia",
      "countryName": "United States"
    },
    {
      "id": 16626,
      "stateId": 64,
      "name": "College Park",
      "latitude": "38.9806700",
      "longitude": "-76.9369200",
      "createdAt": "2025-12-28T20:48:25.583Z",
      "updatedAt": "2025-12-28T20:48:25.583Z",
      "stateName": "Maryland",
      "countryName": "United States"
    },
    {
      "id": 12670,
      "stateId": 42,
      "name": "College Place",
      "latitude": "37.8034989",
      "longitude": "-92.5169818",
      "createdAt": "2025-12-28T19:17:23.765Z",
      "updatedAt": "2025-12-28T19:17:23.765Z",
      "stateName": "Washington",
      "countryName": "United States"
    },
    {
      "id": 1114,
      "stateId": 20,
      "name": "College Station",
      "latitude": "30.6279800",
      "longitude": "-96.3344100",
      "createdAt": "2025-12-28T17:02:49.138Z",
      "updatedAt": "2025-12-28T17:02:49.138Z",
      "stateName": "Texas",
      "countryName": "United States"
    },
    {
      "id": 12967,
      "stateId": 49,
      "name": "Collegeville",
      "latitude": "37.8034989",
      "longitude": "-92.5169818",
      "createdAt": "2025-12-28T19:19:52.822Z",
      "updatedAt": "2025-12-28T19:19:52.822Z",
      "stateName": "Minnesota",
      "countryName": "United States"
    },
    {
      "id": 17263,
      "stateId": 44,
      "name": "Collie",
      "latitude": null,
      "longitude": null,
      "createdAt": "2025-12-29T16:16:27.233Z",
      "updatedAt": "2025-12-29T16:16:27.233Z",
      "stateName": "Western Australia",
      "countryName": "Australia"
    },
    {
      "id": 16188,
      "stateId": 21,
      "name": "Collierville",
      "latitude": "35.0420400",
      "longitude": "-89.6645300",
      "createdAt": "2025-12-28T20:37:23.769Z",
      "updatedAt": "2025-12-28T20:37:23.769Z",
      "stateName": "Tennessee",
      "countryName": "United States"
    },
    {
      "id": 9086,
      "stateId": 20,
      "name": "Collin",
      "latitude": "37.8034989",
      "longitude": "-92.5169818",
      "createdAt": "2025-12-28T18:41:49.339Z",
      "updatedAt": "2025-12-28T18:41:49.339Z",
      "stateName": "Texas",
      "countryName": "United States"
    },
    {
      "id": 7098,
      "stateId": 41,
      "name": "Collingwood",
      "latitude": "44.4834000",
      "longitude": "-80.2163800",
      "createdAt": "2025-12-28T18:28:11.401Z",
      "updatedAt": "2025-12-28T18:28:11.401Z",
      "stateName": "Ontario",
      "countryName": "Canada"
    },
    {
      "id": 8128,
      "stateId": 401,
      "name": "Collins",
      "latitude": "37.8034989",
      "longitude": "-92.5169818",
      "createdAt": "2025-12-28T18:35:34.532Z",
      "updatedAt": "2025-12-28T18:35:34.532Z",
      "stateName": "Mississippi",
      "countryName": "United States"
    },
    {
      "id": 5963,
      "stateId": 74,
      "name": "Collinsville",
      "latitude": null,
      "longitude": null,
      "createdAt": "2025-12-28T18:22:44.251Z",
      "updatedAt": "2025-12-28T18:22:44.251Z",
      "stateName": "Queensland",
      "countryName": "Australia"
    },
    {
      "id": 9826,
      "stateId": 50,
      "name": "Collinsville",
      "latitude": "38.6703300",
      "longitude": "-89.9845500",
      "createdAt": "2025-12-28T18:47:30.854Z",
      "updatedAt": "2025-12-28T18:47:30.854Z",
      "stateName": "Virginia",
      "countryName": "United States"
    },
    {
      "id": 1190,
      "stateId": 401,
      "name": "Collinsville",
      "latitude": "38.6703300",
      "longitude": "-89.9845500",
      "createdAt": "2025-12-28T17:03:16.870Z",
      "updatedAt": "2025-12-28T17:03:16.870Z",
      "stateName": "Mississippi",
      "countryName": "United States"
    },
    {
      "id": 11536,
      "stateId": 46,
      "name": "Collinsville",
      "latitude": "38.6703300",
      "longitude": "-89.9845500",
      "createdAt": "2025-12-28T19:07:00.438Z",
      "updatedAt": "2025-12-28T19:07:00.438Z",
      "stateName": "Illinois",
      "countryName": "United States"
    },
    {
      "id": 314,
      "stateId": 151,
      "name": "Collinsville",
      "latitude": "38.6703300",
      "longitude": "-89.9845500",
      "createdAt": "2025-12-28T16:56:41.838Z",
      "updatedAt": "2025-12-28T16:56:41.838Z",
      "stateName": "Oklahoma",
      "countryName": "United States"
    },
    {
      "id": 6134,
      "stateId": 21,
      "name": "Collinwood",
      "latitude": "37.8034989",
      "longitude": "-92.5169818",
      "createdAt": "2025-12-28T18:23:19.456Z",
      "updatedAt": "2025-12-28T18:23:19.456Z",
      "stateName": "Tennessee",
      "countryName": "United States"
    },
    {
      "id": 18320,
      "stateId": 914,
      "name": "Collipulli",
      "latitude": "-37.9545300",
      "longitude": "-72.4343800",
      "createdAt": "2026-05-13T15:33:12.178Z",
      "updatedAt": "2026-05-13T15:33:12.178Z",
      "stateName": "Araucanía",
      "countryName": "Chile"
    },
    {
      "id": 7184,
      "stateId": 115,
      "name": "Collsuspina",
      "latitude": "39.2717249",
      "longitude": "-3.2471696",
      "createdAt": "2025-12-28T18:28:42.961Z",
      "updatedAt": "2025-12-28T18:28:42.961Z",
      "stateName": "Barcelona",
      "countryName": "Spain"
    },
    {
      "id": 4626,
      "stateId": 536,
      "name": "Colmar",
      "latitude": "48.0833300",
      "longitude": "7.3666700",
      "createdAt": "2025-12-28T18:18:10.551Z",
      "updatedAt": "2025-12-28T18:18:10.551Z",
      "stateName": "Grand Est",
      "countryName": "France"
    },
    {
      "id": 6461,
      "stateId": 475,
      "name": "Colmenar Viejo",
      "latitude": "40.6590900",
      "longitude": "-3.7676200",
      "createdAt": "2025-12-28T18:25:28.921Z",
      "updatedAt": "2025-12-28T18:25:28.921Z",
      "stateName": "Community of Madrid",
      "countryName": "Spain"
    },
    {
      "id": 15124,
      "stateId": 85,
      "name": "Colniza",
      "latitude": null,
      "longitude": null,
      "createdAt": "2025-12-28T19:55:23.535Z",
      "updatedAt": "2025-12-28T19:55:23.535Z",
      "stateName": "Mato Grosso",
      "countryName": "Brazil"
    },
    {
      "id": 1230,
      "stateId": 432,
      "name": "Cologne",
      "latitude": "50.9385735",
      "longitude": "9.5583023",
      "createdAt": "2025-12-28T17:03:20.161Z",
      "updatedAt": "2025-12-28T17:03:20.161Z",
      "stateName": "North Rhine-Westphalia",
      "countryName": "Germany"
    },
    {
      "id": 18228,
      "stateId": 98,
      "name": "Cologno Monzese",
      "latitude": "45.5300400",
      "longitude": "9.2779500",
      "createdAt": "2026-04-29T03:10:18.470Z",
      "updatedAt": "2026-04-29T03:10:18.470Z",
      "stateName": "Lombardy",
      "countryName": "Italy"
    },
    {
      "id": 5044,
      "stateId": 239,
      "name": "Colomba",
      "latitude": null,
      "longitude": null,
      "createdAt": "2025-12-28T18:19:27.687Z",
      "updatedAt": "2025-12-28T18:19:27.687Z",
      "stateName": "Baja Verapaz",
      "countryName": "Guatemala"
    },
    {
      "id": 11667,
      "stateId": 4,
      "name": "Colômbia",
      "latitude": null,
      "longitude": null,
      "createdAt": "2025-12-28T19:08:27.999Z",
      "updatedAt": "2025-12-28T19:08:27.999Z",
      "stateName": "São Paulo",
      "countryName": "Brazil"
    },
    {
      "id": 236,
      "stateId": 135,
      "name": "Colombo",
      "latitude": "6.9319400",
      "longitude": "79.8477800",
      "createdAt": "2025-12-28T16:56:37.825Z",
      "updatedAt": "2025-12-28T16:56:37.825Z",
      "stateName": "Western Province",
      "countryName": "Sri Lanka"
    },
    {
      "id": 1897,
      "stateId": 209,
      "name": "Colon",
      "latitude": "-32.1628172",
      "longitude": "-62.0921509",
      "createdAt": "2025-12-28T18:10:28.010Z",
      "updatedAt": "2025-12-28T18:10:28.010Z",
      "stateName": "Entre Rios",
      "countryName": "Argentina"
    },
    {
      "id": 13569,
      "stateId": 322,
      "name": "Colón",
      "latitude": null,
      "longitude": null,
      "createdAt": "2025-12-28T19:28:25.942Z",
      "updatedAt": "2025-12-28T19:28:25.942Z",
      "stateName": "La Libertad",
      "countryName": "El Salvador"
    },
    {
      "id": 2253,
      "stateId": 576,
      "name": "Colón",
      "latitude": "9.3545100",
      "longitude": "-79.9001100",
      "createdAt": "2025-12-28T18:11:25.729Z",
      "updatedAt": "2025-12-28T18:11:25.729Z",
      "stateName": "Colon",
      "countryName": "Panama"
    },
    {
      "id": 1488,
      "stateId": 58,
      "name": "Colón",
      "latitude": null,
      "longitude": null,
      "createdAt": "2025-12-28T17:04:34.929Z",
      "updatedAt": "2025-12-28T17:04:34.929Z",
      "stateName": "Buenos Aires",
      "countryName": "Argentina"
    },
    {
      "id": 9440,
      "stateId": 27,
      "name": "Colona",
      "latitude": "37.8034989",
      "longitude": "-92.5169818",
      "createdAt": "2025-12-28T18:44:13.856Z",
      "updatedAt": "2025-12-28T18:44:13.856Z",
      "stateName": "Colorado",
      "countryName": "United States"
    },
    {
      "id": 4578,
      "stateId": 209,
      "name": "Colonia Avellaneda",
      "latitude": null,
      "longitude": null,
      "createdAt": "2025-12-28T18:17:55.145Z",
      "updatedAt": "2025-12-28T18:17:55.145Z",
      "stateName": "Entre Rios",
      "countryName": "Argentina"
    }
  ],
  "meta": {
    "page": 38,
    "limit": 100,
    "total": 18002,
    "totalPages": 181
  }
}
