{
  "source": "50k-radio-stations",
  "provider": "rapidapi",
  "syncedAt": "2026-06-03T13:04:27.879Z",
  "endpoint": "/cities",
  "page": 34,
  "limit": 250,
  "data": [
    {
      "id": 698,
      "stateId": 178,
      "name": "Charata",
      "latitude": null,
      "longitude": null,
      "createdAt": "2025-12-28T17:02:08.432Z",
      "updatedAt": "2025-12-28T17:02:08.432Z",
      "stateName": "Chaco",
      "countryName": "Argentina"
    },
    {
      "id": 10523,
      "stateId": 14,
      "name": "Chardon",
      "latitude": "37.8034989",
      "longitude": "-92.5169818",
      "createdAt": "2025-12-28T18:54:13.307Z",
      "updatedAt": "2025-12-28T18:54:13.307Z",
      "stateName": "Ohio",
      "countryName": "United States"
    },
    {
      "id": 11720,
      "stateId": 113,
      "name": "Chariton",
      "latitude": null,
      "longitude": null,
      "createdAt": "2025-12-28T19:08:47.337Z",
      "updatedAt": "2025-12-28T19:08:47.337Z",
      "stateName": "Iowa",
      "countryName": "United States"
    },
    {
      "id": 5519,
      "stateId": 754,
      "name": "Charleroi",
      "latitude": "50.4113600",
      "longitude": "4.4444800",
      "createdAt": "2025-12-28T18:21:09.885Z",
      "updatedAt": "2025-12-28T18:21:09.885Z",
      "stateName": "Hainaut",
      "countryName": "Belgium"
    },
    {
      "id": 9751,
      "stateId": 113,
      "name": "Charles City",
      "latitude": "37.8034989",
      "longitude": "-92.5169818",
      "createdAt": "2025-12-28T18:47:03.059Z",
      "updatedAt": "2025-12-28T18:47:03.059Z",
      "stateName": "Iowa",
      "countryName": "United States"
    },
    {
      "id": 5843,
      "stateId": 324,
      "name": "Charleston",
      "latitude": "38.3498200",
      "longitude": "-81.6326200",
      "createdAt": "2025-12-28T18:22:28.323Z",
      "updatedAt": "2025-12-28T18:22:28.323Z",
      "stateName": "West Virginia",
      "countryName": "United States"
    },
    {
      "id": 4590,
      "stateId": 46,
      "name": "Charleston",
      "latitude": "39.4961500",
      "longitude": "-88.1761500",
      "createdAt": "2025-12-28T18:18:01.044Z",
      "updatedAt": "2025-12-28T18:18:01.044Z",
      "stateName": "Illinois",
      "countryName": "United States"
    },
    {
      "id": 16802,
      "stateId": 401,
      "name": "Charleston",
      "latitude": "37.8034989",
      "longitude": "-92.5169818",
      "createdAt": "2025-12-28T20:52:17.994Z",
      "updatedAt": "2025-12-28T20:52:17.994Z",
      "stateName": "Mississippi",
      "countryName": "United States"
    },
    {
      "id": 5550,
      "stateId": 145,
      "name": "Charleston",
      "latitude": "32.7765700",
      "longitude": "-79.9309200",
      "createdAt": "2025-12-28T18:21:17.540Z",
      "updatedAt": "2025-12-28T18:21:17.540Z",
      "stateName": "South Carolina",
      "countryName": "United States"
    },
    {
      "id": 13299,
      "stateId": 112,
      "name": "Charleston",
      "latitude": "39.4961500",
      "longitude": "-88.1761500",
      "createdAt": "2025-12-28T19:22:52.079Z",
      "updatedAt": "2025-12-28T19:22:52.079Z",
      "stateName": "Missouri",
      "countryName": "United States"
    },
    {
      "id": 16290,
      "stateId": 51,
      "name": "Charlestown",
      "latitude": "37.8034989",
      "longitude": "-92.5169818",
      "createdAt": "2025-12-28T20:40:51.031Z",
      "updatedAt": "2025-12-28T20:40:51.031Z",
      "stateName": "Indiana",
      "countryName": "United States"
    },
    {
      "id": 9135,
      "stateId": 324,
      "name": "Charles Town",
      "latitude": "37.8034989",
      "longitude": "-92.5169818",
      "createdAt": "2025-12-28T18:41:53.427Z",
      "updatedAt": "2025-12-28T18:41:53.427Z",
      "stateName": "West Virginia",
      "countryName": "United States"
    },
    {
      "id": 17280,
      "stateId": 74,
      "name": "Charleville",
      "latitude": null,
      "longitude": null,
      "createdAt": "2025-12-29T16:16:55.504Z",
      "updatedAt": "2025-12-29T16:16:55.504Z",
      "stateName": "Queensland",
      "countryName": "Australia"
    },
    {
      "id": 15485,
      "stateId": 709,
      "name": "Charleville-Mézières",
      "latitude": "49.7666700",
      "longitude": "4.7166700",
      "createdAt": "2025-12-28T20:08:17.687Z",
      "updatedAt": "2025-12-28T20:08:17.687Z",
      "stateName": "Champagne-Ardenne",
      "countryName": "France"
    },
    {
      "id": 12704,
      "stateId": 92,
      "name": "Charlevoix",
      "latitude": "37.8034989",
      "longitude": "-92.5169818",
      "createdAt": "2025-12-28T19:17:42.405Z",
      "updatedAt": "2025-12-28T19:17:42.405Z",
      "stateName": "Michigan",
      "countryName": "United States"
    },
    {
      "id": 6981,
      "stateId": 26,
      "name": "Charlie Lake",
      "latitude": null,
      "longitude": null,
      "createdAt": "2025-12-28T18:27:39.810Z",
      "updatedAt": "2025-12-28T18:27:39.810Z",
      "stateName": "British Columbia",
      "countryName": "Canada"
    },
    {
      "id": 4260,
      "stateId": 20,
      "name": "Charlotte",
      "latitude": null,
      "longitude": null,
      "createdAt": "2025-12-28T18:16:41.536Z",
      "updatedAt": "2025-12-28T18:16:41.536Z",
      "stateName": "Texas",
      "countryName": "United States"
    },
    {
      "id": 8595,
      "stateId": 92,
      "name": "Charlotte",
      "latitude": null,
      "longitude": null,
      "createdAt": "2025-12-28T18:39:21.842Z",
      "updatedAt": "2025-12-28T18:39:21.842Z",
      "stateName": "Michigan",
      "countryName": "United States"
    },
    {
      "id": 292,
      "stateId": 55,
      "name": "Charlotte",
      "latitude": "35.2270900",
      "longitude": "-80.8431300",
      "createdAt": "2025-12-28T16:56:41.238Z",
      "updatedAt": "2025-12-28T16:56:41.238Z",
      "stateName": "North Carolina",
      "countryName": "United States"
    },
    {
      "id": 12778,
      "stateId": 33,
      "name": "Charlotte Harbor",
      "latitude": "37.8034989",
      "longitude": "-92.5169818",
      "createdAt": "2025-12-28T19:18:33.318Z",
      "updatedAt": "2025-12-28T19:18:33.318Z",
      "stateName": "Florida",
      "countryName": "United States"
    },
    {
      "id": 7782,
      "stateId": 50,
      "name": "Charlottesville",
      "latitude": "38.0293100",
      "longitude": "-78.4766800",
      "createdAt": "2025-12-28T18:31:43.305Z",
      "updatedAt": "2025-12-28T18:31:43.305Z",
      "stateName": "Virginia",
      "countryName": "United States"
    },
    {
      "id": 6409,
      "stateId": 931,
      "name": "Charlottetown",
      "latitude": "46.2352500",
      "longitude": "-63.1267100",
      "createdAt": "2025-12-28T18:25:08.908Z",
      "updatedAt": "2025-12-28T18:25:08.908Z",
      "stateName": "Prince Edward Island",
      "countryName": "Canada"
    },
    {
      "id": 16889,
      "stateId": 47,
      "name": "Charlton",
      "latitude": "37.8034989",
      "longitude": "-92.5169818",
      "createdAt": "2025-12-28T20:54:37.097Z",
      "updatedAt": "2025-12-28T20:54:37.097Z",
      "stateName": "Massachusetts",
      "countryName": "United States"
    },
    {
      "id": 6158,
      "stateId": 74,
      "name": "Charters Towers",
      "latitude": null,
      "longitude": null,
      "createdAt": "2025-12-28T18:23:22.845Z",
      "updatedAt": "2025-12-28T18:23:22.845Z",
      "stateName": "Queensland",
      "countryName": "Australia"
    },
    {
      "id": 2579,
      "stateId": 523,
      "name": "Chartres",
      "latitude": "48.4468500",
      "longitude": "1.4892500",
      "createdAt": "2025-12-28T18:12:26.867Z",
      "updatedAt": "2025-12-28T18:12:26.867Z",
      "stateName": "Centre",
      "countryName": "France"
    },
    {
      "id": 957,
      "stateId": 58,
      "name": "Chascomus",
      "latitude": "-32.1628172",
      "longitude": "-62.0921509",
      "createdAt": "2025-12-28T17:02:30.395Z",
      "updatedAt": "2025-12-28T17:02:30.395Z",
      "stateName": "Buenos Aires",
      "countryName": "Argentina"
    },
    {
      "id": 15068,
      "stateId": 49,
      "name": "Chaska",
      "latitude": "44.7894100",
      "longitude": "-93.6021800",
      "createdAt": "2025-12-28T19:54:07.387Z",
      "updatedAt": "2025-12-28T19:54:07.387Z",
      "stateName": "Minnesota",
      "countryName": "United States"
    },
    {
      "id": 16869,
      "stateId": 33,
      "name": "Chassahowitzka",
      "latitude": "37.8034989",
      "longitude": "-92.5169818",
      "createdAt": "2025-12-28T20:54:07.019Z",
      "updatedAt": "2025-12-28T20:54:07.019Z",
      "stateName": "Florida",
      "countryName": "United States"
    },
    {
      "id": 13392,
      "stateId": 582,
      "name": "Chatan",
      "latitude": "26.3094800",
      "longitude": "127.7702400",
      "createdAt": "2025-12-28T19:23:44.513Z",
      "updatedAt": "2025-12-28T19:23:44.513Z",
      "stateName": "Kyūshū",
      "countryName": "Japan"
    },
    {
      "id": 15703,
      "stateId": 483,
      "name": "Chateaubriant",
      "latitude": "47.3768156",
      "longitude": "2.7742767",
      "createdAt": "2025-12-28T20:15:41.472Z",
      "updatedAt": "2025-12-28T20:15:41.472Z",
      "stateName": "Pays de la Loire",
      "countryName": "France"
    },
    {
      "id": 13899,
      "stateId": 761,
      "name": "Chateau-Chinon(Ville)",
      "latitude": "47.3768156",
      "longitude": "2.7742767",
      "createdAt": "2025-12-28T19:34:38.596Z",
      "updatedAt": "2025-12-28T19:34:38.596Z",
      "stateName": "Burgundy",
      "countryName": "France"
    },
    {
      "id": 4361,
      "stateId": 523,
      "name": "Château de Loches",
      "latitude": "47.3768156",
      "longitude": "2.7742767",
      "createdAt": "2025-12-28T18:17:11.336Z",
      "updatedAt": "2025-12-28T18:17:11.336Z",
      "stateName": "Centre",
      "countryName": "France"
    },
    {
      "id": 11628,
      "stateId": 523,
      "name": "Châteaudun",
      "latitude": "48.0833300",
      "longitude": "1.3333300",
      "createdAt": "2025-12-28T19:08:10.702Z",
      "updatedAt": "2025-12-28T19:08:10.702Z",
      "stateName": "Centre",
      "countryName": "France"
    },
    {
      "id": 13590,
      "stateId": 6,
      "name": "Chateaugay",
      "latitude": "37.8034989",
      "longitude": "-92.5169818",
      "createdAt": "2025-12-28T19:28:40.838Z",
      "updatedAt": "2025-12-28T19:28:40.838Z",
      "stateName": "New York",
      "countryName": "United States"
    },
    {
      "id": 10576,
      "stateId": 224,
      "name": "Châteaugiron",
      "latitude": null,
      "longitude": null,
      "createdAt": "2025-12-28T18:55:19.076Z",
      "updatedAt": "2025-12-28T18:55:19.076Z",
      "stateName": "Brittany",
      "countryName": "France"
    },
    {
      "id": 18203,
      "stateId": 258,
      "name": "Chateauguay",
      "latitude": null,
      "longitude": null,
      "createdAt": "2026-04-21T00:33:44.349Z",
      "updatedAt": "2026-04-21T00:33:44.349Z",
      "stateName": "Quebec",
      "countryName": "Canada"
    },
    {
      "id": 2064,
      "stateId": 300,
      "name": "Châteauroux",
      "latitude": "46.8166700",
      "longitude": "1.7000000",
      "createdAt": "2025-12-28T18:10:47.324Z",
      "updatedAt": "2025-12-28T18:10:47.324Z",
      "stateName": "Centre-Val de Loire",
      "countryName": "France"
    },
    {
      "id": 3861,
      "stateId": 481,
      "name": "Châtellerault",
      "latitude": "46.8000000",
      "longitude": "0.5333300",
      "createdAt": "2025-12-28T18:15:24.811Z",
      "updatedAt": "2025-12-28T18:15:24.811Z",
      "stateName": "Nouvelle-Aquitaine",
      "countryName": "France"
    },
    {
      "id": 18098,
      "stateId": 10,
      "name": "Châtenay-Malabry",
      "latitude": null,
      "longitude": null,
      "createdAt": "2026-03-30T21:15:22.263Z",
      "updatedAt": "2026-03-30T21:15:22.263Z",
      "stateName": "Île-de-France",
      "countryName": "France"
    },
    {
      "id": 11625,
      "stateId": 50,
      "name": "Chatham",
      "latitude": null,
      "longitude": null,
      "createdAt": "2025-12-28T19:08:09.261Z",
      "updatedAt": "2025-12-28T19:08:09.261Z",
      "stateName": "Virginia",
      "countryName": "United States"
    },
    {
      "id": 17168,
      "stateId": 2,
      "name": "Chatham",
      "latitude": null,
      "longitude": null,
      "createdAt": "2025-12-29T15:45:26.178Z",
      "updatedAt": "2025-12-29T15:45:26.178Z",
      "stateName": "England",
      "countryName": "United Kingdom"
    },
    {
      "id": 16424,
      "stateId": 47,
      "name": "Chatham",
      "latitude": null,
      "longitude": null,
      "createdAt": "2025-12-28T20:44:00.567Z",
      "updatedAt": "2025-12-28T20:44:00.567Z",
      "stateName": "Massachusetts",
      "countryName": "United States"
    },
    {
      "id": 11550,
      "stateId": 46,
      "name": "Chatham",
      "latitude": null,
      "longitude": null,
      "createdAt": "2025-12-28T19:07:10.460Z",
      "updatedAt": "2025-12-28T19:07:10.460Z",
      "stateName": "Illinois",
      "countryName": "United States"
    },
    {
      "id": 6598,
      "stateId": 41,
      "name": "Chatham-Kent",
      "latitude": null,
      "longitude": null,
      "createdAt": "2025-12-28T18:26:06.849Z",
      "updatedAt": "2025-12-28T18:26:06.849Z",
      "stateName": "Ontario",
      "countryName": "Canada"
    },
    {
      "id": 7922,
      "stateId": 22,
      "name": "Chatsworth",
      "latitude": "34.2572300",
      "longitude": "-118.6012000",
      "createdAt": "2025-12-28T18:33:03.199Z",
      "updatedAt": "2025-12-28T18:33:03.199Z",
      "stateName": "Georgia",
      "countryName": "United States"
    },
    {
      "id": 13337,
      "stateId": 402,
      "name": "Chatsworth",
      "latitude": null,
      "longitude": null,
      "createdAt": "2025-12-28T19:23:07.974Z",
      "updatedAt": "2025-12-28T19:23:07.974Z",
      "stateName": "KwaZulu-Natal Prov.",
      "countryName": "South Africa"
    },
    {
      "id": 15588,
      "stateId": 24,
      "name": "Chatsworth",
      "latitude": "34.2572300",
      "longitude": "-118.6012000",
      "createdAt": "2025-12-28T20:11:58.845Z",
      "updatedAt": "2025-12-28T20:11:58.845Z",
      "stateName": "California",
      "countryName": "United States"
    },
    {
      "id": 2552,
      "stateId": 21,
      "name": "Chattanooga",
      "latitude": "35.0456300",
      "longitude": "-85.3096800",
      "createdAt": "2025-12-28T18:12:23.778Z",
      "updatedAt": "2025-12-28T18:12:23.778Z",
      "stateName": "Tennessee",
      "countryName": "United States"
    },
    {
      "id": 1965,
      "stateId": 536,
      "name": "Chaumont",
      "latitude": "48.1112100",
      "longitude": "5.1413400",
      "createdAt": "2025-12-28T18:10:34.417Z",
      "updatedAt": "2025-12-28T18:10:34.417Z",
      "stateName": "Grand Est",
      "countryName": "France"
    },
    {
      "id": 16717,
      "stateId": 22,
      "name": "Chauncey",
      "latitude": "37.8034989",
      "longitude": "-92.5169818",
      "createdAt": "2025-12-28T20:50:37.606Z",
      "updatedAt": "2025-12-28T20:50:37.606Z",
      "stateName": "Georgia",
      "countryName": "United States"
    },
    {
      "id": 3853,
      "stateId": 481,
      "name": "Chauvigny",
      "latitude": "47.3768156",
      "longitude": "2.7742767",
      "createdAt": "2025-12-28T18:15:24.428Z",
      "updatedAt": "2025-12-28T18:15:24.428Z",
      "stateName": "Nouvelle-Aquitaine",
      "countryName": "France"
    },
    {
      "id": 578,
      "stateId": 277,
      "name": "Cheboksary",
      "latitude": null,
      "longitude": null,
      "createdAt": "2025-12-28T17:01:08.453Z",
      "updatedAt": "2025-12-28T17:01:08.453Z",
      "stateName": "Chuvashia",
      "countryName": "Russia"
    },
    {
      "id": 5218,
      "stateId": 92,
      "name": "Cheboygan",
      "latitude": "37.8034989",
      "longitude": "-92.5169818",
      "createdAt": "2025-12-28T18:20:10.438Z",
      "updatedAt": "2025-12-28T18:20:10.438Z",
      "stateName": "Michigan",
      "countryName": "United States"
    },
    {
      "id": 5239,
      "stateId": 6,
      "name": "Cheektowaga",
      "latitude": "42.9033900",
      "longitude": "-78.7547500",
      "createdAt": "2025-12-28T18:20:13.132Z",
      "updatedAt": "2025-12-28T18:20:13.132Z",
      "stateName": "New York",
      "countryName": "United States"
    },
    {
      "id": 12298,
      "stateId": 42,
      "name": "Chehalis",
      "latitude": "37.8034989",
      "longitude": "-92.5169818",
      "createdAt": "2025-12-28T19:15:11.035Z",
      "updatedAt": "2025-12-28T19:15:11.035Z",
      "stateName": "Washington",
      "countryName": "United States"
    },
    {
      "id": 13000,
      "stateId": 3,
      "name": "Chekhov",
      "latitude": null,
      "longitude": null,
      "createdAt": "2025-12-28T19:20:13.611Z",
      "updatedAt": "2025-12-28T19:20:13.611Z",
      "stateName": "Moscow",
      "countryName": "Russia"
    },
    {
      "id": 8983,
      "stateId": 42,
      "name": "Chelan",
      "latitude": "37.8034989",
      "longitude": "-92.5169818",
      "createdAt": "2025-12-28T18:41:14.846Z",
      "updatedAt": "2025-12-28T18:41:14.846Z",
      "stateName": "Washington",
      "countryName": "United States"
    },
    {
      "id": 5729,
      "stateId": 888,
      "name": "Chelm",
      "latitude": "51.8024603",
      "longitude": "19.2550087",
      "createdAt": "2025-12-28T18:22:01.126Z",
      "updatedAt": "2025-12-28T18:22:01.126Z",
      "stateName": "Lublin",
      "countryName": "Poland"
    },
    {
      "id": 4879,
      "stateId": 2,
      "name": "Chelmsford",
      "latitude": "51.7357500",
      "longitude": "0.4695800",
      "createdAt": "2025-12-28T18:18:56.350Z",
      "updatedAt": "2025-12-28T18:18:56.350Z",
      "stateName": "England",
      "countryName": "United Kingdom"
    },
    {
      "id": 14642,
      "stateId": 151,
      "name": "Chelsea",
      "latitude": "37.8034989",
      "longitude": "-92.5169818",
      "createdAt": "2025-12-28T19:46:37.719Z",
      "updatedAt": "2025-12-28T19:46:37.719Z",
      "stateName": "Oklahoma",
      "countryName": "United States"
    },
    {
      "id": 10614,
      "stateId": 2,
      "name": "Cheltenham",
      "latitude": "51.9000000",
      "longitude": "-2.0833300",
      "createdAt": "2025-12-28T18:55:42.163Z",
      "updatedAt": "2025-12-28T18:55:42.163Z",
      "stateName": "England",
      "countryName": "United Kingdom"
    },
    {
      "id": 5689,
      "stateId": 90,
      "name": "Chemin",
      "latitude": null,
      "longitude": null,
      "createdAt": "2025-12-28T18:21:54.992Z",
      "updatedAt": "2025-12-28T18:21:54.992Z",
      "stateName": "Rhône-Alpes",
      "countryName": "France"
    },
    {
      "id": 3566,
      "stateId": 93,
      "name": "Chemnitz",
      "latitude": "50.8357000",
      "longitude": "12.9292200",
      "createdAt": "2025-12-28T18:14:50.505Z",
      "updatedAt": "2025-12-28T18:14:50.505Z",
      "stateName": "Saxony",
      "countryName": "Germany"
    },
    {
      "id": 322,
      "stateId": 6,
      "name": "Chenango Bridge",
      "latitude": "37.8034989",
      "longitude": "-92.5169818",
      "createdAt": "2025-12-28T16:56:42.056Z",
      "updatedAt": "2025-12-28T16:56:42.056Z",
      "stateName": "New York",
      "countryName": "United States"
    },
    {
      "id": 12568,
      "stateId": 42,
      "name": "Cheney",
      "latitude": "37.8034989",
      "longitude": "-92.5169818",
      "createdAt": "2025-12-28T19:16:42.701Z",
      "updatedAt": "2025-12-28T19:16:42.701Z",
      "stateName": "Washington",
      "countryName": "United States"
    },
    {
      "id": 18328,
      "stateId": 1456,
      "name": "Chengdu",
      "latitude": "30.6666700",
      "longitude": "104.0666700",
      "createdAt": "2026-05-16T15:31:53.099Z",
      "updatedAt": "2026-05-16T15:31:53.099Z",
      "stateName": "Sichuan",
      "countryName": "China"
    },
    {
      "id": 951,
      "stateId": 378,
      "name": "Chennai",
      "latitude": "13.0878400",
      "longitude": "80.2784700",
      "createdAt": "2025-12-28T17:02:30.167Z",
      "updatedAt": "2025-12-28T17:02:30.167Z",
      "stateName": "Tamil Nadu",
      "countryName": "India"
    },
    {
      "id": 14808,
      "stateId": 408,
      "name": "Chepes",
      "latitude": "-32.1628172",
      "longitude": "-62.0921509",
      "createdAt": "2025-12-28T19:48:55.862Z",
      "updatedAt": "2025-12-28T19:48:55.862Z",
      "stateName": "La Rioja",
      "countryName": "Argentina"
    },
    {
      "id": 11310,
      "stateId": 244,
      "name": "Cherán",
      "latitude": "21.0459460",
      "longitude": "-100.0405298",
      "createdAt": "2025-12-28T19:04:15.641Z",
      "updatedAt": "2025-12-28T19:04:15.641Z",
      "stateName": "Michoacán",
      "countryName": "Mexico"
    },
    {
      "id": 13997,
      "stateId": 145,
      "name": "Cheraw",
      "latitude": "37.8034989",
      "longitude": "-92.5169818",
      "createdAt": "2025-12-28T19:36:54.734Z",
      "updatedAt": "2025-12-28T19:36:54.734Z",
      "stateName": "South Carolina",
      "countryName": "United States"
    },
    {
      "id": 9205,
      "stateId": 1013,
      "name": "Cherepovets",
      "latitude": null,
      "longitude": null,
      "createdAt": "2025-12-28T18:42:37.323Z",
      "updatedAt": "2025-12-28T18:42:37.323Z",
      "stateName": "Vologda Oblast",
      "countryName": "Russia"
    },
    {
      "id": 1182,
      "stateId": 415,
      "name": "Cherkasy",
      "latitude": null,
      "longitude": null,
      "createdAt": "2025-12-28T17:03:16.176Z",
      "updatedAt": "2025-12-28T17:03:16.176Z",
      "stateName": "Cherkasy Oblast",
      "countryName": "Ukraine"
    },
    {
      "id": 535,
      "stateId": 255,
      "name": "Cherkessk",
      "latitude": null,
      "longitude": null,
      "createdAt": "2025-12-28T17:01:03.941Z",
      "updatedAt": "2025-12-28T17:01:03.941Z",
      "stateName": "Karachay-Cherkessia",
      "countryName": "Russia"
    },
    {
      "id": 1202,
      "stateId": 421,
      "name": "Chernihiv",
      "latitude": null,
      "longitude": null,
      "createdAt": "2025-12-28T17:03:17.609Z",
      "updatedAt": "2025-12-28T17:03:17.609Z",
      "stateName": "Chernihiv Oblast",
      "countryName": "Ukraine"
    },
    {
      "id": 9204,
      "stateId": 1084,
      "name": "Chernogorsk",
      "latitude": null,
      "longitude": null,
      "createdAt": "2025-12-28T18:42:37.225Z",
      "updatedAt": "2025-12-28T18:42:37.225Z",
      "stateName": "Khakassia",
      "countryName": "Russia"
    },
    {
      "id": 11709,
      "stateId": 113,
      "name": "Cherokee",
      "latitude": "37.8034989",
      "longitude": "-92.5169818",
      "createdAt": "2025-12-28T19:08:42.018Z",
      "updatedAt": "2025-12-28T19:08:42.018Z",
      "stateName": "Iowa",
      "countryName": "United States"
    },
    {
      "id": 8979,
      "stateId": 106,
      "name": "Cherry Hill",
      "latitude": "39.9348400",
      "longitude": "-75.0307300",
      "createdAt": "2025-12-28T18:41:12.851Z",
      "updatedAt": "2025-12-28T18:41:12.851Z",
      "stateName": "New Jersey",
      "countryName": "United States"
    },
    {
      "id": 5791,
      "stateId": 32,
      "name": "Cherry Valley",
      "latitude": "37.8034989",
      "longitude": "-92.5169818",
      "createdAt": "2025-12-28T18:22:09.988Z",
      "updatedAt": "2025-12-28T18:22:09.988Z",
      "stateName": "Arkansas",
      "countryName": "United States"
    },
    {
      "id": 16365,
      "stateId": 55,
      "name": "Cherryville",
      "latitude": "37.8034989",
      "longitude": "-92.5169818",
      "createdAt": "2025-12-28T20:42:17.482Z",
      "updatedAt": "2025-12-28T20:42:17.482Z",
      "stateName": "North Carolina",
      "countryName": "United States"
    },
    {
      "id": 15483,
      "stateId": 2,
      "name": "Chertsey",
      "latitude": null,
      "longitude": null,
      "createdAt": "2025-12-28T20:07:57.884Z",
      "updatedAt": "2025-12-28T20:07:57.884Z",
      "stateName": "England",
      "countryName": "United Kingdom"
    },
    {
      "id": 13737,
      "stateId": 1132,
      "name": "Chervonohrad",
      "latitude": null,
      "longitude": null,
      "createdAt": "2025-12-28T19:30:30.287Z",
      "updatedAt": "2025-12-28T19:30:30.287Z",
      "stateName": "Lviv Oblast",
      "countryName": "Ukraine"
    },
    {
      "id": 5630,
      "stateId": 50,
      "name": "Chesapeake",
      "latitude": "36.8190400",
      "longitude": "-76.2749400",
      "createdAt": "2025-12-28T18:21:45.623Z",
      "updatedAt": "2025-12-28T18:21:45.623Z",
      "stateName": "Virginia",
      "countryName": "United States"
    },
    {
      "id": 19,
      "stateId": 2,
      "name": "Cheshire",
      "latitude": null,
      "longitude": null,
      "createdAt": "2025-12-28T16:36:27.923Z",
      "updatedAt": "2025-12-28T16:36:27.923Z",
      "stateName": "England",
      "countryName": "United Kingdom"
    },
    {
      "id": 14072,
      "stateId": 50,
      "name": "Chester",
      "latitude": "37.3568200",
      "longitude": "-77.4416500",
      "createdAt": "2025-12-28T19:38:35.160Z",
      "updatedAt": "2025-12-28T19:38:35.160Z",
      "stateName": "Virginia",
      "countryName": "United States"
    },
    {
      "id": 2756,
      "stateId": 2,
      "name": "Chester",
      "latitude": "53.1905000",
      "longitude": "-2.8918900",
      "createdAt": "2025-12-28T18:12:44.183Z",
      "updatedAt": "2025-12-28T18:12:44.183Z",
      "stateName": "England",
      "countryName": "United Kingdom"
    },
    {
      "id": 7269,
      "stateId": 68,
      "name": "Chester",
      "latitude": "39.8496700",
      "longitude": "-75.3570700",
      "createdAt": "2025-12-28T18:29:06.021Z",
      "updatedAt": "2025-12-28T18:29:06.021Z",
      "stateName": "Pennsylvania",
      "countryName": "United States"
    },
    {
      "id": 4256,
      "stateId": 68,
      "name": "Chesterbrook",
      "latitude": "37.8034989",
      "longitude": "-92.5169818",
      "createdAt": "2025-12-28T18:16:41.187Z",
      "updatedAt": "2025-12-28T18:16:41.187Z",
      "stateName": "Pennsylvania",
      "countryName": "United States"
    },
    {
      "id": 4019,
      "stateId": 2,
      "name": "Chesterfield",
      "latitude": "53.2500000",
      "longitude": "-1.4166700",
      "createdAt": "2025-12-28T18:15:51.985Z",
      "updatedAt": "2025-12-28T18:15:51.985Z",
      "stateName": "England",
      "countryName": "United Kingdom"
    },
    {
      "id": 9065,
      "stateId": 50,
      "name": "Chesterfield",
      "latitude": null,
      "longitude": null,
      "createdAt": "2025-12-28T18:41:42.980Z",
      "updatedAt": "2025-12-28T18:41:42.980Z",
      "stateName": "Virginia",
      "countryName": "United States"
    },
    {
      "id": 9047,
      "stateId": 145,
      "name": "Chesterfield",
      "latitude": "38.6631100",
      "longitude": "-90.5770700",
      "createdAt": "2025-12-28T18:41:39.924Z",
      "updatedAt": "2025-12-28T18:41:39.924Z",
      "stateName": "South Carolina",
      "countryName": "United States"
    },
    {
      "id": 17994,
      "stateId": 68,
      "name": "Chester Springs",
      "latitude": null,
      "longitude": null,
      "createdAt": "2026-03-26T23:40:10.200Z",
      "updatedAt": "2026-03-26T23:40:10.200Z",
      "stateName": "Pennsylvania",
      "countryName": "United States"
    },
    {
      "id": 3560,
      "stateId": 51,
      "name": "Chesterton",
      "latitude": "37.8034989",
      "longitude": "-92.5169818",
      "createdAt": "2025-12-28T18:14:49.661Z",
      "updatedAt": "2025-12-28T18:14:49.661Z",
      "stateName": "Indiana",
      "countryName": "United States"
    },
    {
      "id": 3720,
      "stateId": 64,
      "name": "Chestertown",
      "latitude": "37.8034989",
      "longitude": "-92.5169818",
      "createdAt": "2025-12-28T18:15:03.614Z",
      "updatedAt": "2025-12-28T18:15:03.614Z",
      "stateName": "Maryland",
      "countryName": "United States"
    },
    {
      "id": 16312,
      "stateId": 8,
      "name": "Chetek",
      "latitude": "37.8034989",
      "longitude": "-92.5169818",
      "createdAt": "2025-12-28T20:41:19.525Z",
      "updatedAt": "2025-12-28T20:41:19.525Z",
      "stateName": "Wisconsin",
      "countryName": "United States"
    },
    {
      "id": 7075,
      "stateId": 509,
      "name": "Cheticamp",
      "latitude": null,
      "longitude": null,
      "createdAt": "2025-12-28T18:28:06.968Z",
      "updatedAt": "2025-12-28T18:28:06.968Z",
      "stateName": "Nova Scotia",
      "countryName": "Canada"
    },
    {
      "id": 4714,
      "stateId": 79,
      "name": "Chetumal",
      "latitude": "18.5141300",
      "longitude": "-88.3038100",
      "createdAt": "2025-12-28T18:18:32.052Z",
      "updatedAt": "2025-12-28T18:18:32.052Z",
      "stateName": "Quintana Roo",
      "countryName": "Mexico"
    },
    {
      "id": 15042,
      "stateId": 26,
      "name": "Chetwynd",
      "latitude": null,
      "longitude": null,
      "createdAt": "2025-12-28T19:52:39.531Z",
      "updatedAt": "2025-12-28T19:52:39.531Z",
      "stateName": "British Columbia",
      "countryName": "Canada"
    },
    {
      "id": 5404,
      "stateId": 154,
      "name": "Cheyenne",
      "latitude": "41.1399800",
      "longitude": "-104.8202500",
      "createdAt": "2025-12-28T18:20:33.651Z",
      "updatedAt": "2025-12-28T18:20:33.651Z",
      "stateName": "Wyoming",
      "countryName": "United States"
    },
    {
      "id": 17371,
      "stateId": 27,
      "name": "Cheyenne Wells",
      "latitude": "37.8034989",
      "longitude": "-92.5169818",
      "createdAt": "2026-01-02T20:09:29.680Z",
      "updatedAt": "2026-01-02T20:09:29.680Z",
      "stateName": "Colorado",
      "countryName": "United States"
    },
    {
      "id": 896,
      "stateId": 366,
      "name": "Chhatarpur",
      "latitude": "24.9142200",
      "longitude": "79.5878100",
      "createdAt": "2025-12-28T17:02:26.744Z",
      "updatedAt": "2025-12-28T17:02:26.744Z",
      "stateName": "Madhya Pradesh",
      "countryName": "India"
    }
  ],
  "meta": {
    "page": 34,
    "limit": 100,
    "total": 18002,
    "totalPages": 181
  }
}
