{
  "source": "50k-radio-stations",
  "provider": "rapidapi",
  "syncedAt": "2026-06-03T13:04:01.635Z",
  "endpoint": "/cities",
  "page": 3,
  "limit": 250,
  "data": [
    {
      "id": 2823,
      "stateId": 183,
      "name": "Aizoáin",
      "latitude": null,
      "longitude": null,
      "createdAt": "2025-12-28T18:12:49.559Z",
      "updatedAt": "2025-12-28T18:12:49.559Z",
      "stateName": "Navarre",
      "countryName": "Spain"
    },
    {
      "id": 11316,
      "stateId": 584,
      "name": "Aizuwakamatsu",
      "latitude": "35.7074393",
      "longitude": "136.8605218",
      "createdAt": "2025-12-28T19:04:21.665Z",
      "updatedAt": "2025-12-28T19:04:21.665Z",
      "stateName": "Tōhoku",
      "countryName": "Japan"
    },
    {
      "id": 2929,
      "stateId": 635,
      "name": "Ajaccio",
      "latitude": "41.9272300",
      "longitude": "8.7346200",
      "createdAt": "2025-12-28T18:13:03.531Z",
      "updatedAt": "2025-12-28T18:13:03.531Z",
      "stateName": "Corsica",
      "countryName": "France"
    },
    {
      "id": 2928,
      "stateId": 41,
      "name": "Ajax",
      "latitude": "43.8501200",
      "longitude": "-79.0328800",
      "createdAt": "2025-12-28T18:13:03.480Z",
      "updatedAt": "2025-12-28T18:13:03.480Z",
      "stateName": "Ontario",
      "countryName": "Canada"
    },
    {
      "id": 2924,
      "stateId": 343,
      "name": "Ajmer",
      "latitude": "26.4497600",
      "longitude": "74.6411600",
      "createdAt": "2025-12-28T18:13:02.632Z",
      "updatedAt": "2025-12-28T18:13:02.632Z",
      "stateName": "Rajasthan",
      "countryName": "India"
    },
    {
      "id": 2932,
      "stateId": 75,
      "name": "Ajo",
      "latitude": null,
      "longitude": null,
      "createdAt": "2025-12-28T18:13:03.842Z",
      "updatedAt": "2025-12-28T18:13:03.842Z",
      "stateName": "Arizona",
      "countryName": "United States"
    },
    {
      "id": 2925,
      "stateId": 520,
      "name": "Ajuchitlán",
      "latitude": "21.0459460",
      "longitude": "-100.0405298",
      "createdAt": "2025-12-28T18:13:02.679Z",
      "updatedAt": "2025-12-28T18:13:02.679Z",
      "stateName": "Guerrero",
      "countryName": "Mexico"
    },
    {
      "id": 2930,
      "stateId": 205,
      "name": "Ajuricaba",
      "latitude": null,
      "longitude": null,
      "createdAt": "2025-12-28T18:13:03.557Z",
      "updatedAt": "2025-12-28T18:13:03.557Z",
      "stateName": "Rio Grande do Sul",
      "countryName": "Brazil"
    },
    {
      "id": 2956,
      "stateId": 648,
      "name": "Akhtubinsk",
      "latitude": null,
      "longitude": null,
      "createdAt": "2025-12-28T18:13:09.483Z",
      "updatedAt": "2025-12-28T18:13:09.483Z",
      "stateName": "Astrakhan Oblast",
      "countryName": "Russia"
    },
    {
      "id": 2641,
      "stateId": 54,
      "name": "Akola",
      "latitude": "20.7095700",
      "longitude": "76.9981000",
      "createdAt": "2025-12-28T18:12:38.487Z",
      "updatedAt": "2025-12-28T18:12:38.487Z",
      "stateName": "Maharashtra",
      "countryName": "India"
    },
    {
      "id": 27,
      "stateId": 14,
      "name": "Akron",
      "latitude": "41.0814400",
      "longitude": "-81.5190100",
      "createdAt": "2025-12-28T16:36:31.851Z",
      "updatedAt": "2025-12-28T16:36:31.851Z",
      "stateName": "Ohio",
      "countryName": "United States"
    },
    {
      "id": 2112,
      "stateId": 77,
      "name": "Akure",
      "latitude": null,
      "longitude": null,
      "createdAt": "2025-12-28T18:10:55.939Z",
      "updatedAt": "2025-12-28T18:10:55.939Z",
      "stateName": "Katsina State",
      "countryName": "Nigeria"
    },
    {
      "id": 18175,
      "stateId": 1417,
      "name": "Akure",
      "latitude": null,
      "longitude": null,
      "createdAt": "2026-04-17T01:51:57.045Z",
      "updatedAt": "2026-04-17T01:51:57.045Z",
      "stateName": "Ondo State",
      "countryName": "Nigeria"
    },
    {
      "id": 8924,
      "stateId": 122,
      "name": "Alabaster",
      "latitude": "33.2442800",
      "longitude": "-86.8163800",
      "createdAt": "2025-12-28T18:41:01.513Z",
      "updatedAt": "2025-12-28T18:41:01.513Z",
      "stateName": "Alabama",
      "countryName": "United States"
    },
    {
      "id": 15884,
      "stateId": 33,
      "name": "Alachua",
      "latitude": "37.8034989",
      "longitude": "-92.5169818",
      "createdAt": "2025-12-28T20:21:28.156Z",
      "updatedAt": "2025-12-28T20:21:28.156Z",
      "stateName": "Florida",
      "countryName": "United States"
    },
    {
      "id": 10866,
      "stateId": 287,
      "name": "Alagoa Grande",
      "latitude": "-7.1583300",
      "longitude": "-35.6300000",
      "createdAt": "2025-12-28T18:58:29.464Z",
      "updatedAt": "2025-12-28T18:58:29.464Z",
      "stateName": "Paraíba",
      "countryName": "Brazil"
    },
    {
      "id": 3435,
      "stateId": 287,
      "name": "Alagoa Nova",
      "latitude": null,
      "longitude": null,
      "createdAt": "2025-12-28T18:14:24.878Z",
      "updatedAt": "2025-12-28T18:14:24.878Z",
      "stateName": "Paraíba",
      "countryName": "Brazil"
    },
    {
      "id": 10779,
      "stateId": 262,
      "name": "Alagoas",
      "latitude": "-19.9147200",
      "longitude": "-48.3883300",
      "createdAt": "2025-12-28T18:57:33.275Z",
      "updatedAt": "2025-12-28T18:57:33.275Z",
      "stateName": "Bahia",
      "countryName": "Brazil"
    },
    {
      "id": 1393,
      "stateId": 262,
      "name": "Alagoinhas",
      "latitude": "-12.1355600",
      "longitude": "-38.4191700",
      "createdAt": "2025-12-28T17:04:25.414Z",
      "updatedAt": "2025-12-28T17:04:25.414Z",
      "stateName": "Bahia",
      "countryName": "Brazil"
    },
    {
      "id": 18481,
      "stateId": 1495,
      "name": "Alajärvi",
      "latitude": "63.0000000",
      "longitude": "23.8166700",
      "createdAt": "2026-06-03T07:42:40.127Z",
      "updatedAt": "2026-06-03T07:42:40.127Z",
      "stateName": "South Ostrobothnia",
      "countryName": "Finland"
    },
    {
      "id": 8315,
      "stateId": 873,
      "name": "Alaminos",
      "latitude": null,
      "longitude": null,
      "createdAt": "2025-12-28T18:37:18.358Z",
      "updatedAt": "2025-12-28T18:37:18.358Z",
      "stateName": "Pangasinan",
      "countryName": "Philippines"
    },
    {
      "id": 12257,
      "stateId": 190,
      "name": "Alamo",
      "latitude": "21.0459460",
      "longitude": "-100.0405298",
      "createdAt": "2025-12-28T19:14:53.077Z",
      "updatedAt": "2025-12-28T19:14:53.077Z",
      "stateName": "Veracruz",
      "countryName": "Mexico"
    },
    {
      "id": 12786,
      "stateId": 20,
      "name": "Alamo",
      "latitude": "26.1836900",
      "longitude": "-98.1230600",
      "createdAt": "2025-12-28T19:18:39.520Z",
      "updatedAt": "2025-12-28T19:18:39.520Z",
      "stateName": "Texas",
      "countryName": "United States"
    },
    {
      "id": 15798,
      "stateId": 21,
      "name": "Alamo",
      "latitude": "26.1836900",
      "longitude": "-98.1230600",
      "createdAt": "2025-12-28T20:19:31.380Z",
      "updatedAt": "2025-12-28T20:19:31.380Z",
      "stateName": "Tennessee",
      "countryName": "United States"
    },
    {
      "id": 5375,
      "stateId": 18,
      "name": "Alamogordo",
      "latitude": "32.8995300",
      "longitude": "-105.9602700",
      "createdAt": "2025-12-28T18:20:29.997Z",
      "updatedAt": "2025-12-28T18:20:29.997Z",
      "stateName": "New Mexico",
      "countryName": "United States"
    },
    {
      "id": 12518,
      "stateId": 20,
      "name": "Alamo Heights",
      "latitude": "37.8034989",
      "longitude": "-92.5169818",
      "createdAt": "2025-12-28T19:16:16.732Z",
      "updatedAt": "2025-12-28T19:16:16.732Z",
      "stateName": "Texas",
      "countryName": "United States"
    },
    {
      "id": 13026,
      "stateId": 27,
      "name": "Alamosa",
      "latitude": "37.8034989",
      "longitude": "-92.5169818",
      "createdAt": "2025-12-28T19:20:21.452Z",
      "updatedAt": "2025-12-28T19:20:21.452Z",
      "stateName": "Colorado",
      "countryName": "United States"
    },
    {
      "id": 2650,
      "stateId": 316,
      "name": "Alappuzha",
      "latitude": "21.6224148",
      "longitude": "79.1259549",
      "createdAt": "2025-12-28T18:12:38.867Z",
      "updatedAt": "2025-12-28T18:12:38.867Z",
      "stateName": "Kerala",
      "countryName": "India"
    },
    {
      "id": 2989,
      "stateId": 654,
      "name": "Alausi",
      "latitude": "-1.5077320",
      "longitude": "-79.2745136",
      "createdAt": "2025-12-28T18:13:27.746Z",
      "updatedAt": "2025-12-28T18:13:27.746Z",
      "stateName": "Chimborazo",
      "countryName": "Ecuador"
    },
    {
      "id": 2190,
      "stateId": 522,
      "name": "Alba Adriatica",
      "latitude": "42.4957616",
      "longitude": "12.4479260",
      "createdAt": "2025-12-28T18:11:04.592Z",
      "updatedAt": "2025-12-28T18:11:04.592Z",
      "stateName": "Teramo",
      "countryName": "Italy"
    },
    {
      "id": 392,
      "stateId": 133,
      "name": "Albacete",
      "latitude": "38.9942400",
      "longitude": "-1.8564300",
      "createdAt": "2025-12-28T17:00:47.581Z",
      "updatedAt": "2025-12-28T17:00:47.581Z",
      "stateName": "Castile-La Mancha",
      "countryName": "Spain"
    },
    {
      "id": 18068,
      "stateId": 411,
      "name": "Albanchez",
      "latitude": null,
      "longitude": null,
      "createdAt": "2026-03-30T17:00:39.539Z",
      "updatedAt": "2026-03-30T17:00:39.539Z",
      "stateName": "Almería",
      "countryName": "Spain"
    },
    {
      "id": 16253,
      "stateId": 549,
      "name": "Albania",
      "latitude": null,
      "longitude": null,
      "createdAt": "2025-12-28T20:39:53.790Z",
      "updatedAt": "2025-12-28T20:39:53.790Z",
      "stateName": "La Guajira",
      "countryName": "Colombia"
    },
    {
      "id": 5701,
      "stateId": 49,
      "name": "Albany",
      "latitude": "31.5785100",
      "longitude": "-84.1557400",
      "createdAt": "2025-12-28T18:21:56.242Z",
      "updatedAt": "2025-12-28T18:21:56.242Z",
      "stateName": "Minnesota",
      "countryName": "United States"
    },
    {
      "id": 6096,
      "stateId": 80,
      "name": "Albany",
      "latitude": "44.6365100",
      "longitude": "-123.1059300",
      "createdAt": "2025-12-28T18:23:14.671Z",
      "updatedAt": "2025-12-28T18:23:14.671Z",
      "stateName": "Kentucky",
      "countryName": "United States"
    },
    {
      "id": 3137,
      "stateId": 6,
      "name": "Albany",
      "latitude": "42.6525800",
      "longitude": "-73.7562300",
      "createdAt": "2025-12-28T18:13:45.499Z",
      "updatedAt": "2025-12-28T18:13:45.499Z",
      "stateName": "New York",
      "countryName": "United States"
    },
    {
      "id": 1768,
      "stateId": 44,
      "name": "Albany",
      "latitude": "-35.0031000",
      "longitude": "117.8659500",
      "createdAt": "2025-12-28T18:10:09.679Z",
      "updatedAt": "2025-12-28T18:10:09.679Z",
      "stateName": "Western Australia",
      "countryName": "Australia"
    },
    {
      "id": 12980,
      "stateId": 20,
      "name": "Albany",
      "latitude": "31.5785100",
      "longitude": "-84.1557400",
      "createdAt": "2025-12-28T19:20:05.090Z",
      "updatedAt": "2025-12-28T19:20:05.090Z",
      "stateName": "Texas",
      "countryName": "United States"
    },
    {
      "id": 6753,
      "stateId": 81,
      "name": "Albany",
      "latitude": "44.6365100",
      "longitude": "-123.1059300",
      "createdAt": "2025-12-28T18:26:58.324Z",
      "updatedAt": "2025-12-28T18:26:58.324Z",
      "stateName": "Oregon",
      "countryName": "United States"
    },
    {
      "id": 1347,
      "stateId": 22,
      "name": "Albany",
      "latitude": "31.5785100",
      "longitude": "-84.1557400",
      "createdAt": "2025-12-28T17:03:42.750Z",
      "updatedAt": "2025-12-28T17:03:42.750Z",
      "stateName": "Georgia",
      "countryName": "United States"
    },
    {
      "id": 9984,
      "stateId": 55,
      "name": "Albemarle",
      "latitude": "35.3501400",
      "longitude": "-80.2000600",
      "createdAt": "2025-12-28T18:49:23.139Z",
      "updatedAt": "2025-12-28T18:49:23.139Z",
      "stateName": "North Carolina",
      "countryName": "United States"
    },
    {
      "id": 11959,
      "stateId": 222,
      "name": "Albenga",
      "latitude": "44.0499700",
      "longitude": "8.2182900",
      "createdAt": "2025-12-28T19:10:57.355Z",
      "updatedAt": "2025-12-28T19:10:57.355Z",
      "stateName": "Liguria",
      "countryName": "Italy"
    },
    {
      "id": 16855,
      "stateId": 50,
      "name": "Alberta",
      "latitude": "37.8034989",
      "longitude": "-92.5169818",
      "createdAt": "2025-12-28T20:53:57.948Z",
      "updatedAt": "2025-12-28T20:53:57.948Z",
      "stateName": "Virginia",
      "countryName": "United States"
    },
    {
      "id": 3142,
      "stateId": 49,
      "name": "Albert Lea",
      "latitude": "43.6480100",
      "longitude": "-93.3682700",
      "createdAt": "2025-12-28T18:13:46.091Z",
      "updatedAt": "2025-12-28T18:13:46.091Z",
      "stateName": "Minnesota",
      "countryName": "United States"
    },
    {
      "id": 1459,
      "stateId": 53,
      "name": "Alberton",
      "latitude": null,
      "longitude": null,
      "createdAt": "2025-12-28T17:04:32.329Z",
      "updatedAt": "2025-12-28T17:04:32.329Z",
      "stateName": "Gauteng",
      "countryName": "South Africa"
    },
    {
      "id": 17811,
      "stateId": 90,
      "name": "Albertville",
      "latitude": "45.6745200",
      "longitude": "6.3906100",
      "createdAt": "2026-03-03T02:51:07.118Z",
      "updatedAt": "2026-03-03T02:51:07.118Z",
      "stateName": "Rhône-Alpes",
      "countryName": "France"
    },
    {
      "id": 15149,
      "stateId": 122,
      "name": "Albertville",
      "latitude": "34.2675900",
      "longitude": "-86.2088700",
      "createdAt": "2025-12-28T19:56:26.975Z",
      "updatedAt": "2025-12-28T19:56:26.975Z",
      "stateName": "Alabama",
      "countryName": "United States"
    },
    {
      "id": 17997,
      "stateId": 1400,
      "name": "Albi",
      "latitude": "43.9298000",
      "longitude": "2.1480000",
      "createdAt": "2026-03-27T11:21:29.717Z",
      "updatedAt": "2026-03-27T11:21:29.717Z",
      "stateName": "Occitania",
      "countryName": "France"
    },
    {
      "id": 15249,
      "stateId": 610,
      "name": "Albi",
      "latitude": "43.9298000",
      "longitude": "2.1480000",
      "createdAt": "2025-12-28T19:59:10.962Z",
      "updatedAt": "2025-12-28T19:59:10.962Z",
      "stateName": "Midi-Pyrénées",
      "countryName": "France"
    },
    {
      "id": 3058,
      "stateId": 38,
      "name": "Albi",
      "latitude": null,
      "longitude": null,
      "createdAt": "2025-12-28T18:13:36.846Z",
      "updatedAt": "2025-12-28T18:13:36.846Z",
      "stateName": "Occitanie",
      "countryName": "France"
    },
    {
      "id": 8974,
      "stateId": 113,
      "name": "Albia",
      "latitude": "37.8034989",
      "longitude": "-92.5169818",
      "createdAt": "2025-12-28T18:41:12.442Z",
      "updatedAt": "2025-12-28T18:41:12.442Z",
      "stateName": "Iowa",
      "countryName": "United States"
    },
    {
      "id": 9159,
      "stateId": 184,
      "name": "Albinea",
      "latitude": "42.4957616",
      "longitude": "12.4479260",
      "createdAt": "2025-12-28T18:42:05.290Z",
      "updatedAt": "2025-12-28T18:42:05.290Z",
      "stateName": "Emilia-Romagna",
      "countryName": "Italy"
    },
    {
      "id": 14088,
      "stateId": 46,
      "name": "Albion",
      "latitude": "37.8034989",
      "longitude": "-92.5169818",
      "createdAt": "2025-12-28T19:38:54.943Z",
      "updatedAt": "2025-12-28T19:38:54.943Z",
      "stateName": "Illinois",
      "countryName": "United States"
    },
    {
      "id": 13234,
      "stateId": 73,
      "name": "Albion",
      "latitude": null,
      "longitude": null,
      "createdAt": "2025-12-28T19:21:52.163Z",
      "updatedAt": "2025-12-28T19:21:52.163Z",
      "stateName": "Nebraska",
      "countryName": "United States"
    },
    {
      "id": 9768,
      "stateId": 92,
      "name": "Albion",
      "latitude": null,
      "longitude": null,
      "createdAt": "2025-12-28T18:47:07.497Z",
      "updatedAt": "2025-12-28T18:47:07.497Z",
      "stateName": "Michigan",
      "countryName": "United States"
    },
    {
      "id": 5982,
      "stateId": 411,
      "name": "Albox",
      "latitude": null,
      "longitude": null,
      "createdAt": "2025-12-28T18:22:47.218Z",
      "updatedAt": "2025-12-28T18:22:47.218Z",
      "stateName": "Almería",
      "countryName": "Spain"
    },
    {
      "id": 16837,
      "stateId": 17,
      "name": "Albstadt",
      "latitude": "48.2164400",
      "longitude": "9.0259600",
      "createdAt": "2025-12-28T20:53:23.676Z",
      "updatedAt": "2025-12-28T20:53:23.676Z",
      "stateName": "Baden-Württemberg",
      "countryName": "Germany"
    },
    {
      "id": 206,
      "stateId": 126,
      "name": "Albufeira",
      "latitude": "37.0881900",
      "longitude": "-8.2503000",
      "createdAt": "2025-12-28T16:56:35.522Z",
      "updatedAt": "2025-12-28T16:56:35.522Z",
      "stateName": "Algarve",
      "countryName": "Portugal"
    },
    {
      "id": 122,
      "stateId": 18,
      "name": "Albuquerque",
      "latitude": "35.0844900",
      "longitude": "-106.6511400",
      "createdAt": "2025-12-28T16:56:25.388Z",
      "updatedAt": "2025-12-28T16:56:25.388Z",
      "stateName": "New Mexico",
      "countryName": "United States"
    },
    {
      "id": 4294,
      "stateId": 19,
      "name": "Albury",
      "latitude": "-36.0749400",
      "longitude": "146.9239400",
      "createdAt": "2025-12-28T18:16:44.500Z",
      "updatedAt": "2025-12-28T18:16:44.500Z",
      "stateName": "New South Wales",
      "countryName": "Australia"
    },
    {
      "id": 17517,
      "stateId": 1203,
      "name": "Alcabideche",
      "latitude": null,
      "longitude": null,
      "createdAt": "2026-01-20T00:11:18.700Z",
      "updatedAt": "2026-01-20T00:11:18.700Z",
      "stateName": "Cascais",
      "countryName": "Portugal"
    },
    {
      "id": 1543,
      "stateId": 278,
      "name": "Alcala",
      "latitude": null,
      "longitude": null,
      "createdAt": "2025-12-28T17:04:41.656Z",
      "updatedAt": "2025-12-28T17:04:41.656Z",
      "stateName": "Valle del Cauca",
      "countryName": "Colombia"
    },
    {
      "id": 1480,
      "stateId": 475,
      "name": "Alcalá de Henares",
      "latitude": "40.4820500",
      "longitude": "-3.3599600",
      "createdAt": "2025-12-28T17:04:34.354Z",
      "updatedAt": "2025-12-28T17:04:34.354Z",
      "stateName": "Community of Madrid",
      "countryName": "Spain"
    },
    {
      "id": 3131,
      "stateId": 392,
      "name": "Alcalá la Real",
      "latitude": null,
      "longitude": null,
      "createdAt": "2025-12-28T18:13:45.203Z",
      "updatedAt": "2025-12-28T18:13:45.203Z",
      "stateName": "Jaén",
      "countryName": "Spain"
    },
    {
      "id": 17455,
      "stateId": 1356,
      "name": "Alcañiz",
      "latitude": null,
      "longitude": null,
      "createdAt": "2026-01-11T20:50:31.798Z",
      "updatedAt": "2026-01-11T20:50:31.798Z",
      "stateName": "Teruel",
      "countryName": "Spain"
    },
    {
      "id": 5048,
      "stateId": 231,
      "name": "Alcantaras",
      "latitude": null,
      "longitude": null,
      "createdAt": "2025-12-28T18:19:28.205Z",
      "updatedAt": "2025-12-28T18:19:28.205Z",
      "stateName": "Ceará",
      "countryName": "Brazil"
    },
    {
      "id": 3004,
      "stateId": 133,
      "name": "Alcazar de San Juan",
      "latitude": "39.2717249",
      "longitude": "-3.2471696",
      "createdAt": "2025-12-28T18:13:29.618Z",
      "updatedAt": "2025-12-28T18:13:29.618Z",
      "stateName": "Castile-La Mancha",
      "countryName": "Spain"
    },
    {
      "id": 2753,
      "stateId": 21,
      "name": "Alcoa",
      "latitude": "37.8034989",
      "longitude": "-92.5169818",
      "createdAt": "2025-12-28T18:12:43.538Z",
      "updatedAt": "2025-12-28T18:12:43.538Z",
      "stateName": "Tennessee",
      "countryName": "United States"
    },
    {
      "id": 18195,
      "stateId": 1418,
      "name": "Alcobaca",
      "latitude": "39.5232529",
      "longitude": "-8.9987995",
      "createdAt": "2026-04-20T02:12:26.149Z",
      "updatedAt": "2026-04-20T02:12:26.149Z",
      "stateName": "Oeste e Vale do Tejo",
      "countryName": "Portugal"
    },
    {
      "id": 6848,
      "stateId": 206,
      "name": "Alcobaca",
      "latitude": "39.5232529",
      "longitude": "-8.9987995",
      "createdAt": "2025-12-28T18:27:21.881Z",
      "updatedAt": "2025-12-28T18:27:21.881Z",
      "stateName": "Lisboa e Vale do Tejo",
      "countryName": "Portugal"
    },
    {
      "id": 17097,
      "stateId": 262,
      "name": "Alcobaça",
      "latitude": null,
      "longitude": null,
      "createdAt": "2025-12-29T15:28:02.310Z",
      "updatedAt": "2025-12-29T15:28:02.310Z",
      "stateName": "Bahia",
      "countryName": "Brazil"
    },
    {
      "id": 2973,
      "stateId": 120,
      "name": "Alcoi/Alcoy",
      "latitude": "39.2717249",
      "longitude": "-3.2471696",
      "createdAt": "2025-12-28T18:13:24.685Z",
      "updatedAt": "2025-12-28T18:13:24.685Z",
      "stateName": "Valencia",
      "countryName": "Spain"
    },
    {
      "id": 9328,
      "stateId": 475,
      "name": "Alcorcón",
      "latitude": null,
      "longitude": null,
      "createdAt": "2025-12-28T18:43:48.330Z",
      "updatedAt": "2025-12-28T18:43:48.330Z",
      "stateName": "Community of Madrid",
      "countryName": "Spain"
    },
    {
      "id": 9885,
      "stateId": 86,
      "name": "Alcorta",
      "latitude": "-32.1628172",
      "longitude": "-62.0921509",
      "createdAt": "2025-12-28T18:48:16.092Z",
      "updatedAt": "2025-12-28T18:48:16.092Z",
      "stateName": "Santa Fe",
      "countryName": "Argentina"
    },
    {
      "id": 17199,
      "stateId": 126,
      "name": "Alcoutim",
      "latitude": "39.5232529",
      "longitude": "-8.9987995",
      "createdAt": "2025-12-29T15:56:48.965Z",
      "updatedAt": "2025-12-29T15:56:48.965Z",
      "stateName": "Algarve",
      "countryName": "Portugal"
    },
    {
      "id": 17742,
      "stateId": 131,
      "name": "Alcúdia",
      "latitude": "39.8531600",
      "longitude": "3.1213800",
      "createdAt": "2026-02-14T11:22:09.310Z",
      "updatedAt": "2026-02-14T11:22:09.310Z",
      "stateName": "Balearic Islands",
      "countryName": "Spain"
    },
    {
      "id": 14385,
      "stateId": 934,
      "name": "Aldea del Obispo",
      "latitude": null,
      "longitude": null,
      "createdAt": "2025-12-28T19:43:48.461Z",
      "updatedAt": "2025-12-28T19:43:48.461Z",
      "stateName": "Salamanca",
      "countryName": "Spain"
    },
    {
      "id": 11633,
      "stateId": 335,
      "name": "Aldeias Altas",
      "latitude": null,
      "longitude": null,
      "createdAt": "2025-12-28T19:08:13.346Z",
      "updatedAt": "2025-12-28T19:08:13.346Z",
      "stateName": "Maranhão",
      "countryName": "Brazil"
    },
    {
      "id": 5133,
      "stateId": 468,
      "name": "Aldergrove",
      "latitude": null,
      "longitude": null,
      "createdAt": "2025-12-28T18:19:39.138Z",
      "updatedAt": "2025-12-28T18:19:39.138Z",
      "stateName": "Northern Ireland",
      "countryName": "United Kingdom"
    },
    {
      "id": 5131,
      "stateId": 2,
      "name": "Aldershot",
      "latitude": "51.2482700",
      "longitude": "-0.7638900",
      "createdAt": "2025-12-28T18:19:38.968Z",
      "updatedAt": "2025-12-28T18:19:38.968Z",
      "stateName": "England",
      "countryName": "United Kingdom"
    },
    {
      "id": 17764,
      "stateId": 46,
      "name": "Aledo",
      "latitude": "42.8078000",
      "longitude": "-87.9242500",
      "createdAt": "2026-02-18T05:34:15.685Z",
      "updatedAt": "2026-02-18T05:34:15.685Z",
      "stateName": "Illinois",
      "countryName": "United States"
    },
    {
      "id": 9688,
      "stateId": 261,
      "name": "Alegre",
      "latitude": null,
      "longitude": null,
      "createdAt": "2025-12-28T18:46:44.790Z",
      "updatedAt": "2025-12-28T18:46:44.790Z",
      "stateName": "Espírito Santo",
      "countryName": "Brazil"
    },
    {
      "id": 597,
      "stateId": 205,
      "name": "Alegrete",
      "latitude": "-29.7830600",
      "longitude": "-55.7919400",
      "createdAt": "2025-12-28T17:01:11.209Z",
      "updatedAt": "2025-12-28T17:01:11.209Z",
      "stateName": "Rio Grande do Sul",
      "countryName": "Brazil"
    },
    {
      "id": 3171,
      "stateId": 205,
      "name": "Alegria",
      "latitude": null,
      "longitude": null,
      "createdAt": "2025-12-28T18:13:48.111Z",
      "updatedAt": "2025-12-28T18:13:48.111Z",
      "stateName": "Rio Grande do Sul",
      "countryName": "Brazil"
    },
    {
      "id": 9325,
      "stateId": 181,
      "name": "Alejandría",
      "latitude": null,
      "longitude": null,
      "createdAt": "2025-12-28T18:43:45.514Z",
      "updatedAt": "2025-12-28T18:43:45.514Z",
      "stateName": "Antioquia",
      "countryName": "Colombia"
    },
    {
      "id": 3038,
      "stateId": 95,
      "name": "Alem Paraiba",
      "latitude": "-17.4339069",
      "longitude": "-45.8426650",
      "createdAt": "2025-12-28T18:13:34.604Z",
      "updatedAt": "2025-12-28T18:13:34.604Z",
      "stateName": "Minas Gerais",
      "countryName": "Brazil"
    },
    {
      "id": 5491,
      "stateId": 405,
      "name": "Alençon",
      "latitude": "48.4333300",
      "longitude": "0.0833300",
      "createdAt": "2025-12-28T18:21:04.530Z",
      "updatedAt": "2025-12-28T18:21:04.530Z",
      "stateName": "Normandy",
      "countryName": "France"
    },
    {
      "id": 3165,
      "stateId": 206,
      "name": "Alenquer",
      "latitude": "-1.9416700",
      "longitude": "-54.7383300",
      "createdAt": "2025-12-28T18:13:47.574Z",
      "updatedAt": "2025-12-28T18:13:47.574Z",
      "stateName": "Lisboa e Vale do Tejo",
      "countryName": "Portugal"
    },
    {
      "id": 3101,
      "stateId": 159,
      "name": "Alenquer",
      "latitude": null,
      "longitude": null,
      "createdAt": "2025-12-28T18:13:42.085Z",
      "updatedAt": "2025-12-28T18:13:42.085Z",
      "stateName": "Pará",
      "countryName": "Brazil"
    },
    {
      "id": 17127,
      "stateId": 678,
      "name": "Alentejo",
      "latitude": "39.5232529",
      "longitude": "-8.9987995",
      "createdAt": "2025-12-29T15:36:19.801Z",
      "updatedAt": "2025-12-29T15:36:19.801Z",
      "stateName": "Alentejo",
      "countryName": "Portugal"
    },
    {
      "id": 10799,
      "stateId": 714,
      "name": "Alès",
      "latitude": "44.1333300",
      "longitude": "4.0833300",
      "createdAt": "2025-12-28T18:57:42.394Z",
      "updatedAt": "2025-12-28T18:57:42.394Z",
      "stateName": "Languedoc-Roussillon",
      "countryName": "France"
    },
    {
      "id": 18044,
      "stateId": 1400,
      "name": "Alès",
      "latitude": "44.1333300",
      "longitude": "4.0833300",
      "createdAt": "2026-03-30T06:52:34.620Z",
      "updatedAt": "2026-03-30T06:52:34.620Z",
      "stateName": "Occitania",
      "countryName": "France"
    },
    {
      "id": 17944,
      "stateId": 559,
      "name": "Alessandria",
      "latitude": "44.9092400",
      "longitude": "8.6100700",
      "createdAt": "2026-03-16T18:40:59.025Z",
      "updatedAt": "2026-03-16T18:40:59.025Z",
      "stateName": "Piedmont",
      "countryName": "Italy"
    },
    {
      "id": 459,
      "stateId": 219,
      "name": "Alessandria",
      "latitude": "44.9092400",
      "longitude": "8.6100700",
      "createdAt": "2025-12-28T17:00:51.124Z",
      "updatedAt": "2025-12-28T17:00:51.124Z",
      "stateName": "Metropolitan City of Turin",
      "countryName": "Italy"
    },
    {
      "id": 6149,
      "stateId": 122,
      "name": "Alexander City",
      "latitude": "37.8034989",
      "longitude": "-92.5169818",
      "createdAt": "2025-12-28T18:23:20.818Z",
      "updatedAt": "2025-12-28T18:23:20.818Z",
      "stateName": "Alabama",
      "countryName": "United States"
    },
    {
      "id": 16044,
      "stateId": 13,
      "name": "Alexandra",
      "latitude": null,
      "longitude": null,
      "createdAt": "2025-12-28T20:28:12.609Z",
      "updatedAt": "2025-12-28T20:28:12.609Z",
      "stateName": "Victoria",
      "countryName": "Australia"
    },
    {
      "id": 1800,
      "stateId": 524,
      "name": "Alexandra",
      "latitude": "-39.8145491",
      "longitude": "174.7111031",
      "createdAt": "2025-12-28T18:10:12.046Z",
      "updatedAt": "2025-12-28T18:10:12.046Z",
      "stateName": "Central Otago",
      "countryName": "New Zealand"
    },
    {
      "id": 7318,
      "stateId": 963,
      "name": "Alexandria",
      "latitude": "31.2156400",
      "longitude": "29.9552700",
      "createdAt": "2025-12-28T18:29:35.543Z",
      "updatedAt": "2025-12-28T18:29:35.543Z",
      "stateName": "Alexandria",
      "countryName": "Egypt"
    },
    {
      "id": 5310,
      "stateId": 122,
      "name": "Alexandria",
      "latitude": null,
      "longitude": null,
      "createdAt": "2025-12-28T18:20:21.275Z",
      "updatedAt": "2025-12-28T18:20:21.275Z",
      "stateName": "Alabama",
      "countryName": "United States"
    },
    {
      "id": 5492,
      "stateId": 51,
      "name": "Alexandria",
      "latitude": "31.3112900",
      "longitude": "-92.4451400",
      "createdAt": "2025-12-28T18:21:04.726Z",
      "updatedAt": "2025-12-28T18:21:04.726Z",
      "stateName": "Indiana",
      "countryName": "United States"
    }
  ],
  "meta": {
    "page": 3,
    "limit": 100,
    "total": 18002,
    "totalPages": 181
  }
}
