{
  "source": "50k-radio-stations",
  "provider": "rapidapi",
  "syncedAt": "2026-06-03T13:05:05.025Z",
  "endpoint": "/cities",
  "page": 78,
  "limit": 250,
  "data": [
    {
      "id": 2263,
      "stateId": 4,
      "name": "Jandira",
      "latitude": null,
      "longitude": null,
      "createdAt": "2025-12-28T18:11:27.872Z",
      "updatedAt": "2025-12-28T18:11:27.872Z",
      "stateName": "São Paulo",
      "countryName": "Brazil"
    },
    {
      "id": 17229,
      "stateId": 186,
      "name": "Janduis",
      "latitude": "-17.4339069",
      "longitude": "-45.8426650",
      "createdAt": "2025-12-29T16:01:04.214Z",
      "updatedAt": "2025-12-29T16:01:04.214Z",
      "stateName": "Rio Grande do Norte",
      "countryName": "Brazil"
    },
    {
      "id": 2357,
      "stateId": 453,
      "name": "Jane Furse",
      "latitude": null,
      "longitude": null,
      "createdAt": "2025-12-28T18:11:54.366Z",
      "updatedAt": "2025-12-28T18:11:54.366Z",
      "stateName": "Limpopo",
      "countryName": "South Africa"
    },
    {
      "id": 14076,
      "stateId": 8,
      "name": "Janesville",
      "latitude": "42.6827900",
      "longitude": "-89.0187200",
      "createdAt": "2025-12-28T19:38:42.485Z",
      "updatedAt": "2025-12-28T19:38:42.485Z",
      "stateName": "Wisconsin",
      "countryName": "United States"
    },
    {
      "id": 2978,
      "stateId": 95,
      "name": "Januaria",
      "latitude": "-17.4339069",
      "longitude": "-45.8426650",
      "createdAt": "2025-12-28T18:13:25.758Z",
      "updatedAt": "2025-12-28T18:13:25.758Z",
      "stateName": "Minas Gerais",
      "countryName": "Brazil"
    },
    {
      "id": 1449,
      "stateId": 134,
      "name": "Japeri",
      "latitude": "-22.6430600",
      "longitude": "-43.6533300",
      "createdAt": "2025-12-28T17:04:31.597Z",
      "updatedAt": "2025-12-28T17:04:31.597Z",
      "stateName": "Rio de Janeiro",
      "countryName": "Brazil"
    },
    {
      "id": 11940,
      "stateId": 271,
      "name": "japoatã",
      "latitude": null,
      "longitude": null,
      "createdAt": "2025-12-28T19:10:50.644Z",
      "updatedAt": "2025-12-28T19:10:50.644Z",
      "stateName": "Sergipe",
      "countryName": "Brazil"
    },
    {
      "id": 12129,
      "stateId": 95,
      "name": "Japonvar",
      "latitude": null,
      "longitude": null,
      "createdAt": "2025-12-28T19:12:58.791Z",
      "updatedAt": "2025-12-28T19:12:58.791Z",
      "stateName": "Minas Gerais",
      "countryName": "Brazil"
    },
    {
      "id": 5782,
      "stateId": 238,
      "name": "Japurá",
      "latitude": null,
      "longitude": null,
      "createdAt": "2025-12-28T18:22:07.520Z",
      "updatedAt": "2025-12-28T18:22:07.520Z",
      "stateName": "Amazonas",
      "countryName": "Brazil"
    },
    {
      "id": 11868,
      "stateId": 253,
      "name": "Jaraguá",
      "latitude": null,
      "longitude": null,
      "createdAt": "2025-12-28T19:10:25.579Z",
      "updatedAt": "2025-12-28T19:10:25.579Z",
      "stateName": "Goiás",
      "countryName": "Brazil"
    },
    {
      "id": 3112,
      "stateId": 293,
      "name": "Jaraguá do Sul",
      "latitude": "-26.4861100",
      "longitude": "-49.0666700",
      "createdAt": "2025-12-28T18:13:42.659Z",
      "updatedAt": "2025-12-28T18:13:42.659Z",
      "stateName": "Santa Catarina",
      "countryName": "Brazil"
    },
    {
      "id": 6837,
      "stateId": 369,
      "name": "Jardim",
      "latitude": "-21.4802800",
      "longitude": "-56.1380600",
      "createdAt": "2025-12-28T18:27:20.659Z",
      "updatedAt": "2025-12-28T18:27:20.659Z",
      "stateName": "Mato Grosso do Sul",
      "countryName": "Brazil"
    },
    {
      "id": 6553,
      "stateId": 231,
      "name": "Jardim",
      "latitude": null,
      "longitude": null,
      "createdAt": "2025-12-28T18:25:50.655Z",
      "updatedAt": "2025-12-28T18:25:50.655Z",
      "stateName": "Ceará",
      "countryName": "Brazil"
    },
    {
      "id": 3108,
      "stateId": 137,
      "name": "Jardim Alegre",
      "latitude": null,
      "longitude": null,
      "createdAt": "2025-12-28T18:13:42.528Z",
      "updatedAt": "2025-12-28T18:13:42.528Z",
      "stateName": "Paraná",
      "countryName": "Brazil"
    },
    {
      "id": 8209,
      "stateId": 186,
      "name": "Jardim de Piranhas",
      "latitude": null,
      "longitude": null,
      "createdAt": "2025-12-28T18:36:25.986Z",
      "updatedAt": "2025-12-28T18:36:25.986Z",
      "stateName": "Rio Grande do Norte",
      "countryName": "Brazil"
    },
    {
      "id": 1077,
      "stateId": 186,
      "name": "Jardim do Seridó",
      "latitude": null,
      "longitude": null,
      "createdAt": "2025-12-28T17:02:37.854Z",
      "updatedAt": "2025-12-28T17:02:37.854Z",
      "stateName": "Rio Grande do Norte",
      "countryName": "Brazil"
    },
    {
      "id": 14795,
      "stateId": 1147,
      "name": "Jaren",
      "latitude": "61.1229964",
      "longitude": "9.8057761",
      "createdAt": "2025-12-28T19:48:36.432Z",
      "updatedAt": "2025-12-28T19:48:36.432Z",
      "stateName": "Oppland",
      "countryName": "Norway"
    },
    {
      "id": 18080,
      "stateId": 1403,
      "name": "Jaren",
      "latitude": "61.1229964",
      "longitude": "9.8057761",
      "createdAt": "2026-03-30T20:12:57.832Z",
      "updatedAt": "2026-03-30T20:12:57.832Z",
      "stateName": "Innlandet",
      "countryName": "Norway"
    },
    {
      "id": 11980,
      "stateId": 501,
      "name": "Jarfalla",
      "latitude": "58.9901705",
      "longitude": "15.8143176",
      "createdAt": "2025-12-28T19:11:06.639Z",
      "updatedAt": "2025-12-28T19:11:06.639Z",
      "stateName": "Södermanland",
      "countryName": "Sweden"
    },
    {
      "id": 18219,
      "stateId": 1242,
      "name": "Jarfalla",
      "latitude": "58.9901705",
      "longitude": "15.8143176",
      "createdAt": "2026-04-27T11:20:27.218Z",
      "updatedAt": "2026-04-27T11:20:27.218Z",
      "stateName": "Stockholm",
      "countryName": "Sweden"
    },
    {
      "id": 17474,
      "stateId": 205,
      "name": "Jari",
      "latitude": null,
      "longitude": null,
      "createdAt": "2026-01-12T23:02:24.147Z",
      "updatedAt": "2026-01-12T23:02:24.147Z",
      "stateName": "Rio Grande do Sul",
      "countryName": "Brazil"
    },
    {
      "id": 9845,
      "stateId": 652,
      "name": "Jaru",
      "latitude": "-10.4388900",
      "longitude": "-62.4663900",
      "createdAt": "2025-12-28T18:47:49.266Z",
      "updatedAt": "2025-12-28T18:47:49.266Z",
      "stateName": "Rondônia",
      "countryName": "Brazil"
    },
    {
      "id": 7727,
      "stateId": 51,
      "name": "Jasper",
      "latitude": "38.3914400",
      "longitude": "-86.9311100",
      "createdAt": "2025-12-28T18:31:15.366Z",
      "updatedAt": "2025-12-28T18:31:15.366Z",
      "stateName": "Indiana",
      "countryName": "United States"
    },
    {
      "id": 10674,
      "stateId": 20,
      "name": "Jasper",
      "latitude": "38.3914400",
      "longitude": "-86.9311100",
      "createdAt": "2025-12-28T18:56:22.942Z",
      "updatedAt": "2025-12-28T18:56:22.942Z",
      "stateName": "Texas",
      "countryName": "United States"
    },
    {
      "id": 6727,
      "stateId": 22,
      "name": "Jasper",
      "latitude": "38.3914400",
      "longitude": "-86.9311100",
      "createdAt": "2025-12-28T18:26:50.631Z",
      "updatedAt": "2025-12-28T18:26:50.631Z",
      "stateName": "Georgia",
      "countryName": "United States"
    },
    {
      "id": 6200,
      "stateId": 122,
      "name": "Jasper",
      "latitude": "38.3914400",
      "longitude": "-86.9311100",
      "createdAt": "2025-12-28T18:23:27.273Z",
      "updatedAt": "2025-12-28T18:23:27.273Z",
      "stateName": "Alabama",
      "countryName": "United States"
    },
    {
      "id": 8146,
      "stateId": 124,
      "name": "Jasper",
      "latitude": "38.3914400",
      "longitude": "-86.9311100",
      "createdAt": "2025-12-28T18:35:46.428Z",
      "updatedAt": "2025-12-28T18:35:46.428Z",
      "stateName": "Alberta",
      "countryName": "Canada"
    },
    {
      "id": 13699,
      "stateId": 888,
      "name": "Jastrzębia",
      "latitude": null,
      "longitude": null,
      "createdAt": "2025-12-28T19:29:52.249Z",
      "updatedAt": "2025-12-28T19:29:52.249Z",
      "stateName": "Lublin",
      "countryName": "Poland"
    },
    {
      "id": 1607,
      "stateId": 502,
      "name": "Jászberény",
      "latitude": null,
      "longitude": null,
      "createdAt": "2025-12-28T18:01:39.198Z",
      "updatedAt": "2025-12-28T18:01:39.198Z",
      "stateName": "Jasz-Nagykun-Szolnok ",
      "countryName": "Hungary"
    },
    {
      "id": 898,
      "stateId": 253,
      "name": "Jatai",
      "latitude": "-17.4339069",
      "longitude": "-45.8426650",
      "createdAt": "2025-12-28T17:02:26.790Z",
      "updatedAt": "2025-12-28T17:02:26.790Z",
      "stateName": "Goiás",
      "countryName": "Brazil"
    },
    {
      "id": 10518,
      "stateId": 137,
      "name": "Jataizinho",
      "latitude": null,
      "longitude": null,
      "createdAt": "2025-12-28T18:54:10.856Z",
      "updatedAt": "2025-12-28T18:54:10.856Z",
      "stateName": "Paraná",
      "countryName": "Brazil"
    },
    {
      "id": 11928,
      "stateId": 7,
      "name": "Jataúba",
      "latitude": null,
      "longitude": null,
      "createdAt": "2025-12-28T19:10:44.621Z",
      "updatedAt": "2025-12-28T19:10:44.621Z",
      "stateName": "Pernambuco",
      "countryName": "Brazil"
    },
    {
      "id": 17135,
      "stateId": 231,
      "name": "Jati",
      "latitude": null,
      "longitude": null,
      "createdAt": "2025-12-29T15:38:11.410Z",
      "updatedAt": "2025-12-29T15:38:11.410Z",
      "stateName": "Ceará",
      "countryName": "Brazil"
    },
    {
      "id": 722,
      "stateId": 4,
      "name": "Jaú",
      "latitude": "-22.2963900",
      "longitude": "-48.5577800",
      "createdAt": "2025-12-28T17:02:12.582Z",
      "updatedAt": "2025-12-28T17:02:12.582Z",
      "stateName": "São Paulo",
      "countryName": "Brazil"
    },
    {
      "id": 8270,
      "stateId": 253,
      "name": "Jaupaci",
      "latitude": null,
      "longitude": null,
      "createdAt": "2025-12-28T18:36:45.590Z",
      "updatedAt": "2025-12-28T18:36:45.590Z",
      "stateName": "Goiás",
      "countryName": "Brazil"
    },
    {
      "id": 4071,
      "stateId": 58,
      "name": "Jauregui",
      "latitude": "20.7412200",
      "longitude": "-100.4484300",
      "createdAt": "2025-12-28T18:16:08.526Z",
      "updatedAt": "2025-12-28T18:16:08.526Z",
      "stateName": "Buenos Aires",
      "countryName": "Argentina"
    },
    {
      "id": 6963,
      "stateId": 85,
      "name": "Jauru",
      "latitude": null,
      "longitude": null,
      "createdAt": "2025-12-28T18:27:37.789Z",
      "updatedAt": "2025-12-28T18:27:37.789Z",
      "stateName": "Mato Grosso",
      "countryName": "Brazil"
    },
    {
      "id": 5240,
      "stateId": 378,
      "name": "Jayamkondam",
      "latitude": null,
      "longitude": null,
      "createdAt": "2025-12-28T18:20:13.139Z",
      "updatedAt": "2025-12-28T18:20:13.139Z",
      "stateName": "Tamil Nadu",
      "countryName": "India"
    },
    {
      "id": 7951,
      "stateId": 846,
      "name": "Jayapura",
      "latitude": "-2.5337100",
      "longitude": "140.7181300",
      "createdAt": "2025-12-28T18:33:20.418Z",
      "updatedAt": "2025-12-28T18:33:20.418Z",
      "stateName": "Papua",
      "countryName": "Indonesia"
    },
    {
      "id": 12019,
      "stateId": 95,
      "name": "Jeceaba",
      "latitude": null,
      "longitude": null,
      "createdAt": "2025-12-28T19:11:34.514Z",
      "updatedAt": "2025-12-28T19:11:34.514Z",
      "stateName": "Minas Gerais",
      "countryName": "Brazil"
    },
    {
      "id": 17767,
      "stateId": 113,
      "name": "Jefferson",
      "latitude": "38.8645600",
      "longitude": "-77.1877600",
      "createdAt": "2026-02-19T03:33:02.702Z",
      "updatedAt": "2026-02-19T03:33:02.702Z",
      "stateName": "Iowa",
      "countryName": "United States"
    },
    {
      "id": 9989,
      "stateId": 31,
      "name": "Jefferson",
      "latitude": null,
      "longitude": null,
      "createdAt": "2025-12-28T18:49:24.077Z",
      "updatedAt": "2025-12-28T18:49:24.077Z",
      "stateName": "Kansas",
      "countryName": "United States"
    },
    {
      "id": 12053,
      "stateId": 55,
      "name": "Jefferson",
      "latitude": "38.8645600",
      "longitude": "-77.1877600",
      "createdAt": "2025-12-28T19:11:53.833Z",
      "updatedAt": "2025-12-28T19:11:53.833Z",
      "stateName": "North Carolina",
      "countryName": "United States"
    },
    {
      "id": 12038,
      "stateId": 20,
      "name": "Jefferson",
      "latitude": "38.8645600",
      "longitude": "-77.1877600",
      "createdAt": "2025-12-28T19:11:46.594Z",
      "updatedAt": "2025-12-28T19:11:46.594Z",
      "stateName": "Texas",
      "countryName": "United States"
    },
    {
      "id": 4092,
      "stateId": 14,
      "name": "Jefferson",
      "latitude": "38.8645600",
      "longitude": "-77.1877600",
      "createdAt": "2025-12-28T18:16:11.245Z",
      "updatedAt": "2025-12-28T18:16:11.245Z",
      "stateName": "Ohio",
      "countryName": "United States"
    },
    {
      "id": 12031,
      "stateId": 112,
      "name": "Jefferson City",
      "latitude": "38.5767000",
      "longitude": "-92.1735200",
      "createdAt": "2025-12-28T19:11:45.905Z",
      "updatedAt": "2025-12-28T19:11:45.905Z",
      "stateName": "Missouri",
      "countryName": "United States"
    },
    {
      "id": 12029,
      "stateId": 80,
      "name": "Jeffersontown",
      "latitude": "38.1942400",
      "longitude": "-85.5644000",
      "createdAt": "2025-12-28T19:11:43.723Z",
      "updatedAt": "2025-12-28T19:11:43.723Z",
      "stateName": "Kentucky",
      "countryName": "United States"
    },
    {
      "id": 12057,
      "stateId": 22,
      "name": "Jeffersonville",
      "latitude": "38.2775700",
      "longitude": "-85.7371800",
      "createdAt": "2025-12-28T19:11:55.806Z",
      "updatedAt": "2025-12-28T19:11:55.806Z",
      "stateName": "Georgia",
      "countryName": "United States"
    },
    {
      "id": 5252,
      "stateId": 51,
      "name": "Jeffersonville",
      "latitude": "38.2775700",
      "longitude": "-85.7371800",
      "createdAt": "2025-12-28T18:20:14.508Z",
      "updatedAt": "2025-12-28T18:20:14.508Z",
      "stateName": "Indiana",
      "countryName": "United States"
    },
    {
      "id": 12032,
      "stateId": 6,
      "name": "Jeffersonville",
      "latitude": "38.2775700",
      "longitude": "-85.7371800",
      "createdAt": "2025-12-28T19:11:46.009Z",
      "updatedAt": "2025-12-28T19:11:46.009Z",
      "stateName": "New York",
      "countryName": "United States"
    },
    {
      "id": 2401,
      "stateId": 471,
      "name": "Jeffreys Bay",
      "latitude": null,
      "longitude": null,
      "createdAt": "2025-12-28T18:12:02.224Z",
      "updatedAt": "2025-12-28T18:12:02.224Z",
      "stateName": "Eastern Cape",
      "countryName": "South Africa"
    },
    {
      "id": 12021,
      "stateId": 645,
      "name": "Jelenia Góra",
      "latitude": "50.8997300",
      "longitude": "15.7289900",
      "createdAt": "2025-12-28T19:11:35.237Z",
      "updatedAt": "2025-12-28T19:11:35.237Z",
      "stateName": "Lower Silesian",
      "countryName": "Poland"
    },
    {
      "id": 18241,
      "stateId": 1421,
      "name": "Jelenia Góra",
      "latitude": "50.8997300",
      "longitude": "15.7289900",
      "createdAt": "2026-05-01T16:30:36.609Z",
      "updatedAt": "2026-05-01T16:30:36.609Z",
      "stateName": "Lower Silesian Voivodeship",
      "countryName": "Poland"
    },
    {
      "id": 211,
      "stateId": 72,
      "name": "Jember",
      "latitude": "-8.1721100",
      "longitude": "113.6995300",
      "createdAt": "2025-12-28T16:56:35.779Z",
      "updatedAt": "2025-12-28T16:56:35.779Z",
      "stateName": "East Java",
      "countryName": "Indonesia"
    },
    {
      "id": 12045,
      "stateId": 122,
      "name": "Jemison",
      "latitude": "37.8034989",
      "longitude": "-92.5169818",
      "createdAt": "2025-12-28T19:11:52.335Z",
      "updatedAt": "2025-12-28T19:11:52.335Z",
      "stateName": "Alabama",
      "countryName": "United States"
    },
    {
      "id": 12039,
      "stateId": 16,
      "name": "Jena",
      "latitude": "37.8034989",
      "longitude": "-92.5169818",
      "createdAt": "2025-12-28T19:11:46.648Z",
      "updatedAt": "2025-12-28T19:11:46.648Z",
      "stateName": "Louisiana",
      "countryName": "United States"
    },
    {
      "id": 9546,
      "stateId": 578,
      "name": "Jena",
      "latitude": "50.9287800",
      "longitude": "11.5899000",
      "createdAt": "2025-12-28T18:45:11.552Z",
      "updatedAt": "2025-12-28T18:45:11.552Z",
      "stateName": "Thuringia",
      "countryName": "Germany"
    },
    {
      "id": 12020,
      "stateId": 328,
      "name": "Jenesano",
      "latitude": null,
      "longitude": null,
      "createdAt": "2025-12-28T19:11:35.000Z",
      "updatedAt": "2025-12-28T19:11:35.000Z",
      "stateName": "Boyacá",
      "countryName": "Colombia"
    },
    {
      "id": 12011,
      "stateId": 95,
      "name": "Jenipapo de Minas",
      "latitude": null,
      "longitude": null,
      "createdAt": "2025-12-28T19:11:25.514Z",
      "updatedAt": "2025-12-28T19:11:25.514Z",
      "stateName": "Minas Gerais",
      "countryName": "Brazil"
    },
    {
      "id": 10134,
      "stateId": 80,
      "name": "Jenkins",
      "latitude": "37.8034989",
      "longitude": "-92.5169818",
      "createdAt": "2025-12-28T18:50:27.093Z",
      "updatedAt": "2025-12-28T18:50:27.093Z",
      "stateName": "Kentucky",
      "countryName": "United States"
    },
    {
      "id": 5266,
      "stateId": 68,
      "name": "Jenkintown",
      "latitude": "37.8034989",
      "longitude": "-92.5169818",
      "createdAt": "2025-12-28T18:20:16.172Z",
      "updatedAt": "2025-12-28T18:20:16.172Z",
      "stateName": "Pennsylvania",
      "countryName": "United States"
    },
    {
      "id": 5927,
      "stateId": 151,
      "name": "Jenks",
      "latitude": "36.0228700",
      "longitude": "-95.9683300",
      "createdAt": "2025-12-28T18:22:36.976Z",
      "updatedAt": "2025-12-28T18:22:36.976Z",
      "stateName": "Oklahoma",
      "countryName": "United States"
    },
    {
      "id": 11216,
      "stateId": 16,
      "name": "Jennings",
      "latitude": "37.8034989",
      "longitude": "-92.5169818",
      "createdAt": "2025-12-28T19:02:55.305Z",
      "updatedAt": "2025-12-28T19:02:55.305Z",
      "stateName": "Louisiana",
      "countryName": "United States"
    },
    {
      "id": 10060,
      "stateId": 33,
      "name": "Jensen Beach",
      "latitude": "37.8034989",
      "longitude": "-92.5169818",
      "createdAt": "2025-12-28T18:49:59.414Z",
      "updatedAt": "2025-12-28T18:49:59.414Z",
      "stateName": "Florida",
      "countryName": "United States"
    },
    {
      "id": 8164,
      "stateId": 65,
      "name": "Jepara",
      "latitude": "-5.1788624",
      "longitude": "110.4217741",
      "createdAt": "2025-12-28T18:36:06.815Z",
      "updatedAt": "2025-12-28T18:36:06.815Z",
      "stateName": "Central Java",
      "countryName": "Indonesia"
    },
    {
      "id": 6765,
      "stateId": 262,
      "name": "Jequié",
      "latitude": "-13.8587500",
      "longitude": "-40.0851200",
      "createdAt": "2025-12-28T18:27:07.077Z",
      "updatedAt": "2025-12-28T18:27:07.077Z",
      "stateName": "Bahia",
      "countryName": "Brazil"
    },
    {
      "id": 6032,
      "stateId": 95,
      "name": "Jequitaí",
      "latitude": null,
      "longitude": null,
      "createdAt": "2025-12-28T18:22:58.226Z",
      "updatedAt": "2025-12-28T18:22:58.226Z",
      "stateName": "Minas Gerais",
      "countryName": "Brazil"
    },
    {
      "id": 7967,
      "stateId": 95,
      "name": "Jequitinhonha",
      "latitude": null,
      "longitude": null,
      "createdAt": "2025-12-28T18:33:43.947Z",
      "updatedAt": "2025-12-28T18:33:43.947Z",
      "stateName": "Minas Gerais",
      "countryName": "Brazil"
    },
    {
      "id": 4713,
      "stateId": 262,
      "name": "Jeremoabo",
      "latitude": "-10.0750000",
      "longitude": "-38.4808300",
      "createdAt": "2025-12-28T18:18:31.996Z",
      "updatedAt": "2025-12-28T18:18:31.996Z",
      "stateName": "Bahia",
      "countryName": "Brazil"
    },
    {
      "id": 940,
      "stateId": 375,
      "name": "Jerez",
      "latitude": "21.0459460",
      "longitude": "-100.0405298",
      "createdAt": "2025-12-28T17:02:29.535Z",
      "updatedAt": "2025-12-28T17:02:29.535Z",
      "stateName": "Zacatecas",
      "countryName": "Mexico"
    },
    {
      "id": 6313,
      "stateId": 172,
      "name": "Jerez de la Frontera",
      "latitude": "36.6864500",
      "longitude": "-6.1360600",
      "createdAt": "2025-12-28T18:24:40.074Z",
      "updatedAt": "2025-12-28T18:24:40.074Z",
      "stateName": "Cádiz",
      "countryName": "Spain"
    },
    {
      "id": 6263,
      "stateId": 172,
      "name": "Jerez De La Frontera",
      "latitude": "39.2717249",
      "longitude": "-3.2471696",
      "createdAt": "2025-12-28T18:24:25.927Z",
      "updatedAt": "2025-12-28T18:24:25.927Z",
      "stateName": "Cádiz",
      "countryName": "Spain"
    },
    {
      "id": 11913,
      "stateId": 287,
      "name": "Jericó",
      "latitude": null,
      "longitude": null,
      "createdAt": "2025-12-28T19:10:40.570Z",
      "updatedAt": "2025-12-28T19:10:40.570Z",
      "stateName": "Paraíba",
      "countryName": "Brazil"
    },
    {
      "id": 10874,
      "stateId": 75,
      "name": "Jerome",
      "latitude": "37.8034989",
      "longitude": "-92.5169818",
      "createdAt": "2025-12-28T18:58:34.534Z",
      "updatedAt": "2025-12-28T18:58:34.534Z",
      "stateName": "Arizona",
      "countryName": "United States"
    },
    {
      "id": 6136,
      "stateId": 110,
      "name": "Jerome",
      "latitude": "37.8034989",
      "longitude": "-92.5169818",
      "createdAt": "2025-12-28T18:23:19.622Z",
      "updatedAt": "2025-12-28T18:23:19.622Z",
      "stateName": "Idaho",
      "countryName": "United States"
    },
    {
      "id": 7470,
      "stateId": 261,
      "name": "Jerônimo Monteiro",
      "latitude": null,
      "longitude": null,
      "createdAt": "2025-12-28T18:30:19.196Z",
      "updatedAt": "2025-12-28T18:30:19.196Z",
      "stateName": "Espírito Santo",
      "countryName": "Brazil"
    },
    {
      "id": 12044,
      "stateId": 2,
      "name": "Jersey",
      "latitude": "40.7281600",
      "longitude": "-74.0776400",
      "createdAt": "2025-12-28T19:11:50.763Z",
      "updatedAt": "2025-12-28T19:11:50.763Z",
      "stateName": "England",
      "countryName": "United Kingdom"
    },
    {
      "id": 881,
      "stateId": 106,
      "name": "Jersey City",
      "latitude": "40.7281600",
      "longitude": "-74.0776400",
      "createdAt": "2025-12-28T17:02:25.719Z",
      "updatedAt": "2025-12-28T17:02:25.719Z",
      "stateName": "New Jersey",
      "countryName": "United States"
    },
    {
      "id": 5311,
      "stateId": 68,
      "name": "Jersey Shore",
      "latitude": "37.8034989",
      "longitude": "-92.5169818",
      "createdAt": "2025-12-28T18:20:21.300Z",
      "updatedAt": "2025-12-28T18:20:21.300Z",
      "stateName": "Pennsylvania",
      "countryName": "United States"
    },
    {
      "id": 18047,
      "stateId": 1387,
      "name": "Jesi",
      "latitude": "43.5214200",
      "longitude": "13.2436800",
      "createdAt": "2026-03-30T07:10:40.191Z",
      "updatedAt": "2026-03-30T07:10:40.191Z",
      "stateName": "Marche",
      "countryName": "Italy"
    },
    {
      "id": 12061,
      "stateId": 521,
      "name": "Jesi",
      "latitude": "43.5214200",
      "longitude": "13.2436800",
      "createdAt": "2025-12-28T19:11:57.288Z",
      "updatedAt": "2025-12-28T19:11:57.288Z",
      "stateName": "Ancona",
      "countryName": "Italy"
    },
    {
      "id": 615,
      "stateId": 137,
      "name": "Jesuitas",
      "latitude": "-17.4339069",
      "longitude": "-45.8426650",
      "createdAt": "2025-12-28T17:01:13.278Z",
      "updatedAt": "2025-12-28T17:01:13.278Z",
      "stateName": "Paraná",
      "countryName": "Brazil"
    },
    {
      "id": 5243,
      "stateId": 22,
      "name": "Jesup",
      "latitude": "37.8034989",
      "longitude": "-92.5169818",
      "createdAt": "2025-12-28T18:20:13.263Z",
      "updatedAt": "2025-12-28T18:20:13.263Z",
      "stateName": "Georgia",
      "countryName": "United States"
    },
    {
      "id": 7310,
      "stateId": 361,
      "name": "Jesus de Otoro",
      "latitude": null,
      "longitude": null,
      "createdAt": "2025-12-28T18:29:31.132Z",
      "updatedAt": "2025-12-28T18:29:31.132Z",
      "stateName": "Intibuca Province",
      "countryName": "Honduras"
    },
    {
      "id": 2514,
      "stateId": 252,
      "name": "Jesus Maria",
      "latitude": "21.9611100",
      "longitude": "-102.3433300",
      "createdAt": "2025-12-28T18:12:19.380Z",
      "updatedAt": "2025-12-28T18:12:19.380Z",
      "stateName": "Aguascalientes",
      "countryName": "Mexico"
    },
    {
      "id": 10495,
      "stateId": 147,
      "name": "Jesus Maria",
      "latitude": "-30.9815300",
      "longitude": "-64.0942400",
      "createdAt": "2025-12-28T18:54:02.929Z",
      "updatedAt": "2025-12-28T18:54:02.929Z",
      "stateName": "Cordoba",
      "countryName": "Argentina"
    },
    {
      "id": 12056,
      "stateId": 34,
      "name": "Jettenbach",
      "latitude": "50.9385735",
      "longitude": "9.5583023",
      "createdAt": "2025-12-28T19:11:55.459Z",
      "updatedAt": "2025-12-28T19:11:55.459Z",
      "stateName": "Bavaria",
      "countryName": "Germany"
    },
    {
      "id": 12066,
      "stateId": 512,
      "name": "Jeumont",
      "latitude": null,
      "longitude": null,
      "createdAt": "2025-12-28T19:11:59.782Z",
      "updatedAt": "2025-12-28T19:11:59.782Z",
      "stateName": "Nord",
      "countryName": "France"
    },
    {
      "id": 17969,
      "stateId": 1269,
      "name": "Jeypore",
      "latitude": "26.9196200",
      "longitude": "75.7878100",
      "createdAt": "2026-03-21T21:50:28.438Z",
      "updatedAt": "2026-03-21T21:50:28.438Z",
      "stateName": "Odisha",
      "countryName": "India"
    },
    {
      "id": 5142,
      "stateId": 366,
      "name": "Jhabua",
      "latitude": null,
      "longitude": null,
      "createdAt": "2025-12-28T18:19:48.405Z",
      "updatedAt": "2025-12-28T18:19:48.405Z",
      "stateName": "Madhya Pradesh",
      "countryName": "India"
    },
    {
      "id": 2685,
      "stateId": 343,
      "name": "Jhalawar",
      "latitude": "21.6224148",
      "longitude": "79.1259549",
      "createdAt": "2025-12-28T18:12:40.340Z",
      "updatedAt": "2025-12-28T18:12:40.340Z",
      "stateName": "Rajasthan",
      "countryName": "India"
    },
    {
      "id": 2715,
      "stateId": 296,
      "name": "Jhansi",
      "latitude": "21.6224148",
      "longitude": "79.1259549",
      "createdAt": "2025-12-28T18:12:41.737Z",
      "updatedAt": "2025-12-28T18:12:41.737Z",
      "stateName": "Uttar Pradesh",
      "countryName": "India"
    },
    {
      "id": 12105,
      "stateId": 703,
      "name": "Jiaxing",
      "latitude": null,
      "longitude": null,
      "createdAt": "2025-12-28T19:12:26.092Z",
      "updatedAt": "2025-12-28T19:12:26.092Z",
      "stateName": "Zhejiang",
      "countryName": "China"
    },
    {
      "id": 1284,
      "stateId": 231,
      "name": "Jijoca De Jericoacoara",
      "latitude": "-17.4339069",
      "longitude": "-45.8426650",
      "createdAt": "2025-12-28T17:03:30.682Z",
      "updatedAt": "2025-12-28T17:03:30.682Z",
      "stateName": "Ceará",
      "countryName": "Brazil"
    },
    {
      "id": 12102,
      "stateId": 172,
      "name": "Jimena de la Frontera",
      "latitude": null,
      "longitude": null,
      "createdAt": "2025-12-28T19:12:25.237Z",
      "updatedAt": "2025-12-28T19:12:25.237Z",
      "stateName": "Cádiz",
      "countryName": "Spain"
    },
    {
      "id": 9637,
      "stateId": 68,
      "name": "Jim Thorpe",
      "latitude": "37.8034989",
      "longitude": "-92.5169818",
      "createdAt": "2025-12-28T18:45:58.237Z",
      "updatedAt": "2025-12-28T18:45:58.237Z",
      "stateName": "Pennsylvania",
      "countryName": "United States"
    },
    {
      "id": 4674,
      "stateId": 259,
      "name": "Jinja",
      "latitude": null,
      "longitude": null,
      "createdAt": "2025-12-28T18:18:23.891Z",
      "updatedAt": "2025-12-28T18:18:23.891Z",
      "stateName": "Eastern Region",
      "countryName": "Uganda"
    },
    {
      "id": 662,
      "stateId": 313,
      "name": "Jinotega",
      "latitude": "13.1004200",
      "longitude": "-86.0022600",
      "createdAt": "2025-12-28T17:01:18.220Z",
      "updatedAt": "2025-12-28T17:01:18.220Z",
      "stateName": "Jinotega",
      "countryName": "Nicaragua"
    },
    {
      "id": 5724,
      "stateId": 630,
      "name": "Jinzhou",
      "latitude": "39.1000000",
      "longitude": "121.7166700",
      "createdAt": "2025-12-28T18:22:00.405Z",
      "updatedAt": "2025-12-28T18:22:00.405Z",
      "stateName": "Liaoning",
      "countryName": "China"
    },
    {
      "id": 2979,
      "stateId": 652,
      "name": "Ji Parana",
      "latitude": "-17.4339069",
      "longitude": "-45.8426650",
      "createdAt": "2025-12-28T18:13:26.069Z",
      "updatedAt": "2025-12-28T18:13:26.069Z",
      "stateName": "Rondônia",
      "countryName": "Brazil"
    }
  ],
  "meta": {
    "page": 78,
    "limit": 100,
    "total": 18002,
    "totalPages": 181
  }
}
