{
  "source": "50k-radio-stations",
  "provider": "rapidapi",
  "syncedAt": "2026-06-03T13:05:30.251Z",
  "endpoint": "/cities",
  "page": 108,
  "limit": 250,
  "data": [
    {
      "id": 3672,
      "stateId": 46,
      "name": "Mount Vernon",
      "latitude": "38.3172700",
      "longitude": "-88.9031200",
      "createdAt": "2025-12-28T18:15:00.788Z",
      "updatedAt": "2025-12-28T18:15:00.788Z",
      "stateName": "Illinois",
      "countryName": "United States"
    },
    {
      "id": 14557,
      "stateId": 14,
      "name": "Mount Vernon",
      "latitude": "40.3934000",
      "longitude": "-82.4857200",
      "createdAt": "2025-12-28T19:45:58.903Z",
      "updatedAt": "2025-12-28T19:45:58.903Z",
      "stateName": "Ohio",
      "countryName": "United States"
    },
    {
      "id": 15813,
      "stateId": 22,
      "name": "Mount Vernon",
      "latitude": "40.9126000",
      "longitude": "-73.8370800",
      "createdAt": "2025-12-28T20:19:52.878Z",
      "updatedAt": "2025-12-28T20:19:52.878Z",
      "stateName": "Georgia",
      "countryName": "United States"
    },
    {
      "id": 7252,
      "stateId": 112,
      "name": "Mount Vernon",
      "latitude": "40.3934000",
      "longitude": "-82.4857200",
      "createdAt": "2025-12-28T18:28:58.850Z",
      "updatedAt": "2025-12-28T18:28:58.850Z",
      "stateName": "Missouri",
      "countryName": "United States"
    },
    {
      "id": 5248,
      "stateId": 42,
      "name": "Mount Vernon",
      "latitude": "48.4212200",
      "longitude": "-122.3340500",
      "createdAt": "2025-12-28T18:20:13.727Z",
      "updatedAt": "2025-12-28T18:20:13.727Z",
      "stateName": "Washington",
      "countryName": "United States"
    },
    {
      "id": 12613,
      "stateId": 80,
      "name": "Mount Vernon",
      "latitude": "40.9126000",
      "longitude": "-73.8370800",
      "createdAt": "2025-12-28T19:17:05.861Z",
      "updatedAt": "2025-12-28T19:17:05.861Z",
      "stateName": "Kentucky",
      "countryName": "United States"
    },
    {
      "id": 9749,
      "stateId": 80,
      "name": "Mount Washington",
      "latitude": "37.8034989",
      "longitude": "-92.5169818",
      "createdAt": "2025-12-28T18:47:02.947Z",
      "updatedAt": "2025-12-28T18:47:02.947Z",
      "stateName": "Kentucky",
      "countryName": "United States"
    },
    {
      "id": 16485,
      "stateId": 114,
      "name": "Mount Washington",
      "latitude": null,
      "longitude": null,
      "createdAt": "2025-12-28T20:44:56.079Z",
      "updatedAt": "2025-12-28T20:44:56.079Z",
      "stateName": "New Hampshire",
      "countryName": "United States"
    },
    {
      "id": 5481,
      "stateId": 55,
      "name": "Mount Zion",
      "latitude": null,
      "longitude": null,
      "createdAt": "2025-12-28T18:21:03.649Z",
      "updatedAt": "2025-12-28T18:21:03.649Z",
      "stateName": "North Carolina",
      "countryName": "United States"
    },
    {
      "id": 15122,
      "stateId": 678,
      "name": "Moura",
      "latitude": "39.5232529",
      "longitude": "-8.9987995",
      "createdAt": "2025-12-28T19:55:21.248Z",
      "updatedAt": "2025-12-28T19:55:21.248Z",
      "stateName": "Alentejo",
      "countryName": "Portugal"
    },
    {
      "id": 15263,
      "stateId": 754,
      "name": "Mouscron",
      "latitude": "50.7449700",
      "longitude": "3.2063900",
      "createdAt": "2025-12-28T20:00:02.164Z",
      "updatedAt": "2025-12-28T20:00:02.164Z",
      "stateName": "Hainaut",
      "countryName": "Belgium"
    },
    {
      "id": 2314,
      "stateId": 583,
      "name": "Moyo",
      "latitude": null,
      "longitude": null,
      "createdAt": "2025-12-28T18:11:43.701Z",
      "updatedAt": "2025-12-28T18:11:43.701Z",
      "stateName": "Northern Region",
      "countryName": "Uganda"
    },
    {
      "id": 1357,
      "stateId": 55,
      "name": "Moyock",
      "latitude": "37.8034989",
      "longitude": "-92.5169818",
      "createdAt": "2025-12-28T17:03:43.773Z",
      "updatedAt": "2025-12-28T17:03:43.773Z",
      "stateName": "North Carolina",
      "countryName": "United States"
    },
    {
      "id": 15986,
      "stateId": 253,
      "name": "Mozarlândia",
      "latitude": null,
      "longitude": null,
      "createdAt": "2025-12-28T20:25:26.707Z",
      "updatedAt": "2025-12-28T20:25:26.707Z",
      "stateName": "Goiás",
      "countryName": "Brazil"
    },
    {
      "id": 13960,
      "stateId": 471,
      "name": "Mqanduli",
      "latitude": null,
      "longitude": null,
      "createdAt": "2025-12-28T19:35:29.597Z",
      "updatedAt": "2025-12-28T19:35:29.597Z",
      "stateName": "Eastern Cape",
      "countryName": "South Africa"
    },
    {
      "id": 13832,
      "stateId": 1069,
      "name": "Mragowo",
      "latitude": "51.8024603",
      "longitude": "19.2550087",
      "createdAt": "2025-12-28T19:32:46.530Z",
      "updatedAt": "2025-12-28T19:32:46.530Z",
      "stateName": "Warmian-Masurian",
      "countryName": "Poland"
    },
    {
      "id": 13332,
      "stateId": 402,
      "name": "Msinga",
      "latitude": null,
      "longitude": null,
      "createdAt": "2025-12-28T19:23:07.105Z",
      "updatedAt": "2025-12-28T19:23:07.105Z",
      "stateName": "KwaZulu-Natal Prov.",
      "countryName": "South Africa"
    },
    {
      "id": 2356,
      "stateId": 471,
      "name": "Mthatha (Umtata)",
      "latitude": "-28.4711100",
      "longitude": "27.1943921",
      "createdAt": "2025-12-28T18:11:53.981Z",
      "updatedAt": "2025-12-28T18:11:53.981Z",
      "stateName": "Eastern Cape",
      "countryName": "South Africa"
    },
    {
      "id": 6507,
      "stateId": 402,
      "name": "Mtubatuba",
      "latitude": null,
      "longitude": null,
      "createdAt": "2025-12-28T18:25:35.574Z",
      "updatedAt": "2025-12-28T18:25:35.574Z",
      "stateName": "KwaZulu-Natal Prov.",
      "countryName": "South Africa"
    },
    {
      "id": 15208,
      "stateId": 159,
      "name": "Muaná",
      "latitude": null,
      "longitude": null,
      "createdAt": "2025-12-28T19:58:25.999Z",
      "updatedAt": "2025-12-28T19:58:25.999Z",
      "stateName": "Pará",
      "countryName": "Brazil"
    },
    {
      "id": 8624,
      "stateId": 259,
      "name": "Mubende",
      "latitude": null,
      "longitude": null,
      "createdAt": "2025-12-28T18:39:26.206Z",
      "updatedAt": "2025-12-28T18:39:26.206Z",
      "stateName": "Eastern Region",
      "countryName": "Uganda"
    },
    {
      "id": 13914,
      "stateId": 356,
      "name": "Mucajaí",
      "latitude": null,
      "longitude": null,
      "createdAt": "2025-12-28T19:34:48.537Z",
      "updatedAt": "2025-12-28T19:34:48.537Z",
      "stateName": "Roraima",
      "countryName": "Brazil"
    },
    {
      "id": 5624,
      "stateId": 231,
      "name": "Mucambo",
      "latitude": "-17.4339069",
      "longitude": "-45.8426650",
      "createdAt": "2025-12-28T18:21:43.431Z",
      "updatedAt": "2025-12-28T18:21:43.431Z",
      "stateName": "Ceará",
      "countryName": "Brazil"
    },
    {
      "id": 13984,
      "stateId": 529,
      "name": "Mucuchíes",
      "latitude": null,
      "longitude": null,
      "createdAt": "2025-12-28T19:36:30.467Z",
      "updatedAt": "2025-12-28T19:36:30.467Z",
      "stateName": "Merida",
      "countryName": "Venezuela"
    },
    {
      "id": 1741,
      "stateId": 262,
      "name": "Mucuri",
      "latitude": null,
      "longitude": null,
      "createdAt": "2025-12-28T18:10:07.994Z",
      "updatedAt": "2025-12-28T18:10:07.994Z",
      "stateName": "Bahia",
      "countryName": "Brazil"
    },
    {
      "id": 3152,
      "stateId": 261,
      "name": "Mucurici",
      "latitude": null,
      "longitude": null,
      "createdAt": "2025-12-28T18:13:46.940Z",
      "updatedAt": "2025-12-28T18:13:46.940Z",
      "stateName": "Espírito Santo",
      "countryName": "Brazil"
    },
    {
      "id": 16817,
      "stateId": 17,
      "name": "Mudau",
      "latitude": "50.9385735",
      "longitude": "9.5583023",
      "createdAt": "2025-12-28T20:52:38.649Z",
      "updatedAt": "2025-12-28T20:52:38.649Z",
      "stateName": "Baden-Württemberg",
      "countryName": "Germany"
    },
    {
      "id": 17264,
      "stateId": 19,
      "name": "Mudgee",
      "latitude": "-33.9811915",
      "longitude": "144.8351072",
      "createdAt": "2025-12-29T16:16:27.300Z",
      "updatedAt": "2025-12-29T16:16:27.300Z",
      "stateName": "New South Wales",
      "countryName": "Australia"
    },
    {
      "id": 4199,
      "stateId": 608,
      "name": "Mueang Chiang Mai",
      "latitude": null,
      "longitude": null,
      "createdAt": "2025-12-28T18:16:32.714Z",
      "updatedAt": "2025-12-28T18:16:32.714Z",
      "stateName": "Chiang Mai province",
      "countryName": "Thailand"
    },
    {
      "id": 13219,
      "stateId": 20,
      "name": "Muenster",
      "latitude": "37.8034989",
      "longitude": "-92.5169818",
      "createdAt": "2025-12-28T19:21:37.741Z",
      "updatedAt": "2025-12-28T19:21:37.741Z",
      "stateName": "Texas",
      "countryName": "United States"
    },
    {
      "id": 17288,
      "stateId": 93,
      "name": "Mugeln",
      "latitude": "50.9385735",
      "longitude": "9.5583023",
      "createdAt": "2025-12-29T16:17:58.851Z",
      "updatedAt": "2025-12-29T16:17:58.851Z",
      "stateName": "Saxony",
      "countryName": "Germany"
    },
    {
      "id": 11937,
      "stateId": 196,
      "name": "Muggia",
      "latitude": "42.4957616",
      "longitude": "12.4479260",
      "createdAt": "2025-12-28T19:10:49.604Z",
      "updatedAt": "2025-12-28T19:10:49.604Z",
      "stateName": "Trieste",
      "countryName": "Italy"
    },
    {
      "id": 17697,
      "stateId": 1054,
      "name": "Mugla",
      "latitude": "37.2180700",
      "longitude": "28.3665000",
      "createdAt": "2026-02-07T23:30:48.253Z",
      "updatedAt": "2026-02-07T23:30:48.253Z",
      "stateName": "Mugla",
      "countryName": "Turkey"
    },
    {
      "id": 18477,
      "stateId": 578,
      "name": "Mühlhausen",
      "latitude": "51.2089600",
      "longitude": "10.4527500",
      "createdAt": "2026-06-01T23:46:07.262Z",
      "updatedAt": "2026-06-01T23:46:07.262Z",
      "stateName": "Thuringia",
      "countryName": "Germany"
    },
    {
      "id": 16963,
      "stateId": 732,
      "name": "Muhr am See",
      "latitude": null,
      "longitude": null,
      "createdAt": "2025-12-28T21:00:55.709Z",
      "updatedAt": "2025-12-28T21:00:55.709Z",
      "stateName": "Bayern",
      "countryName": "Germany"
    },
    {
      "id": 14387,
      "stateId": 420,
      "name": "Mukachevo",
      "latitude": null,
      "longitude": null,
      "createdAt": "2025-12-28T19:43:49.149Z",
      "updatedAt": "2025-12-28T19:43:49.149Z",
      "stateName": "Zakarpattia Oblast",
      "countryName": "Ukraine"
    },
    {
      "id": 13613,
      "stateId": 8,
      "name": "Mukwonago",
      "latitude": "37.8034989",
      "longitude": "-92.5169818",
      "createdAt": "2025-12-28T19:28:57.569Z",
      "updatedAt": "2025-12-28T19:28:57.569Z",
      "stateName": "Wisconsin",
      "countryName": "United States"
    },
    {
      "id": 1272,
      "stateId": 432,
      "name": "Mülheim an der Ruhr",
      "latitude": null,
      "longitude": null,
      "createdAt": "2025-12-28T17:03:21.972Z",
      "updatedAt": "2025-12-28T17:03:21.972Z",
      "stateName": "North Rhine-Westphalia",
      "countryName": "Germany"
    },
    {
      "id": 3031,
      "stateId": 448,
      "name": "Mulhouse",
      "latitude": "47.7500000",
      "longitude": "7.3333300",
      "createdAt": "2025-12-28T18:13:33.837Z",
      "updatedAt": "2025-12-28T18:13:33.837Z",
      "stateName": "Alsace",
      "countryName": "France"
    },
    {
      "id": 18085,
      "stateId": 205,
      "name": "Muliterno",
      "latitude": null,
      "longitude": null,
      "createdAt": "2026-03-30T21:01:24.518Z",
      "updatedAt": "2026-03-30T21:01:24.518Z",
      "stateName": "Rio Grande do Sul",
      "countryName": "Brazil"
    },
    {
      "id": 16548,
      "stateId": 145,
      "name": "Mullins",
      "latitude": "37.8034989",
      "longitude": "-92.5169818",
      "createdAt": "2025-12-28T20:46:48.400Z",
      "updatedAt": "2025-12-28T20:46:48.400Z",
      "stateName": "South Carolina",
      "countryName": "United States"
    },
    {
      "id": 17267,
      "stateId": 19,
      "name": "Mullumbimby",
      "latitude": "-33.9811915",
      "longitude": "144.8351072",
      "createdAt": "2025-12-29T16:16:28.689Z",
      "updatedAt": "2025-12-29T16:16:28.689Z",
      "stateName": "New South Wales",
      "countryName": "Australia"
    },
    {
      "id": 78,
      "stateId": 54,
      "name": "Mumbai",
      "latitude": "19.0728300",
      "longitude": "72.8826100",
      "createdAt": "2025-12-28T16:56:21.827Z",
      "updatedAt": "2025-12-28T16:56:21.827Z",
      "stateName": "Maharashtra",
      "countryName": "India"
    },
    {
      "id": 14912,
      "stateId": 82,
      "name": "Mumbles",
      "latitude": "52.7709249",
      "longitude": "-1.7304307",
      "createdAt": "2025-12-28T19:50:20.890Z",
      "updatedAt": "2025-12-28T19:50:20.890Z",
      "stateName": "Wales",
      "countryName": "United Kingdom"
    },
    {
      "id": 18472,
      "stateId": 1493,
      "name": "Mumbwa",
      "latitude": "-14.9829300",
      "longitude": "27.0619000",
      "createdAt": "2026-06-01T18:30:10.069Z",
      "updatedAt": "2026-06-01T18:30:10.069Z",
      "stateName": "Central Province",
      "countryName": "Zambia"
    },
    {
      "id": 9526,
      "stateId": 732,
      "name": "Munchberg",
      "latitude": "50.9385735",
      "longitude": "9.5583023",
      "createdAt": "2025-12-28T18:45:03.348Z",
      "updatedAt": "2025-12-28T18:45:03.348Z",
      "stateName": "Bayern",
      "countryName": "Germany"
    },
    {
      "id": 2043,
      "stateId": 51,
      "name": "Muncie",
      "latitude": "40.1933800",
      "longitude": "-85.3863600",
      "createdAt": "2025-12-28T18:10:44.634Z",
      "updatedAt": "2025-12-28T18:10:44.634Z",
      "stateName": "Indiana",
      "countryName": "United States"
    },
    {
      "id": 16327,
      "stateId": 68,
      "name": "Muncy",
      "latitude": "37.8034989",
      "longitude": "-92.5169818",
      "createdAt": "2025-12-28T20:41:35.866Z",
      "updatedAt": "2025-12-28T20:41:35.866Z",
      "stateName": "Pennsylvania",
      "countryName": "United States"
    },
    {
      "id": 8266,
      "stateId": 536,
      "name": "Mundolsheim",
      "latitude": null,
      "longitude": null,
      "createdAt": "2025-12-28T18:36:44.334Z",
      "updatedAt": "2025-12-28T18:36:44.334Z",
      "stateName": "Grand Est",
      "countryName": "France"
    },
    {
      "id": 17310,
      "stateId": 262,
      "name": "Mundo Novo",
      "latitude": "-17.4339069",
      "longitude": "-45.8426650",
      "createdAt": "2025-12-29T16:21:59.699Z",
      "updatedAt": "2025-12-29T16:21:59.699Z",
      "stateName": "Bahia",
      "countryName": "Brazil"
    },
    {
      "id": 9833,
      "stateId": 369,
      "name": "Mundo Novo",
      "latitude": null,
      "longitude": null,
      "createdAt": "2025-12-28T18:47:42.376Z",
      "updatedAt": "2025-12-28T18:47:42.376Z",
      "stateName": "Mato Grosso do Sul",
      "countryName": "Brazil"
    },
    {
      "id": 12640,
      "stateId": 75,
      "name": "Munds Park",
      "latitude": "37.8034989",
      "longitude": "-92.5169818",
      "createdAt": "2025-12-28T19:17:15.400Z",
      "updatedAt": "2025-12-28T19:17:15.400Z",
      "stateName": "Arizona",
      "countryName": "United States"
    },
    {
      "id": 6021,
      "stateId": 21,
      "name": "Munford",
      "latitude": "37.8034989",
      "longitude": "-92.5169818",
      "createdAt": "2025-12-28T18:22:52.171Z",
      "updatedAt": "2025-12-28T18:22:52.171Z",
      "stateName": "Tennessee",
      "countryName": "United States"
    },
    {
      "id": 11933,
      "stateId": 80,
      "name": "Munfordville",
      "latitude": "37.8034989",
      "longitude": "-92.5169818",
      "createdAt": "2025-12-28T19:10:48.375Z",
      "updatedAt": "2025-12-28T19:10:48.375Z",
      "stateName": "Kentucky",
      "countryName": "United States"
    },
    {
      "id": 5416,
      "stateId": 290,
      "name": "Munger",
      "latitude": null,
      "longitude": null,
      "createdAt": "2025-12-28T18:20:37.633Z",
      "updatedAt": "2025-12-28T18:20:37.633Z",
      "stateName": "Bihar",
      "countryName": "India"
    },
    {
      "id": 145,
      "stateId": 34,
      "name": "Munich",
      "latitude": "48.1374300",
      "longitude": "11.5754900",
      "createdAt": "2025-12-28T16:56:29.310Z",
      "updatedAt": "2025-12-28T16:56:29.310Z",
      "stateName": "Bavaria",
      "countryName": "Germany"
    },
    {
      "id": 10705,
      "stateId": 92,
      "name": "Munising",
      "latitude": "37.8034989",
      "longitude": "-92.5169818",
      "createdAt": "2025-12-28T18:56:46.839Z",
      "updatedAt": "2025-12-28T18:56:46.839Z",
      "stateName": "Michigan",
      "countryName": "United States"
    },
    {
      "id": 15088,
      "stateId": 261,
      "name": "Muniz Freire",
      "latitude": null,
      "longitude": null,
      "createdAt": "2025-12-28T19:54:17.768Z",
      "updatedAt": "2025-12-28T19:54:17.768Z",
      "stateName": "Espírito Santo",
      "countryName": "Brazil"
    },
    {
      "id": 2828,
      "stateId": 58,
      "name": "Munro",
      "latitude": "-32.1628172",
      "longitude": "-62.0921509",
      "createdAt": "2025-12-28T18:12:50.366Z",
      "updatedAt": "2025-12-28T18:12:50.366Z",
      "stateName": "Buenos Aires",
      "countryName": "Argentina"
    },
    {
      "id": 8558,
      "stateId": 14,
      "name": "Munroe Falls",
      "latitude": "37.8034989",
      "longitude": "-92.5169818",
      "createdAt": "2025-12-28T18:39:14.981Z",
      "updatedAt": "2025-12-28T18:39:14.981Z",
      "stateName": "Ohio",
      "countryName": "United States"
    },
    {
      "id": 17177,
      "stateId": 51,
      "name": "Munster",
      "latitude": null,
      "longitude": null,
      "createdAt": "2025-12-29T15:46:51.598Z",
      "updatedAt": "2025-12-29T15:46:51.598Z",
      "stateName": "Indiana",
      "countryName": "United States"
    },
    {
      "id": 14679,
      "stateId": 84,
      "name": "Münster",
      "latitude": null,
      "longitude": null,
      "createdAt": "2025-12-28T19:47:19.139Z",
      "updatedAt": "2025-12-28T19:47:19.139Z",
      "stateName": "Hesse",
      "countryName": "Germany"
    },
    {
      "id": 3507,
      "stateId": 432,
      "name": "Münster",
      "latitude": "51.9623600",
      "longitude": "7.6257100",
      "createdAt": "2025-12-28T18:14:41.530Z",
      "updatedAt": "2025-12-28T18:14:41.530Z",
      "stateName": "North Rhine-Westphalia",
      "countryName": "Germany"
    },
    {
      "id": 16236,
      "stateId": 169,
      "name": "Muravera",
      "latitude": "42.4957616",
      "longitude": "12.4479260",
      "createdAt": "2025-12-28T20:39:43.530Z",
      "updatedAt": "2025-12-28T20:39:43.530Z",
      "stateName": "Sardinia",
      "countryName": "Italy"
    },
    {
      "id": 447,
      "stateId": 218,
      "name": "Murcia",
      "latitude": "37.9870400",
      "longitude": "-1.1300400",
      "createdAt": "2025-12-28T17:00:50.711Z",
      "updatedAt": "2025-12-28T17:00:50.711Z",
      "stateName": "Murcia",
      "countryName": "Spain"
    },
    {
      "id": 16070,
      "stateId": 33,
      "name": "Murdock",
      "latitude": "37.8034989",
      "longitude": "-92.5169818",
      "createdAt": "2025-12-28T20:31:08.195Z",
      "updatedAt": "2025-12-28T20:31:08.195Z",
      "stateName": "Florida",
      "countryName": "United States"
    },
    {
      "id": 8544,
      "stateId": 55,
      "name": "Murfreesboro",
      "latitude": "35.8456200",
      "longitude": "-86.3902700",
      "createdAt": "2025-12-28T18:39:12.148Z",
      "updatedAt": "2025-12-28T18:39:12.148Z",
      "stateName": "North Carolina",
      "countryName": "United States"
    },
    {
      "id": 11030,
      "stateId": 21,
      "name": "Murfreesboro",
      "latitude": "35.8456200",
      "longitude": "-86.3902700",
      "createdAt": "2025-12-28T19:00:26.823Z",
      "updatedAt": "2025-12-28T19:00:26.823Z",
      "stateName": "Tennessee",
      "countryName": "United States"
    },
    {
      "id": 12914,
      "stateId": 32,
      "name": "Murfreesboro",
      "latitude": "35.8456200",
      "longitude": "-86.3902700",
      "createdAt": "2025-12-28T19:19:34.644Z",
      "updatedAt": "2025-12-28T19:19:34.644Z",
      "stateName": "Arkansas",
      "countryName": "United States"
    },
    {
      "id": 4276,
      "stateId": 95,
      "name": "Muriaé",
      "latitude": null,
      "longitude": null,
      "createdAt": "2025-12-28T18:16:42.717Z",
      "updatedAt": "2025-12-28T18:16:42.717Z",
      "stateName": "Minas Gerais",
      "countryName": "Brazil"
    },
    {
      "id": 7359,
      "stateId": 274,
      "name": "Murici",
      "latitude": null,
      "longitude": null,
      "createdAt": "2025-12-28T18:29:45.691Z",
      "updatedAt": "2025-12-28T18:29:45.691Z",
      "stateName": "Alagoas",
      "countryName": "Brazil"
    },
    {
      "id": 16229,
      "stateId": 262,
      "name": "Muritiba",
      "latitude": null,
      "longitude": null,
      "createdAt": "2025-12-28T20:39:13.951Z",
      "updatedAt": "2025-12-28T20:39:13.951Z",
      "stateName": "Bahia",
      "countryName": "Brazil"
    },
    {
      "id": 5741,
      "stateId": 889,
      "name": "Murmansk",
      "latitude": null,
      "longitude": null,
      "createdAt": "2025-12-28T18:22:03.185Z",
      "updatedAt": "2025-12-28T18:22:03.185Z",
      "stateName": "Murmansk",
      "countryName": "Russia"
    },
    {
      "id": 18002,
      "stateId": 34,
      "name": "Murnau am Staffelsee",
      "latitude": "50.9385735",
      "longitude": "9.5583023",
      "createdAt": "2026-03-27T20:51:39.321Z",
      "updatedAt": "2026-03-27T20:51:39.321Z",
      "stateName": "Bavaria",
      "countryName": "Germany"
    },
    {
      "id": 8900,
      "stateId": 120,
      "name": "Muro del Alcoy",
      "latitude": "39.2717249",
      "longitude": "-3.2471696",
      "createdAt": "2025-12-28T18:40:55.087Z",
      "updatedAt": "2025-12-28T18:40:55.087Z",
      "stateName": "Valencia",
      "countryName": "Spain"
    },
    {
      "id": 9223,
      "stateId": 1090,
      "name": "Murom",
      "latitude": null,
      "longitude": null,
      "createdAt": "2025-12-28T18:42:38.924Z",
      "updatedAt": "2025-12-28T18:42:38.924Z",
      "stateName": "Vladimir",
      "countryName": "Russia"
    },
    {
      "id": 5804,
      "stateId": 55,
      "name": "Murphy",
      "latitude": "33.0151200",
      "longitude": "-96.6130500",
      "createdAt": "2025-12-28T18:22:14.238Z",
      "updatedAt": "2025-12-28T18:22:14.238Z",
      "stateName": "North Carolina",
      "countryName": "United States"
    },
    {
      "id": 11524,
      "stateId": 46,
      "name": "Murphysboro",
      "latitude": "37.8034989",
      "longitude": "-92.5169818",
      "createdAt": "2025-12-28T19:06:34.573Z",
      "updatedAt": "2025-12-28T19:06:34.573Z",
      "stateName": "Illinois",
      "countryName": "United States"
    },
    {
      "id": 113,
      "stateId": 80,
      "name": "Murray",
      "latitude": "36.6103300",
      "longitude": "-88.3147600",
      "createdAt": "2025-12-28T16:56:25.007Z",
      "updatedAt": "2025-12-28T16:56:25.007Z",
      "stateName": "Kentucky",
      "countryName": "United States"
    },
    {
      "id": 11716,
      "stateId": 113,
      "name": "Murray",
      "latitude": "40.6668900",
      "longitude": "-111.8879900",
      "createdAt": "2025-12-28T19:08:45.989Z",
      "updatedAt": "2025-12-28T19:08:45.989Z",
      "stateName": "Iowa",
      "countryName": "United States"
    },
    {
      "id": 4445,
      "stateId": 419,
      "name": "Murray Bridge",
      "latitude": null,
      "longitude": null,
      "createdAt": "2025-12-28T18:17:34.910Z",
      "updatedAt": "2025-12-28T18:17:34.910Z",
      "stateName": "South Australia",
      "countryName": "Australia"
    },
    {
      "id": 10628,
      "stateId": 22,
      "name": "Murrayville",
      "latitude": "37.8034989",
      "longitude": "-92.5169818",
      "createdAt": "2025-12-28T18:55:50.747Z",
      "updatedAt": "2025-12-28T18:55:50.747Z",
      "stateName": "Georgia",
      "countryName": "United States"
    },
    {
      "id": 10104,
      "stateId": 145,
      "name": "Murrells Inlet",
      "latitude": "37.8034989",
      "longitude": "-92.5169818",
      "createdAt": "2025-12-28T18:50:18.450Z",
      "updatedAt": "2025-12-28T18:50:18.450Z",
      "stateName": "South Carolina",
      "countryName": "United States"
    },
    {
      "id": 11139,
      "stateId": 24,
      "name": "Murrieta",
      "latitude": null,
      "longitude": null,
      "createdAt": "2025-12-28T19:01:21.175Z",
      "updatedAt": "2025-12-28T19:01:21.175Z",
      "stateName": "California",
      "countryName": "United States"
    },
    {
      "id": 17980,
      "stateId": 331,
      "name": "Murshidabad",
      "latitude": "21.6224148",
      "longitude": "79.1259549",
      "createdAt": "2026-03-24T13:10:22.748Z",
      "updatedAt": "2026-03-24T13:10:22.748Z",
      "stateName": "West Bengal",
      "countryName": "India"
    },
    {
      "id": 2639,
      "stateId": 621,
      "name": "Murshidabad",
      "latitude": "21.6224148",
      "longitude": "79.1259549",
      "createdAt": "2025-12-28T18:12:38.435Z",
      "updatedAt": "2025-12-28T18:12:38.435Z",
      "stateName": "Bangla",
      "countryName": "India"
    },
    {
      "id": 6095,
      "stateId": 113,
      "name": "Muscatine",
      "latitude": "41.4244700",
      "longitude": "-91.0432100",
      "createdAt": "2025-12-28T18:23:14.641Z",
      "updatedAt": "2025-12-28T18:23:14.641Z",
      "stateName": "Iowa",
      "countryName": "United States"
    },
    {
      "id": 5208,
      "stateId": 122,
      "name": "Muscle Shoals",
      "latitude": "37.8034989",
      "longitude": "-92.5169818",
      "createdAt": "2025-12-28T18:20:09.007Z",
      "updatedAt": "2025-12-28T18:20:09.007Z",
      "stateName": "Alabama",
      "countryName": "United States"
    },
    {
      "id": 2380,
      "stateId": 453,
      "name": "Musina",
      "latitude": null,
      "longitude": null,
      "createdAt": "2025-12-28T18:11:59.166Z",
      "updatedAt": "2025-12-28T18:11:59.166Z",
      "stateName": "Limpopo",
      "countryName": "South Africa"
    },
    {
      "id": 3397,
      "stateId": 92,
      "name": "Muskegon",
      "latitude": "43.2341800",
      "longitude": "-86.2483900",
      "createdAt": "2025-12-28T18:14:21.066Z",
      "updatedAt": "2025-12-28T18:14:21.066Z",
      "stateName": "Michigan",
      "countryName": "United States"
    },
    {
      "id": 16650,
      "stateId": 92,
      "name": "Muskegon Heights",
      "latitude": "37.8034989",
      "longitude": "-92.5169818",
      "createdAt": "2025-12-28T20:48:45.529Z",
      "updatedAt": "2025-12-28T20:48:45.529Z",
      "stateName": "Michigan",
      "countryName": "United States"
    },
    {
      "id": 14644,
      "stateId": 151,
      "name": "Muskogee",
      "latitude": "35.7478800",
      "longitude": "-95.3696900",
      "createdAt": "2025-12-28T19:46:40.997Z",
      "updatedAt": "2025-12-28T19:46:40.997Z",
      "stateName": "Oklahoma",
      "countryName": "United States"
    },
    {
      "id": 17170,
      "stateId": 41,
      "name": "Muskoka",
      "latitude": null,
      "longitude": null,
      "createdAt": "2025-12-29T15:46:06.797Z",
      "updatedAt": "2025-12-29T15:46:06.797Z",
      "stateName": "Ontario",
      "countryName": "Canada"
    },
    {
      "id": 6155,
      "stateId": 647,
      "name": "Mustafakemalpaşa",
      "latitude": null,
      "longitude": null,
      "createdAt": "2025-12-28T18:23:22.454Z",
      "updatedAt": "2025-12-28T18:23:22.454Z",
      "stateName": "Bursa Province",
      "countryName": "Turkey"
    },
    {
      "id": 13294,
      "stateId": 151,
      "name": "Mustang",
      "latitude": "35.3842300",
      "longitude": "-97.7244900",
      "createdAt": "2025-12-28T19:22:50.220Z",
      "updatedAt": "2025-12-28T19:22:50.220Z",
      "stateName": "Oklahoma",
      "countryName": "United States"
    },
    {
      "id": 4471,
      "stateId": 19,
      "name": "Muswellbrook",
      "latitude": "-33.9811915",
      "longitude": "144.8351072",
      "createdAt": "2025-12-28T18:17:41.367Z",
      "updatedAt": "2025-12-28T18:17:41.367Z",
      "stateName": "New South Wales",
      "countryName": "Australia"
    },
    {
      "id": 11601,
      "stateId": 262,
      "name": "Mutuipe",
      "latitude": null,
      "longitude": null,
      "createdAt": "2025-12-28T19:07:55.497Z",
      "updatedAt": "2025-12-28T19:07:55.497Z",
      "stateName": "Bahia",
      "countryName": "Brazil"
    },
    {
      "id": 18146,
      "stateId": 95,
      "name": "Mutum",
      "latitude": null,
      "longitude": null,
      "createdAt": "2026-04-02T00:43:26.492Z",
      "updatedAt": "2026-04-02T00:43:26.492Z",
      "stateName": "Minas Gerais",
      "countryName": "Brazil"
    },
    {
      "id": 15552,
      "stateId": 296,
      "name": "Muzaffarnagar",
      "latitude": null,
      "longitude": null,
      "createdAt": "2025-12-28T20:10:19.275Z",
      "updatedAt": "2025-12-28T20:10:19.275Z",
      "stateName": "Uttar Pradesh",
      "countryName": "India"
    },
    {
      "id": 4216,
      "stateId": 95,
      "name": "Muzambinho",
      "latitude": null,
      "longitude": null,
      "createdAt": "2025-12-28T18:16:38.739Z",
      "updatedAt": "2025-12-28T18:16:38.739Z",
      "stateName": "Minas Gerais",
      "countryName": "Brazil"
    }
  ],
  "meta": {
    "page": 108,
    "limit": 100,
    "total": 18002,
    "totalPages": 181
  }
}
